"AIRName","SourceID","AIRState","RegistryID","AIRNAICS","FacLat","FacLong","FacTRIAIRReleases","AIRFacilityTypeCode","AIRFacilityTypeDesc"
" ANDREWS & SMITH BODY & PAINT SHOP","GA0000001310500053","GA","110043431284","999999",34.06932,-82.86995,,,
"10009 HIGHWAY 92 WOODSTOCK","0400013057EPA01","GA","110071316661","722511",34.0864,-84.5206,,,
"1141 WEST GWINNETT STREET","04000EPAGA1141","GA","110070824158","999999",32.071641,-81.113732,,,
"1210 DRAYTON STREET","040000001305140001","GA","110071767630","531311",32.063179,-81.096406,,"POF","Privately Owned Facility"
"142 WHITEFOORD AVE., S.E.","0400000013121EPA03","GA","110071820655","531311",33.7495,-84.342,,"COR","Corporation"
"147 NORTH PARK STREET","04000EPAASB147N","GA","110071072984","999999",34.5345,-83.9869,,,
"152 PEACHTREE STREET SOUTHWEST","04000EPAASB152P","GA","110071063950","999999",33.75045,-84.39341,,,
"16 COLLINS DRIVE, CARTERSVILLE, GA 30120 ","04000GAASB16CDR","GA","110070704122","999999",34.19285,-84.79159,,,
"175 TED TURNER DRIVE, S.W, ATLANTA","0400013121EPA01","GA","110071293487","236220",33.7528453,-84.3902259,,,
"1811 LAKEWOOD AVENUE SOUTHEAST","0400000013121D0001","GA","110071219687","531190",33.70473,-84.38059,,,
"1819 2ND AVENUE","040000001308940012","GA","110071813355","238910",33.7386,-84.3101,,"COR","Corporation"
"1888 MILLS","GA0000001325500062","GA","110013330617","999999",33.23882,-84.2937,,,
"1888 MILLS GRIFFIN PLANT","GA0000001325500071","GA","110064025987","313210",33.222528,-84.278557,,,
"1888 MILLS-THOMASTON","GA0000001329300012","GA","110009354885","999999",32.896764,-84.324053,,,
"1944 PIEDMONT CIRCLE NORTHEAST","0400013121EPA02","GA","110071235010","236220",33.81109,-84.36741,,,
"196 MEMORIAL DRIVE SOUTHEAST","04000EPAASB196M","GA","110071063871","999999",33.74687,-84.38117,,,
"1988 HOLLYWOOD ROAD, NORTHWEST","040000001312140036","GA","110071883440","238910",33.8099,-84.4723,,"POF","Privately Owned Facility"
"20/20 CUSTOM MOLDED PLASTICS","GA0000001321700042","GA","110000355687","999999",33.62787,-83.94427,,,
"2124 FOREST PARKWAY","04000EPAASB2124F","GA","110071063875","999999",33.6105,-84.32054,,,
"214 EAST CHEROKEE AVE","04000GAASB214","GA","110070704126","999999",34.167,-84.79254,,,
"2154 MOUNT ZION PARKWAY (ARBY'S RESTAURANT)","04000EPAASB2154M","GA","110071063873","999999",33.562141,-84.32022,,,
"21ST CENTURY CONTAINE","GA0000001312100728","GA","110001425306","999999",33.756433,-84.54151,,,
"222 SOUTH TENNESSEE ST","04000GAASB222","GA","110070704021","999999",34.163389,-84.793596,,,
"2568 CENTRAL AVE","04000ASBDR1","GA","110070604353","999999",33.47084,-82.02738,,,
"2913 CUSSETA ROAD","0400000013215EPA01","GA","110071468440","238910",32.4437,-84.9517,,"COR","Corporation"
"3025 SOUTH CHEROKEE LANE WOODSTOCK","0400013057EPA02","GA","110071316660","531210",34.0788,-84.4708,,,
"315 WEST PONCE DE LEON AVE.","040000001308940010","GA","110071362270","236115",33.7757,-84.3001,,"COR","Corporation"
"355 MORELAND AVE SOUTHEAST","040000001312140034","GA","110071883445","722513",33.744,-84.3496,,"COR","Corporation"
"375 RIVERSIDE PKWY LLC","GA0000001309700063","GA","110013394692","517911",33.74445,-84.5825,,,
"3855 HWY. US-29","04000GAUS29ASBDR","GA","110070616561","999999",33.907601,-84.109588,,,
"3D SOLUTIONS, INC.","GA0000001311300064","GA","110045442614","333210",33.4405,-84.6144,,,
"3M ATLANTA","GA0000001312100716","GA","110012621699","325510",33.8019,-84.49567,,,
"3M DYNACOLOR EAST POI","GA0000001312100216","GA","110001421649","999999",33.699,-84.44108,,,
"404 CONCRETE - CONCRETE BATCH PLANT 01","GA0000001377700207","GA","110071425449","327320",33.712956,-84.129713,,,
"404 CONCRETE - CONCRETE DRY MIX PLANT 02","GA0000001377700206","GA","110071425449","327320",33.712956,-84.129713,,,
"404 CONCRETE - CONCRETE DRY MIX PLANT 03","GA0000001377700223","GA","110071498372","327320",33.712837,-84.129691,,,
"4283929 DELAWARE, LLC DBA DECEASED PET CARE","GA0000001313500247","GA","110015714404","812220",33.952316,-83.826926,,,
"450 CAPITOL AVE., S.E. ATLANTA","0400013121EPA03","GA","110071308378","236220",33.7425,-84.3873,,,
"4905 NORTH POINT LLC","GA0000001312100863","GA","110039617518","531120",34.057193,-84.272883,,,
"5 SOUTH PUBLIC SQUARE","04000GAASB5SPS","GA","110070704071","999999",34.16589,-84.79622,,,
"5 STAR COLLISION","GA0000001325100036","GA","110064024700","811121",32.751625,-81.647375,,,
"5753 EAST MAIN STREET, PATTERSON, GEORGIA","0400000013195D0001","GA","110071251407","531190",31.38664,-82.13919,,,
"6125 HIGHWAY 36","04000EPAGAASB31","GA","110070890930","999999",33.58332,-83.85438,,,
"619 EAST ANDERSON STREET (DEMOLITION SITE)","0400013051EPA01","GA","110071219688","531312",32.06024,-81.08989,,,
"645 INDIAN STREET","04000EPAGA645","GA","110070824159","999999",32.0853,-81.10055,,,
"711 EAST BROAD STREET","0400000013051D0001","GA","110071219690","531190",32.06576,-81.08896,,,
"720 NEESE ROAD","04000EPAGAASB720","GA","110070672243","999999",34.098387,-84.491653,,,
"784 AND 786 NEESE RD.","0400013057EPA04","GA","110071316665","531210",34.0903,-84.4933,,,
"8 MAIN STREET","04000EPAGAASB33","GA","110070890929","999999",31.931761,-82.682471,,,
"8 SOUTHERN OAKS COURT","0400013051EPA02","GA","110071234854","531210",32.06115,-81.15914,,,
"808 TILLMAN STREET","04000EPAGAASB808","GA","110070916487","999999",30.98189,-83.36941,,,
"8256 MAIN STREET","04000EPAGAASB8256","GA","110070672240","999999",34.10586,-84.51785,,,
"9740 MAIN STREET, SUITE 270","04000EPAGAASB9740","GA","110070672156","999999",34.08418,-84.51929,,,
"9740 MAIN STREET, SUITE 298","04000EPAGAASB97298","GA","110070672156","999999",34.08418,-84.51929,,,
"9766 HIGHWAY 92 WOODSTOCK","0400013057EPA05","GA","110071316659","531210",34.0857,-84.5262,,,
"A & D ASPHALT INC","GA0000001320700022","GA","110038666636","999999",32.840538,-83.632538,,,
"A & D BARREL & DRUM C","GA0000001312100367","GA","110038646347","999999",33.7732,-84.4086,,,
"A & M PRODUCTS","GA0000001316300025","GA","110038669697","999999",33.219657,-82.399819,,,
"A & R BODY SHOP, INC.","GA0000001321300041","GA","110044318565","811121",34.77401,-84.76858,,,
"A & T CLEANERS-COLLEGE HILL","GA00000013021DC021","GA","110007398645","999999",32.840839,-83.64225,,"POF","Privately Owned Facility"
"A & T CLEANERS-NORTHSIDE","GA00000013021DC008","GA","110005673707","999999",32.897669,-83.693567,,"POF","Privately Owned Facility"
"A - PRO COLLISION CENTER, LLC.","GA0000001313500287","GA","110031400712","999999",34.07773,-84.05983,,,
"A AND L AUTO BODY","GA0000001305100255","GA","110005702329","999999",32.010783,-81.117053,,,
"A NEW COLD STORAGE FACILITY FOR UNITED STATES COLD STORAGE","04000EPAR4USCOLD","GA","110070162177","493120",33.3914,-84.1551,,,
"A S TURNER AND SONS, INC","GA0000001308900411","GA","110013562983","812210",33.79299,-84.28008,,,
"A SIGN GROUP, INC.","GA0000001311300065","GA","110045445853","339950",33.427308,-84.557054,,,
"A&D FOODS","04000EPAGAAMO1","GA","110070526446","999999",33.97274,-84.09931,,,
"A-1 AUTO REPAIR & ELECTRIC, INC.","040000001324540295","GA","110001414862","999999",33.42034,-82.069468,,"POF","Privately Owned Facility"
"A. A. BAILEY & SONS","GA0000001313500202","GA","110007089989","999999",33.89184,-84.14107,,,
"A. C. PROCTOR PAINT & BODY, INC.","GA0000001324500184","GA","110043433415","999999",33.44786,-82.03907,,,
"A.K. WILLIAMS SHELL SERVICE STATION","040000001305140334","GA","110001427242","999999",32.05857,-81.11418,,"POF","Privately Owned Facility"
"A.L.P. LIGHTING COMPONENTS, INC.","GA0000001309700064","GA","110022547494","332439",33.771602,-84.619452,,,
"AAA CONCRETE PRODUCTS CORP","GA0000001309500061","GA","110005682001","999999",31.57648,-84.1235,,,
"ABB","GA0000001305900048","GA","110070007553","335312",33.97957,-83.35193,11885,,
"ABB MOTOR AND MECHANICAL, INC.","GA0000001313900048","GA","110001426760","335312",34.20119,-83.89873,38,,
"ABC COMPOUNDING CO INC","GA0000001306300063","GA","110000357275","999999",33.56494,-84.344257,,,
"ABEX NWL AEROSPACE","GA0000001317500054","GA","110001422808","999999",32.509075,-82.950327,,,
"ABH ENTERPRISES, INC.","GA0000001325500042","GA","110038104182","324122 999999",33.22315,-84.29469,,,
"ABL - TECHNIC NORTH AMERICA CORP","GA0000001312100917","GA","110046385522","332813",33.55329,-84.5844,,,
"ABLE AUTO PAINTING & BODY SHOP","GA0000001306700214","GA","110043430427","999999",33.79596,-84.61843,,,
"ABRA AUTO BODY & GLASS  - CARROLLTON","GA0000001304500073","GA","110005717153","999999",33.62011,-84.995491,,,
"ABRA AUTO BODY & GLASS - BUCKHEAD","GA0000001312100909","GA","110005672021","999999",33.84471,-84.36975,,,
"ABRA AUTO BODY & GLASS - BUCKHEAD","GA0000001312100894","GA","110032741914","999999",33.837074,-84.38118,,,
"ABRA AUTO BODY & GLASS - COBB PARKWAY","GA0000001306700228","GA","110005669375","999999",33.909594,-84.493583,,,
"ABRA AUTO BODY & GLASS - CONYERS","GA0000001324700062","GA","110032730052","999999",33.639444,-83.98302,,,
"ABRA AUTO BODY & GLASS - CUMMING","GA0000001311700080","GA","110032730089","999999",34.180848,-84.132553,,,
"ABRA AUTO BODY & GLASS - DOUGLASVILLE","GA0000001309700076","GA","110032730061","999999",33.725579,-84.75755,,,
"ABRA AUTO BODY & GLASS - FAYETTEVILLE","GA0000001311300060","GA","110005688826","999999",33.5015,-84.42789,,,
"ABRA AUTO BODY & GLASS - GRIFFIN","GA0000001325500068","GA","110043189135","999999",33.269886,-84.284859,,,
"ABRA AUTO BODY & GLASS - KENNESAW","GA0000001306700212","GA","110005711701","999999",34.03161,-84.61631,,,
"ABRA AUTO BODY & GLASS - LAWRENCEVILLE","GA0000001313500304","GA","110043432381","999999",33.92364,-84.07156,,,
"ABRA AUTO BODY & GLASS - LILBURN","GA0000001313500303","GA","110064450856","999999",33.900565,-84.14589,,,
"ABRA AUTO BODY & GLASS - MARIETTA","GA0000001306700233","GA","110043430800","999999",33.95074,-84.49994,,,
"ABRA AUTO BODY & GLASS - MORROW","GA0000001306300130","GA","110024438955","999999",33.568165,-84.316385,,,
"ABRA AUTO BODY & GLASS - NEWNAN","GA0000001307700072","GA","110005717395","999999",33.40247,-84.75268,,,
"ABRA AUTO BODY & GLASS - NORTH FULTON","GA0000001312100893","GA","110043431836","999999",33.98598,-84.35066,,,
"ABRA AUTO BODY & GLASS - PEACHTREE CITY","GA0000001311300059","GA","110032741905","999999",33.3933,-84.58831,,,
"ABRA AUTO BODY & GLASS - SAVANNAH","GA0000001305100247","GA","110005719259","999999",32.083222,-81.127585,,,
"ABRA AUTO BODY & GLASS - STONE MOUNTAIN","GA0000001313500324","GA","110064026593","811121",33.83583,-84.08053,,,
"ABRA AUTO BODY & GLASS - SUWANEE","GA0000001313500284","GA","110006397354","999999",34.04941,-84.05966,,,
"ABRA AUTO BODY & GLASS - TUCKER","GA0000001308900365","GA","110005677428","999999",33.84321,-84.20089,,,
"ABRAHAM BALDWIN AGRICULTURAL COLLEGE","GA0000001327700034","GA","110013125082","999999",31.47547,-83.52372,,,
"ABRAMS FIXTURE CORP","GA0000001309700054","GA","110035867103","999999",33.74445,-84.5825,,,
"ABRAMS FIXTURE CORP J","GA0000001312100629","GA","110001420542","999999",33.7641,-84.402124,,,
"ABRAMS FIXTURE CORP.","GA0000001312100710","GA","110038666164","999999",33.74944,-84.35916,,,
"ABRASIVES & EQUIPMENT INC","GA0000001312100540","GA","110001764680","999999",33.76758,-84.53663,,,
"ABSOLICS, INC.","GA0000001321700077","GA","110071255585","334413",33.62157,-83.814404,,,
"ABSOLUTE AUTO BODY OF EAGLES LANDING","GA0000001315100048","GA","110043432559","999999",33.50133,-84.18398,,,
"ABX SOLUTIONS, LLC","GA0000001321500035","GA","110001425100","322220",32.463404,-84.9822,,,
"ACCO BABCOCK INC","GA0000001308900076","GA","110001420640","999999",33.82901,-84.20162,,,
"ACCUFORMANCE","040000001312140009","GA","110001417182","811111",33.67869,-84.44409,,"POF","Privately Owned Facility"
"ACCURATE FINISHERS IN","GA0000001331300091","GA","110007249940","999999",34.76286,-84.9678,,,
"ACCURATE LUMBER INC","GA0000001318500011","GA","110001751523","999999",30.84432,-83.25332,,,
"ACE AUTOMOTIVE","040000001324540283","GA","110001414951","999999",33.46568,-82.08676,,"POF","Privately Owned Facility"
"ACE FIRESTONE","040000001308940251","GA","110001765625","999999",33.85141,-84.21181,,"POF","Privately Owned Facility"
"ACE POLE ACQUISITION, LLC","GA0000001322900006","GA","110009455286","321114",31.25981,-82.29494,6,,
"ACE TRUCK BODY & TRAILER REPAIR, INC.","GA0000001313500290","GA","110022434141","999999",33.9575,-84.18873,,,
"ACE'S ONE CONSTRUCTION CO.","GA0000001305100216","GA","110013330573","999999",32.06372,-81.14054,,,
"ACME GRANITE CO INC","GA0000001310500029","GA","110038645981","999999",34.1115,-82.8335,,,
"ACTION ELECTRICAL CO. INC.","GA0000001306700196","GA","110037589115","999999",33.836008,-84.479919,,,
"ACTION TECHNOLOGY (PLASTRON)","GA0000001331300142","GA","110038654621","999999",34.70991,-84.9568,,,
"ACTION TRANSPORT SYST","GA0000001305900051","GA","110038657646","999999",33.961109,-83.377983,,,
"ACTIVE MINERALS INTERNATIONAL - MAIN PLANT","GA0000001331900021","GA","110046592175","212323",32.89332,-83.31016,,,
"ACTIVE MINERALS INTERNATIONAL, LLC - ANTIOCH CHURCH ROAD MINE","GA0000001308700055","GA","110037590112","212323 327992",30.806719,-84.406498,,,
"AD-TECH INTERNATIONAL, INC.","GA0000001308900386","GA","110044955723","561990",33.921358,-84.26035,,,
"ADAM'S AUTOMOTIVE","040000001312140914","GA","110007083244","999999",33.83812,-84.36856,,"POF","Privately Owned Facility"
"ADAM'S COLLISION","GA0000001306300131","GA","110043323294","999999",33.61051,-84.33255,,,
"ADAMA BOLD FORMULATORS LLC - OCILLA","GA0000001315500015","GA","110000604631","325320",31.62636,-83.24965,180,,
"ADAMS BODY SHOP & WRECKER, INC.","GA0000001327100023","GA","110043426682","999999",32.038163,-82.907411,,,
"ADAMS COLLISION, INC.","GA0000001322300032","GA","110044318761","811121",33.86376,-84.78153,,,
"ADAMS HOT ROD SHOP","GA0000001312900087","GA","110043322071","999999",34.43014,-84.82575,,,
"ADAMS OUTDOOR ADVERTI","GA0000001312100696","GA","110001420560","999999",33.77539,-84.41734,,,
"ADAMS TIRE & AUTOMOTIVE","040000001312140030","GA","110007083244","999999",33.83812,-84.36856,,"POF","Privately Owned Facility"
"ADC DA TEL","GA0000001329500049","GA","110038674930","999999",34.85306,-85.25916,,,
"ADCOR ELECTRONICS INC","GA0000001312100241","GA","110009355125","999999",33.818497,-84.374446,,,
"ADCOR PRINTED CIRCUIT","GA0000001313500089","GA","110038645794","999999",33.942307,-84.147037,,,
"ADDCO RECYCLING","GA0000001305100069","GA","110038656479","999999",32.07101,-81.10641,,,
"ADEL MILLING CO","GA0000001307500012","GA","110038662328","999999",31.13783,-83.42552,,,
"ADESA ATLANTA, LLC.","GA0000001312100880","GA","110024887979","423110 999999",33.54816,-84.55267,,,
"ADITYA BIRLA CHEMICALS (USA), INC.","GA0000001331300166","GA","110070024507","325199",34.70994,-84.95584,,,
"ADM ANIMAL NUTRITION","GA0000001308100004","GA","110015782857","311211",31.96629,-83.74901,,,
"ADP DATA CENTER (DC1)","GA0000001312100929","GA","110064025718","541513",34.089613,-84.252987,,,
"ADRS SERVICES, INC.","GA0000001377700177","GA","110070361606","212319",32.629384,-83.4232125,,,
"ADS RENEWABLE ENERGY-WOLF CREEK","GA0000001328900013","GA","110043686133","221112 221117 562212",32.77054,-83.4378,,,
"ADS SYSTEMS, INC.","GA0000001313500285","GA","110043323597","999999",33.959294,-84.186641,,,
"ADVANCE AUTO PARTS","040000001313940000","GA","110063232112","999999",32.629384,-83.4232125,,"POF","Privately Owned Facility"
"ADVANCE STORAGE PRODUCTS","GA0000001323300048","GA","110020496630","337215",34.011864,-85.24953,,,
"ADVANCED BIOTECHNOLOGIES LLC","GA0000001330300048","GA","110038672442","999999",33.01634,-82.95808,,,
"ADVANCED CYLINDER AND TANK LLC","GA0000001307500026","GA","110064024318","332439",31.13271,-83.42356,,,
"ADVANCED DESIGN & PACKAGING","GA0000001312100812","GA","110015764564","999999",33.75445,-84.55287,,,
"ADVANCED DISPOSAL SERVICES - EVERGREEN AND PECAN ROW LANDFILLS","GA0000001318500108","GA","110013947453","562211",30.8241,-83.35964,,,
"ADVANCED DISPOSAL SERVICES PECAN ROW LANDFILL, LLC","GA0000001318500096","GA","110070828386","562212",30.818795,-83.35995,,,
"ADVANCED OIL","GA0000001308900238","GA","110007355520","324191",33.67198,-84.33913,,,
"ADVANCED STEEL TECHNOLOGY","GA0000001311500103","GA","110000859704","333120",34.3266,-85.09815,22,,
"ADVICS MANUFACTURING GEORGIA, L.L.C.","GA0000001328500070","GA","110000357177","336340",33.01267,-85.06182,189,,
"AEP INDUSTRIES, INC.","GA0000001325500026","GA","110000356999","999999",33.21886,-84.30627,,,
"AER ENERGY RESOURCES","GA0000001306700169","GA","110005703685","999999",33.82771,-84.5067,,,
"AEROPAINT 2","GA0000001325500051","GA","110009359498","999999",33.226084,-84.277942,,,
"AEROPAINT II","GA0000001304500078","GA","110005719375","488190",33.63397,-85.156937,,,
"AEROQUEST INC","GA0000001313500172","GA","110013761072","999999",33.972579,-83.968334,,,
"AEROQUEST, INC.","GA0000001313500326","GA","110064026496","336411",33.975156,-83.950696,,,
"AEROQUIP CORP","040000001301740001","GA","110000765397","326121 336370",31.712792,-83.235761,,"POF","Privately Owned Facility"
"AEROQUIP CORP","GA0000001312100723","GA","110016667070","999999",33.76086,-84.53784,,,
"AEROQUIP CORP AEROSPACE DIV","GA0000001304500037","GA","110029394117","999999",33.60945,-85.0937,,,
"AEROQUIP CORPORATION","040000001301740902","GA","110000765397","326121 336370",31.712792,-83.235761,,"POF","Privately Owned Facility"
"AEROSOL SPECIALTIES","GA0000001306700136","GA","110000356640","999999",34.03851,-84.61624,,,
"AEROSPACE DEFENSE COATING OF GEORGIA, INC.","GA0000001302100214","GA","110000360172","332813",32.69872,-83.66395,,,
"AEROTRON AIRPOWER INCORPORATED","GA0000001328500103","GA","110070604319","238220",33.01608,-85.07371,,,
"AEW AUTO REPAIR CENTER","040000001306340260","GA","110001765714","999999",33.48989,-84.34156,,"POF","Privately Owned Facility"
"AFCO/ZEP, INC","GA0000001306700154","GA","110000355865","325611",33.975724,-84.539783,8,,
"AFF INC","GA0000001306700109","GA","110005671193","999999",34.053721,-84.517546,,,
"AFFINITY CHEMICAL WOODBINE LLC","GA0000001303900020","GA","110040492482","999999",30.871622,-81.704556,,,
"AFFORDABLE BLINDS & SHUTTERS, INC.","GA0000001301500123","GA","110045442543","442291",34.12757,-84.85852,,,
"AFFORDABLE BODY SHOP","GA0000001309700081","GA","110014375318","999999",33.76808,-84.72118,,,
"AFG INSULATIONS, INC.","GA0000001331700030","GA","110024888022","999999",33.74368,-82.7566,,,
"AFR OF GEORGIA INC","GA0000001315700046","GA","110020748636","326199",33.9987,-83.716,,,
"AGCO CORP.","03000GA00002","GA","110069998659","423810",34.016331,-84.164393,,,
"AGCO, INC.","GA0000001313500239","GA","110000355909","326199",33.961834,-84.175742,8400,,
"AGGRECON OF GEORGIA","GA0000001312100688","GA","110038666146","999999",33.7878,-84.41782,,,
"AGGRECON OF GEORGIA","GA0000001312100686","GA","110038666137","999999",33.73977,-84.35885,,,
"AGGRECON OF GEORGIA, PLT #1","GA0000001377700008","GA","110038654729","999999",33.98338,-84.53735,,,
"AGGRECON OF GEORGIA, PLT #2","GA0000001377700027","GA","110038654729","999999",33.98338,-84.53735,,,
"AGGREGATES USA, LLC (WAYCROSS)","GA0000001329900042","GA","110007087384","324121",31.24086,-82.37464,,,
"AGLOGIC CHEMICAL, LLC - CAMDEN PLANT","GA0000001303900032","GA","110067078879","325320",30.842079,-81.683515,4016,,
"AGRI INTERNATIONAL","GA0000001306900028","GA","110000360662","311615 999999",31.526068,-82.848542,4149,,
"AGRI-PRODUCTS INC","GA0000001327500071","GA","110058058961","999999",30.82542,-83.99986,,,
"AGRI-PRODUCTS, INC.","GA0000001301700041","GA","110054887547","321920 321999",31.709124,-83.205051,,,
"AGRIUM US INC","GA0000001308700002","GA","110001750702","999999",30.903153,-84.605871,,,
"AID CORP","GA0000001324100005","GA","110064242403","999999",34.87791,-83.38579,,,
"AIR LIQUIDE AMERICA","GA0000001305100031","GA","110013431152","999999",32.067925,-81.04376,,,
"AIR SERVICES INC","GA0000001304500054","GA","110015308914","999999",33.63356,-85.1568,,,
"AIR TREADS,INC.","GA0000001306300085","GA","110001971144","999999",33.62993,-84.3879,,,
"AIRCO EQUIPMENT, INC.","GA0000001307700060","GA","110007083271","425120",33.4407,-84.69183,,,
"AIRCRAFT SPECIALTY CO","GA0000001309900028","GA","110012143420","999999",31.37718,-84.933487,,,
"AIRGAS CARBONIC INC","GA0000001320500049","GA","110037592575","999999",31.172106,-84.159206,,,
"AIRGAS SOUTH","GA0000001312100922","GA","110041624613","424690",33.78872,-84.49938,951,,
"AIRGAS SPECIALTY PRODUCTS","GA0000001321500028","GA","110000516503","999999",32.44772,-84.94394,,,
"AITX RAILCAR SERVICES, LLC","GA0000001330300057","GA","110069470138","488999",32.92777,-82.82378,,,
"AJAY NORTH AMERICA, LLC","GA0000001306700062","GA","110000355945","999999",33.867778,-84.646444,33,,
"AKINS CONCRETE CO","GA0000001305900005","GA","110038657343","999999",33.96707,-83.38608,,,
"AKINS FORD","GA0000001301300080","GA","110005698254","999999",33.994423,-83.73922,,,
"AKINS FORD DODGE JEEP CHRYSLER","04000000131354EPA1","GA","110063232032","999999",33.994423,-83.73922,,"POF","Privately Owned Facility"
"AKINS FORD LINCOLN MERCURY OF ATHENS","GA0000001305900090","GA","110043430301","999999",33.9405,-83.48272,,,
"AKZO COATINGS AMERICA","GA0000001313500009","GA","110038644964","999999",33.929129,-84.238046,,,
"AKZO NOBEL TRNG CTR","GA0000001313500187","GA","110001419046","999999",33.919794,-84.177692,,,
"AL SANDERSVILLE","GA0000001330300040","GA","110012143304","221112",33.117081,-82.855363,,,
"ALAD CONSTRUCTION CO","GA0000001327500057","GA","110038668929","999999",30.9217,-84.00959,,,
"ALADDIN MANUFACTURING - MARINE DRIVE FACILITY","GA0000001312900096","GA","110070072165","314110",34.44643,-84.92337,,,
"ALADDIN MANUFACTURING CORP.","GA0000001305500016","GA","110006826587","313110",34.453724,-85.359313,,,
"ALADDIN MFG CORP","GA0000001311500083","GA","110001420025","999999",34.281958,-85.246635,,,
"ALADDIN MFG CORP","GA0000001321300012","GA","110013575737","999999",34.830752,-84.761157,,,
"ALADDIN MFG CORP","GA0000001311500059","GA","110038643661","999999",34.280713,-85.211804,,,
"ALADDIN MILLS - ANTIOCH ROAD PLANT","GA0000001331300077","GA","110000359068","314110",34.73399,-84.94646,0,,
"ALADDIN MILLS BCF","GA0000001331300065","GA","110005690797","313310 999999",34.690521,-84.988582,,,
"ALATUS-BIOGAS CLEAN ENERGY SOLUTION","GA0000001308900334","GA","110006396033","221210 562212",33.67103,-84.34245,,,
"ALBANY BODY WORKS","GA0000001309500100","GA","110005684704","999999",31.58089,-84.18583,,,
"ALBANY COCA-COLA BOTT","GA0000001309500060","GA","110057518627","999999",31.57902,-84.17205,,,
"ALBANY COLD STORAGE","GA0000001309500091","GA","110038645133","999999",31.55326,-84.18148,,,
"ALBANY FARM & GARDEN","GA0000001309500012","GA","110038644367","999999",31.57536,-84.151426,,,
"ALBANY GREEN ENERGY, LLC","GA0000001309500109","GA","110070073797","221117",31.443122,-84.118617,,,
"ALBANY HARVESTER","GA0000001309500076","GA","110038645115","999999",31.617696,-84.195744,,,
"ALBANY JR HIGH SCHOOL","GA0000001309500064","GA","110001421122","999999",31.59184,-84.15609,,,
"ALBANY LUMBER","GA0000001309500117","GA","110070360195","321113",31.57221,-84.064604,,,
"ALBANY OIL MILL","GA0000001309500056","GA","110001421088","999999",31.576456,-84.125334,,,
"ALBANY REINFORCING & STRUCTURAL","GA0000001309500105","GA","110044955741","332312",31.55618,-84.18693,,,
"ALBANY STATE UNIVERSI","GA0000001309500092","GA","110027139326","999999",31.567794,-84.143242,,,
"ALBANY TERMINAL","GA0000001309500114","GA","110000529544","424710",31.49535,-84.11562,,,
"ALBEA CONST PLT 2","GA0000001311500022","GA","110038643572","999999",34.28557,-85.21469,,,
"ALBEA CONST PLT 3","GA0000001321300023","GA","110007255120","999999",34.72464,-84.84506,,,
"ALBERT'S BODY SHOP","GA0000001328700029","GA","110043323837","999999",31.658831,-83.579172,,,
"ALBION INDUSTRIES INC","GA0000001307700049","GA","110005690378","332999",33.40422,-84.74456,,,
"ALC OF GEORGIA INC","GA0000001312900032","GA","110064254257","999999",34.46928,-84.9464,,,
"ALCAN CABLE TUCKER PL","GA0000001308900067","GA","110001420668","999999",33.83804,-84.2568,,,
"ALCHEMIX","GA0000001312100715","GA","110000357863","325510",33.63622,-84.46187,,,
"ALCHEMY SOUTH LTD","GA0000001306700096","GA","110000859205","326199",33.983838,-84.530525,,,
"ALCO CONTROLS DIV EMERSON ELECTRIC CO","GA0000001316100015","GA","110000360715","999999",31.865789,-82.591872,,,
"ALCOA RECYCLING CO","GA0000001312100711","GA","110001420258","999999",33.71815,-84.38195,,,
"ALCON VISION, LLC","GA0000001312100774","GA","110046592120","339115",34.05573,-84.17149,,,
"ALDI #55","0400000013063EPA33","GA","110037231082","999999",33.59655,-84.42897,,"POF","Privately Owned Facility"
"ALDI #63","0400000013063EPA34","GA","110037231091","811112",33.529271,-84.343484,,"POF","Privately Owned Facility"
"ALDON AREA RUG CO INC","GA0000001312900020","GA","110038644740","999999",34.557949,-85.011971,,,
"ALERT MUFFLER & AUTO REPAIR","040000001324540292","GA","110001414835","999999",33.452378,-82.053794,,"POF","Privately Owned Facility"
"ALEXANDER WOOD PRODUCTS","GA0000001305900016","GA","110038657389","999999",33.97137,-83.38748,,,
"ALEXANDER-HARRIS CO INC","GA0000001320500025","GA","110007356048","999999",31.12768,-84.151901,,,
"ALIGNED DATA CENTERS ATL01","GA0000001309700098","GA","110071667203","518210",33.725277,-84.617166,,,
"ALIMENTA PROCESSING C","GA0000001308100039","GA","110007046295","999999",31.96658,-83.78418,,,
"ALIMENTA PROCESSING C","GA0000001332100020","GA","110007254997","999999",31.532129,-83.835251,,,
"ALL - TECH COLLISION CENTER","GA0000001305700071","GA","110005719758","999999",34.08467,-84.56395,,,
"ALL AMERICAN GOURMET CO INC","GA0000001312100727","GA","110002321728","999999",33.739853,-84.571335,6394,,
"ALL AMERICAN HOMES","GA0000001328700009","GA","110038673913","999999",31.70416,-83.6404,,,
"ALL CRANE RENTAL OF GEORGIA","GA0000001306700262","GA","110064431388","532412",33.757638,-84.568368,,,
"ALL PRO AUTOMOTIVE","040000001306740000","GA","110001970234","999999",34.015553,-84.615634,,"POF","Privately Owned Facility"
"ALL STAR MUFLER AND AUTO CARE","040000001377740051","GA","110012143313","999999",33.56532,-83.90217,,"POF","Privately Owned Facility"
"ALL TUNE AND LUBE","040000001308940256","GA","110001765670","999999",33.8149,-84.26912,,"POF","Privately Owned Facility"
"ALL TUNE AND LUBE","040000001312140923","GA","110063233433","999999",33.97764,-84.35139,,"POF","Privately Owned Facility"
"ALLADIN MANUFACTURING- UNION GROVE FACILITY","GA0000001312900071","GA","110001144985","314110",34.44212,-84.926418,,,
"ALLAN VIGIL FORD","GA0000001306300127","GA","110038902088","999999",33.56887,-84.314539,,,
"ALLASTICS","GA0000001313500045","GA","110038645678","999999",33.907535,-84.220308,,,
"ALLEGHANY RUBBER, INC.","GA0000001302100018","GA","110000360092","999999",32.78007,-83.644592,,,
"ALLEN D R & SON","GA0000001328500050","GA","110038673833","999999",33.0056,-84.98104,,,
"ALLEN'S CUSTOM PAINT & COLLISION, INC.","GA0000001329700050","GA","110043427262","999999",33.84465,-83.904146,,,
"ALLENS PAINT & BODY SHOP, INC.","GA0000001331100013","GA","110005710178","999999",34.59677,-83.76487,,,
"ALLENS, INC.","GA0000001319300007","GA","110061776056","999999",32.290914,-84.006217,,,
"ALLIANCE AEROSPACE, LLC","GA0000001302100028","GA","110000360234","999999",32.69376,-83.67016,,,
"ALLIED DIAGNOSTIC IMA","GA0000001313500242","GA","110005679186","999999",33.919486,-84.182766,,,
"ALLIED FOODS, LLC","GA0000001312100182","GA","110000357612","999999",33.81215,-84.43512,,,
"ALLIED READYMIX CONCR","GA0000001306300003","GA","110038657735","999999",33.521408,-84.354019,,,
"ALLIED READYMIX, INC.","GA0000001301300062","GA","110001970760","999999",34.026348,-83.825705,,,
"ALLIED READYMIX, INC.","GA0000001312100023","GA","110013571928","999999",33.81944,-84.373364,,,
"ALLIED READYMIX, INC.","GA0000001308900057","GA","110064341939","999999",33.91031,-84.26976,,,
"ALLIED READYMIX, INC.","GA0000001312100830","GA","110015656217","999999",34.05888,-84.298907,,,
"ALLIED READYMIX, INC.","GA0000001312100559","GA","110013485086","327320",33.63673,-84.46115,,,
"ALLIED READYMIX, INC.","GA0000001306700035","GA","110013593147","999999",33.98481,-84.53184,,,
"ALLIED READYMIX, INC.","GA0000001303500005","GA","110001418706","999999",33.29713,-83.95399,,,
"ALLIED READYMIX, INC.","GA0000001307700024","GA","110038641486","999999",33.379627,-84.796418,,,
"ALLIED READYMIX, INC.","GA0000001308900007","GA","110001766606","999999",33.79028,-84.264797,,,
"ALLIED READYMIX, INC.","GA0000001301300063","GA","110038671470","999999",33.997371,-83.725491,,,
"ALLIED READYMIX, INC.","GA0000001305700038","GA","110001420098","999999",34.19548,-84.49954,,,
"ALLIED READYMIX, INC.","GA0000001311700029","GA","110007499144","212313 999999",34.0753,-84.16441,0,,
"ALLIED READYMIX, INC.","GA0000001313500005","GA","110038644946","999999",33.89141,-84.128087,,,
"ALLIED READYMIX, INC.","GA0000001313500163","GA","110007085304","999999",33.963582,-83.998223,,,
"ALLIED READYMIX, INC.","GA0000001313500164","GA","110001970788","999999",33.893681,-83.954651,,,
"ALLIED READYMIX, INC.","GA0000001315100008","GA","110001751417","999999",33.5402,-84.22563,,,
"ALLIED READYMIX, INC.","GA0000001309700047","GA","110001420196","327320 999999",33.738525,-84.790381,,,
"ALLIED READYMIX, INC.","GA0000001301500017","GA","110001328064","327332 999999",34.17419,-84.80974,,,
"ALLIED READYMIX, INC.","GA0000001307700053","GA","110010339259","999999",33.44818,-84.6885,,,
"ALLIED TIMBER CO","GA0000001329900009","GA","110007249842","999999",31.24502,-82.41846,,,
"ALLIED UNIVERSAL CORP","GA0000001312700010","GA","110000360608","325612",31.112112,-81.548129,255,,
"ALLIED UNIVERSAL CORPORATION","GA0000001312900054","GA","110000359308","999999",34.497473,-84.714408,,,
"ALLIED WASTE","GA0000001311500116","GA","110044955769","562119",34.28789,-85.22325,,,
"ALLISON'S CABINETS","GA0000001331100010","GA","110001764234","999999",34.674,-83.86455,,,
"ALLSTATE ASPHALT","GA0000001323300027","GA","110038643304","999999",34.0112,-85.0467,,,
"ALLTECH INC.","GA0000001327500075","GA","110059473225","311119",30.82653,-84.00425,,,
"ALMA PLASTICS CO","GA0000001313300014","GA","110007253113","999999",33.576542,-83.182564,,,
"ALMA TERMINAL","GA0000001300500015","GA","110000529526","424710",31.54799,-82.53611,,,
"ALOHA CLEANERS","GA0000001321509998","GA","110007084797","999999",32.46504,-84.96061,,"POF","Privately Owned Facility"
"ALOHA FIBERGLASS POOLS, LLC","GA0000001328700024","GA","110024519083","326191",31.726546,-83.656932,,,
"ALONAN MANUFACTURING","GA0000001323700124","GA","110001423120","999999",33.31758,-83.39226,,,
"ALPHA ASPHALT PLT 2","GA0000001312100623","GA","110038666075","999999",34.057962,-84.305765,,,
"ALPHA METALS INC","GA0000001311700007","GA","110000499817","999999",34.11929,-84.21762,,,
"ALPHA PRODUCTS INC","GA0000001306700148","GA","110007482508","999999",33.77353,-84.59692,,,
"ALPHA PRODUCTS,INC.","GA0000001312100697","GA","110001420579","999999",33.794801,-84.426998,,,
"ALPS MANUFACTURING","GA0000001312100920","GA","110024555710","326199",33.73699,-84.57939,,,
"ALSCO INC. - DORAVILLE FACILITY","GA0000001308900208","GA","110000845417","812332 999999",33.9027,-84.24475,,,
"ALTAMAHA EMC MCGREGOR","GA0000001320900005","GA","110038668572","999999",32.23025,-82.47673,,,
"ALTAMAHA GREEN ENERGY","GA0000001330500039","GA","110072102101","221117",31.66039,-81.84892,,,
"ALTEC INDUSTRIES INC","GA0000001306300099","GA","110001970555","999999",33.61529,-84.38042,,,
"ALTERNATE GAS INC","GA0000001330300027","GA","110038672353","999999",33.01634,-82.95808,,,
"ALTERRA BIOENERGY OF MIDDLE GEORGIA, LLC","GA0000001331900031","GA","110033134463","325199",32.88096,-83.34427,,,
"ALUDYNE COLUMBUS LLC","GA0000001321500001","GA","110000361527","331511",32.53032,-84.96989,655,,
"ALUMINUM CO. OF AMERICA (ALCOA)","GA0000001312100526","GA","110038646392","999999",33.55995,-84.53792,,,
"ALUMINUM FINISHING, LLC - PLANT #1","GA0000001307500007","GA","110064141174","999999",31.14003,-83.42743,,,
"ALUMINUM FINISHING, LLC - PLANT #3","GA0000001307500016","GA","110057876678","999999",31.139347,-83.425219,,,
"ALUMINUM RECYCLING OF GEORGIA","GA0000001301500078","GA","110040492213","999999",34.15405,-84.78752,,,
"AMARLITE ARCHITECTURA","GA0000001312100192","GA","110001420490","999999",33.75732,-84.54325,,,
"AMAZON DATA SERVICES, INC. ATL057","GA0000001311700093","GA","110071524431","518210",34.0634855,-84.0910996,,,
"AMAZON DATA SERVICES, INC. ATL068 AND ATL078 CAMPUSES","GA0000001309700101","GA","110072072142","518210",33.763333,-84.604999,,,
"AMCOR TOBACCO PACKAGING AMERICAS, INC.","GA0000001311300033","GA","110013525168","323111",33.36641,-84.57299,,,
"AMERCORD","GA0000001327100020","GA","110038668741","999999",31.92205,-82.68373,,,
"AMERICA RENAL ASSOCIATES - HEPHZIBAN","GA0000001324500196","GA","110064025255","621492",33.374444,-82.057324,,,
"AMERICAN BUILDING SUPPLY, INC.","GA0000001312100853","GA","110033134383","321911",33.57906,-84.552742,,,
"AMERICAN CAN PACKAGIN","GA0000001306300009","GA","110038657762","999999",33.62735,-84.39149,,,
"AMERICAN CARBONS INC","GA0000001315300034","GA","110007086250","999999",32.58234,-83.59228,,,
"AMERICAN CHARMS INC","GA0000001313500007","GA","110035867719","999999",33.96246,-83.99478,,,
"AMERICAN COATERS LLC","GA0000001308100056","GA","110001424931","999999",31.9654,-83.73742,,,
"AMERICAN COLLOID COMPANY","GA0000001326900015","GA","110062740967","999999",32.575,-84.3028,,,
"AMERICAN COLOR GRAPHICS, INC.","GA0000001306700143","GA","110007089373","999999",33.783707,-84.60653,,,
"AMERICAN COMBUSTION","GA0000001313500166","GA","110001420132","999999",33.93376,-84.15301,,,
"AMERICAN CONCRETE - DOWNTOWN","GA0000001324500179","GA","110038526486","999999",33.47472,-81.97796,,,
"AMERICAN CONCRETE - GRACEWOOD","GA0000001324500177","GA","110038526468","999999",33.374904,-82.038132,,,
"AMERICAN CONCRETE - MARTINEZ","GA0000001324500178","GA","110038526477","999999",33.49368,-82.09348,,,
"AMERICAN CONCRETE CO","GA0000001313500097","GA","110007090414","999999",33.89133,-83.89868,,,
"AMERICAN CONCRETE CO","GA0000001306700112","GA","110001766900","999999",34.053549,-84.517729,,,
"AMERICAN CUSTOM MILLW","GA0000001309500089","GA","110001418859","999999",31.53238,-84.18698,,,
"AMERICAN DISCOUNT TUNE-UP CENTER","040000001324540293","GA","110001414844","999999",33.433535,-82.035299,,"POF","Privately Owned Facility"
"AMERICAN EMULSIONS","GA0000001331300127","GA","110000359193","999999",34.76966,-84.94902,6049,,
"AMERICAN ENVIRECYCLE","GA0000001310700018","GA","110038646034","999999",32.59729,-82.334152,,,
"AMERICAN EXCELSIOR","GA0000001325500059","GA","110038674627","999999",33.22961,-84.23509,,,
"AMERICAN GRANITE FINISHING","GA0000001310500030","GA","110064338685","999999",34.10028,-82.84317,,,
"AMERICAN GRAPHICS","GA0000001312100635","GA","110001420409","999999",33.81761,-84.43534,,,
"AMERICAN INDUSTRIAL CHEMICAL CORP.","GA0000001306700031","GA","110000355990","999999",33.83729,-84.50395,,,
"AMERICAN IRON & METAL CO INC","GA0000001312100517","GA","110001764573","999999",33.72396,-84.38972,,,
"AMERICAN MANUFACTURIN","GA0000001313500041","GA","110038645669","999999",33.939134,-84.239278,,,
"AMERICAN MANUFACTURING CO","GA0000001301500048","GA","110007074067","999999",34.065319,-84.676903,,,
"AMERICAN MILLS INC","GA0000001303500004","GA","110007084305","999999",33.29509,-83.966652,,,
"AMERICAN NON-SLIP PRO","GA0000001312100803","GA","110001427055","999999",34.1091,-84.1981,,,
"AMERICAN PEANUT GROWERS GROUP, LLC","GA0000001325300018","GA","110014324230","115114",31.0251,-84.8798,,,
"AMERICAN PEANUT GROWERS GROUP, LLC","GA0000001325300021","GA","110071374615","115114",31.058441,-84.90284,,,
"AMERICAN PEANUT INGREDIENTS, LLC","GA0000001325300020","GA","110071407783","115114",31.055232,-84.894257,,,
"AMERICAN PROTEINS, INC.","GA0000001305700008","GA","110013597642","311613",34.29193,-84.38933,,,
"AMERICAN RUG","GA0000001312900060","GA","110064339265","999999",34.55742,-85.0138,,,
"AMERICAN SIGNAL COMPANY","GA0000001313500264","GA","110028004656","999999",33.920906,-84.25997,,,
"AMERICAN STANDARD","GA0000001302100050","GA","110038655176","999999",32.697219,-83.661557,,,
"AMERICAN STEEL PRODUC","GA0000001310700019","GA","110057769865","999999",32.547307,-82.346796,,,
"AMERICAN THREAD CO TA","GA0000001314300013","GA","110038606470","999999",33.74,-85.2998,,,
"AMERICAN WELDING & TA","GA0000001330500027","GA","110007493122","999999",31.635146,-81.935785,,,
"AMERICAN WOODMARK COR","GA0000001303500009","GA","110007254906","999999",33.285838,-83.935104,,,
"AMERICAN WOODMARK CORPORATION","GA0000001325700028","GA","110007356217","337110",34.52662,-83.28516,,,
"AMERICAN YARD PRODUCT","GA0000001310700016","GA","110007485523","999999",32.588042,-82.321149,,,
"AMERICASMART","GA0000001312100857","GA","110037589623","531120",33.760838,-84.38758,,,
"AMERICO MANUFACTURING","GA0000001301500134","GA","110067565708","313230",34.15873,-84.79559,,,
"AMERICO MANUFACTURING","GA0000001301500109","GA","110024823903","313230",34.08303,-84.69719,,,
"AMERICOLD PENDERGRASS","GA0000001315700073","GA","110000512972","493120",34.15768,-83.67129,,,
"AMERICOLD ROCKMART","GA0000001323300058","GA","110071813382","493120",34.02502,-85.049221,,,
"AMERICOLD TRADEWATER #75194","GA0000001312100971","GA","110023011907","493120",33.713212,-84.596061,,,
"AMERICUS CONCRETE & C","GA0000001326100015","GA","110038675573","999999",32.07427,-84.23888,,,
"AMERICUS SEED CO","GA0000001326100009","GA","110038675564","999999",32.0744,-84.2362,,,
"AMERIDOOR LLC","GA0000001326100062","GA","110016739939","999999",32.036184,-84.388918,,,
"AMERIGAS ATLANTA TERMINAL","GA0000001312100918","GA","110013693770","324199",33.755064,-84.463085,,,
"AMERIGAS ROME TERMINAL","GA0000001311500119","GA","110000529483","324199",34.186386,-85.163272,,,
"AMERIMAX","GA0000001325700037","GA","110007250269","999999",34.57729,-83.333031,,,
"AMERIPRIDE SERVICES, INC.","GA0000001321900011","GA","110045943841","812332",33.86613,-83.41305,,,
"AMERON COMPOSITES INC","GA0000001307700061","GA","110038641574","999999",33.39241,-84.7814,,,
"AMERSON WTP","GA0000001316900017","GA","110013763230","221310",32.913725,-83.664811,,,
"AMEX FOREST PRODUCTS","GA0000001317900009","GA","110038673619","999999",31.735001,-81.433968,,,
"AMICALOLA EMC-BOARDTO","GA0000001312300021","GA","110038644036","999999",34.709537,-84.480433,,,
"AMICALOLA EMC-QUILL S","GA0000001312300022","GA","110038644045","999999",34.644305,-84.390136,,,
"AMICKS BROILER FARM","GA0000001324500127","GA","110038669857","999999",33.48122,-81.98362,,,
"AMITY DYEING & FINISH","GA0000001324500135","GA","110001424717","999999",33.38053,-81.98462,,,
"AMMERAAL BELTECH","GA0000001313900164","GA","110071293705","326220",34.135783,-83.947564,,,
"AMMONS IRON & METAL","GA0000001312100736","GA","110001419625","999999",33.75234,-84.36823,,,
"AMOCO CHEMICAL CORP","GA0000001329700025","GA","110007249833","999999",33.76698,-83.71318,,,
"AMOCO FABRICS CO HAZL","GA0000001316100006","GA","110038669599","999999",31.74884,-82.54502,,,
"AMOCO OIL CO","GA0000001308900129","GA","110000357907","999999",33.911589,-84.267443,,,
"AMPACET CORPORATION","GA0000001301500113","GA","110000356418","999999",34.14653,-84.83838,,,
"AMPC LLC D.B.A ESSENTIA PROTEIN SOLUTIONS DALTON BROTH PLANT","GA0000001331300169","GA","110071407784","311999",34.66483,-84.984829,,,
"AMPORTS, INC.","GA0000001312700082","GA","110032964228","999999",31.123931,-81.538835,,,
"ANCHOR GLASS CO INC","GA0000001306300005","GA","110031159519","999999",33.61535,-84.3832,,,
"ANCHOR GLASS CONTAINER CORPORATION - WARNER ROBINS PLANT","GA0000001315300014","GA","110005668722","327213",32.586745,-83.591784,20,,
"ANCHOR PRODUCTS CO INC","GA0000001312100245","GA","110001421863","999999",33.80125,-84.4228,,,
"ANDERSON B R GIN CO","GA0000001329700003","GA","110038671121","999999",33.656364,-83.723023,,,
"ANDERSON COLUMBIA CO.","GA0000001318500080","GA","110038674477","999999",30.67248,-83.1673,,,
"ANDERSON COLUMBIA CO. (PLT #10)","GA0000001377700031","GA","110038671149","999999",30.785042,-83.560356,,,
"ANDERSON COLUMBIA COMPANY, INCORPORATED","GA0000001377700109","GA","110030489861","212313",30.872593,-84.205288,,,
"ANDERSON-MCGRIFF CO","GA0000001312100302","GA","110001422096","999999",33.79147,-84.42991,,,
"ANDRITZ, INC.","GA0000001325500043","GA","110000765226","326299",33.23148,-84.28234,,,
"ANEWMED","GA0000001308900406","GA","110070616724","561910",33.84701,-84.1944,,,
"ANGELINI PHARMA INC.","GA0000001309500096","GA","110024887960","339999",31.556123,-84.102187,,,
"ANHEUSER-BUSCH, INC","GA0000001301500069","GA","110000356427","312120 999999",34.2557,-84.7825,20857,,
"ANHEUSER-BUSCH, LLC.","GA0000001301500061","GA","110000356427","312120 999999",34.2557,-84.7825,20857,,
"ANIMAL NUTRITION & HEALTH LLC","GA0000001315700019","GA","110002010074","311119",34.15431,-83.66811,0,,
"ANITOX CORP","GA0000001313500079","GA","110011852290","999999",33.995833,-83.961944,54,,
"ANOVION BAINBRIDGE LLC","GA0000001308700061","GA","110071706341","335991",30.943771,-84.580965,,,
"ANTHONY FOREST PRODUCTS COMPANY, LLC","GA0000001331700027","GA","110001388891","321214",33.710152,-82.753908,645,,
"ANTHONY INTERNATIONAL","GA0000001324700045","GA","110007253649","333415",33.66106,-83.98053,,,
"ANTIGUA MILLS INC","GA0000001331300069","GA","110007249904","999999",34.784722,-84.943056,,,
"APAC - ATLANTIC, INC. - SAVANNAH ASPHALT PLANT","GA0000001305100184","GA","110006814402","324121",32.04908,-81.16248,,,
"APAC - BALLENGER DIVISION PORTABLE CONCRETE BATCH PLANT NO. 3","GA0000001377700139","GA","110043581898","999999",32.26485,-83.75368,,,
"APAC GEORGIA INC","GA0000001328500017","GA","110038670131","999999",33.0056,-84.98104,,,
"APAC GEORGIA INC","GA0000001313500070","GA","110038645721","999999",33.92126,-84.1391,,,
"APAC GEORGIA INC MACD","GA0000001311700040","GA","110038643750","999999",34.14098,-84.1482,,,
"APAC GEORGIA INC MACD","GA0000001312100061","GA","110038644624","999999",33.687697,-84.515273,,,
"APAC GEORGIA INC MACON","GA0000001312100086","GA","110038645384","999999",34.05303,-84.315282,,,
"APAC GEORGIA SOUTHERN","GA0000001377700019","GA","110005707814","999999",32.789925,-83.668467,,,
"APAC GEORGIA, INC.","GA0000001377700061","GA","110038671274","999999",34.00238,-84.145493,,,
"APAC GEORGIA, INC.","GA0000001304500056","GA","110038656228","999999",33.6703,-84.925159,,,
"APAC GEORGIA, INC.","GA0000001321500008","GA","110038672549","999999",32.578708,-84.948496,,,
"APAC GEORGIA, INC.","GA0000001330100013","GA","110038672273","999999",33.3680376,-82.6563124,,,
"APAC GEORGIA, INC.","GA0000001307300019","GA","110038661294","999999",33.54604,-82.315979,,,
"APAC GEORGIA, INC.","GA0000001301300021","GA","110038671461","999999",34.011307,-83.8171,,,
"APAC GEORGIA, INC.","GA0000001306300016","GA","110038657780","999999",33.601114,-84.392902,,,
"APAC GEORGIA, INC.","GA0000001305100107","GA","110007490134","999999",32.07997,-81.15814,,,
"APAC GEORGIA, INC.","GA0000001306300002","GA","110038657726","999999",33.60274,-84.39384,,,
"APAC GEORGIA, INC.","GA0000001313500102","GA","110038645829","999999",33.92462,-84.16545,,,
"APAC GEORGIA, INC.","GA0000001316900012","GA","110038673450","999999",32.91202,-83.48922,,,
"APAC GEORGIA, INC.","GA0000001308900147","GA","110013427960","999999",33.72674,-84.10869,,,
"APAC MID-SOUTH - PLANTATION QUARRY","GA0000001330100015","GA","110037590247","999999",33.451812,-82.647969,,,
"APAC MID-SOUTH INC - CARTERSVILLE QUARRY","GA0000001301500057","GA","110001389550","212312",34.286985,-84.813908,,,
"APAC MID-SOUTH INC - LITHONIA QUARRY","GA0000001308900327","GA","110020139884","999999",33.743472,-84.088759,,,
"APAC MID-SOUTH INC - MULBERRY QUARRY","GA0000001322300017","GA","110001425422","999999",33.81586,-84.90948,,,
"APAC MID-SOUTH INC - RINGGOLD QUARRY","GA0000001304700012","GA","110010039350","212312",34.93988,-85.10469,,,
"APAC PORTABLE CONCRETE PLANT - PAULDING COUNTY AIRPORT","GA0000001377700116","GA","110037591433","999999",33.912733,-84.90422,,,
"APAC SOUTHEAST, INC. BALLENGER DIVISION","GA0000001312700081","GA","110033134392","999999",31.246761,-81.51053,,,
"APAC-ATLANTIC, INC. - MIDWAY ASPHALT PLANT","GA0000001377700168","GA","110070072168","324121",31.825912,-81.520739,,,
"APAC-GEORGIA INC","GA0000001303900022","GA","110038672013","999999",30.963831,-81.722855,,,
"APAC-GEORGIA INC","GA0000001305700051","GA","110038657316","999999",34.29417,-84.26074,,,
"APAC-GEORGIA INC","GA0000001321100019","GA","110038668625","999999",33.54555,-83.35847,,,
"APAC-GEORGIA INC","GA0000001328500056","GA","110038673860","999999",32.996053,-84.99756,,,
"APAC-GEORGIA INC","GA0000001303900023","GA","110038672022","999999",30.81775,-81.65953,,,
"APAC-GEORGIA INC","GA0000001303900024","GA","110038672031","999999",30.79999,-81.690208,,,
"APACHE MILLS INC","GA0000001312900038","GA","110020058649","326113",34.496796,-84.955207,0,,
"APCO GRAPHICS,INC.","GA0000001312100698","GA","110001420588","339950 999999",33.74437,-84.37647,,,
"APCO GRAPHICS,INC.","GA0000001312100957","GA","110070544071","339950",33.66266,-84.38631,,,
"APEX ALUMINUM, LLC","GA0000001308900410","GA","110070890999","331314",33.701,-84.08204,,,
"APEX CARPET FINISHERS","GA0000001304700006","GA","110038656273","999999",34.956731,-85.250177,,,
"APEX GRANITE CO INC","GA0000001310500033","GA","110064338514","999999",34.121644,-82.876091,,,
"APOLLO INDUSTRIES - DALTON PLANT","GA0000001331300160","GA","110000359031","325998",34.709949,-84.955383,,,
"APOLLO INDUSTRIES - SMYRNA PLANT","GA0000001306700255","GA","110000356016","325998",33.83774,-84.50088,,,
"APOLLO TECHNOLOGIES, ANIMAL HEALTH AND SCIENCES, INC. - THOMASTON PLANT","GA0000001329300036","GA","110064026030","325998",32.888188,-84.326585,,,
"APPALACHIAN SOUTHERN","GA0000001312300005","GA","110007248932","999999",34.694981,-84.482903,,,
"APPLIED CERAMICS INC","GA0000001313500249","GA","110038646542","327120",33.913365,-84.246401,,,
"APPLING BROS INC","GA0000001302100070","GA","110038670676","999999",32.80988,-83.74786,,,
"APPLING COUNTY PELLETS","GA0000001300100032","GA","110070019204","321999",31.7719,-82.3482,,,
"AQUAFINE CORP","GA0000001312700063","GA","110005709643","999999",31.150019,-81.491913,,,
"AQUATIC CO","GA0000001308100019","GA","110000359816","326191",31.965439,-83.738732,,,
"ARABI ELEVATOR CO","GA0000001308100049","GA","110038641690","999999",31.83546,-83.67056,,,
"ARABI GIN COMPANY","GA0000001308100061","GA","110012621314","115111 999999",31.83574,-83.72347,,,
"ARABI HOMES INC","GA0000001308100021","GA","110038641636","999999",31.83009,-83.73873,,,
"ARAMARK UNIFORM SERVI","GA0000001312100811","GA","110002352178","999999",33.76545,-84.36777,,,
"ARBORIS, LLC","GA0000001305100261","GA","110046101650","325191",32.09754,-81.12156,,,
"ARBY'S RIVERSTONE PARKWAY","0400013057EPA06","GA","110071201694","722511",34.25199,-84.47234,,,
"ARCH GROUP INVESTMENTS, LLC 169 SOUTH CHURCH ST., CANTON, GA 30114","04000ARCHASBDR","GA","110070616525","999999",34.23622,-84.49092,,,
"ARCH WOOD PROTECTION, INC.","GA0000001308900255","GA","110070819480","325320",33.66333,-84.32596,25771,,
"ARCHER DANIELS MIDLAN","GA0000001302100069","GA","110000360154","999999",32.82198,-83.63239,,,
"ARCHER DANIELS MIDLAND","GA0000001324500026","GA","110000359497","999999",33.44828,-81.98533,,,
"ARCHER DANIELS MIDLAND COMPANY (ADM)","GA0000001318500051","GA","110012384561","311222 311224 999999",30.8325,-83.248056,953278,,
"ARCHER DANIELS MIDLAND SOYBEAN","GA0000001318500053","GA","110012384561","311222 311224 999999",30.8325,-83.248056,953278,,
"ARCHER FOREST PRODUCTS, LLC","GA0000001302500005","GA","110045434197","321999",31.20961,-81.955448,,,
"ARCHER WESTERN CONTRACTORS","GA0000001304500082","GA","110069993396","237310",33.711949,-85.025207,,,
"ARCHER WESTERN CONTRACTORS","GA0000001377700164","GA","110069993227","327320",32.629384,-83.4232125,,,
"ARCHER WESTERN CONTRACTORS","GA0000001377700113","GA","110031073987","999999",31.358935,-83.487596,,,
"ARCHER WESTERN CONTRACTORS LTD","GA0000001377700107","GA","110028006253","999999",33.32893,-84.77095,,,
"ARCHER WESTERN CONTRACTORS LTD","GA0000001377700096","GA","110024415569","999999",33.62504,-84.40404,,,
"ARCHER WESTERN CONTRACTORS LTD","GA0000001377700108","GA","110028006262","999999",32.90282,-83.68662,,,
"ARCHER WESTERN CONTRACTORS LTD","GA0000001377700104","GA","110028258338","999999",34.062928,-84.603179,,,
"ARCHER WESTERN CONTRACTORS LTD","GA0000001377700105","GA","110028258347","999999",31.96756,-83.69984,,,
"ARCHITECTURAL METAL FABRICATORS, INC.","GA0000001312100910","GA","110044955778","332323",33.75484,-84.55006,,,
"ARCHITECTURAL SIGNING","GA0000001313500131","GA","110009358596","999999",33.939134,-84.239278,,,
"ARDENT MILLS, LLC","GA0000001302100013","GA","110001418573","311211",32.829626,-83.620907,,,
"ARDEX AMERICAS","GA0000001322300012","GA","110000356579","325520",33.90883,-84.83025,,,
"AREA DECOR INC","GA0000001313900088","GA","110001426270","999999",34.27727,-83.84837,,,
"ARGLASS YAMAMURA SE, LLC","GA0000001318500116","GA","110067428769","327213",30.745233,-83.382138,,,
"ARGOS CEMENT, LLC","GA0000001312100401","GA","110000357569","327310",33.82182,-84.47228,1,,
"ARGOS GAINESVILLE CONCRETE PLANT","GA0000001313900165","GA","110022447743","327320",34.28539,-83.81336,0,,
"ARGOS LAGRANGE CONCRETE PLANT","GA0000001328500106","GA","110022448001","327320 999999",33.01592,-85.03152,0,,
"ARGOS PORT SAVANNAH","GA0000001305100232","GA","110037589133","423320",32.078123,-81.06624,,,
"ARGOS READY MIX LLC","GA0000001313500098","GA","110022447636","999999",33.968653,-83.968964,0,,
"ARGOS READY MIX LLC","GA0000001313500083","GA","110022447477","999999",33.918252,-84.237104,0,,
"ARGOS READY MIX LLC","GA0000001315300064","GA","110043570249","999999",32.586011,-83.599892,0,,
"ARGOS READY MIX LLC (ARMOUR DRIVE)","GA0000001312100607","GA","110001764733","999999",33.813181,-84.376254,0,,
"ARGOS READY MIX LLC (BYRON)","GA0000001322500017","GA","110022447789","999999",32.673469,-83.71441,0,,
"ARGOS READY MIX LLC (CANTON)","GA0000001305700053","GA","110022447681","999999",34.195061,-84.498377,0,,
"ARGOS READY MIX LLC (COLUMBUS)","GA0000001321500139","GA","110022447841","999999",32.522356,-84.869257,0,,
"ARGOS READY MIX LLC (DULUTH)","GA0000001313500033","GA","110022447663","999999",33.98391,-84.15832,,,
"ARGOS READY MIX LLC (GLENWOOD)","GA0000001312100522","GA","110022447716","999999",33.73977,-84.35885,1,,
"ARGOS READY MIX LLC (JEFFERSON)","GA0000001315700042","GA","110015714360","999999",34.167592,-83.635558,0,,
"ARGOS READY MIX LLC (LAWRENCEVILLE)","GA0000001311700017","GA","110010327725","999999",34.173834,-84.13763,,,
"ARGOS READY MIX LLC (LIBERTY)","GA0000001317900007","GA","110015769916","999999",31.827468,-81.524629,,,
"ARGOS READY MIX LLC (MACON-ROFF)","GA0000001302100210","GA","110033183061","999999",32.844999,-83.668985,,,
"ARGOS READY MIX LLC (MARIETTA)","GA0000001306700051","GA","110022447645","999999",33.97494,-84.55589,0,,
"ARGOS READY MIX LLC (MARTINEZ)","GA0000001307300015","GA","110022522732","999999",33.4875,-82.11861,,,
"ARGOS READY MIX LLC (POOLER)","GA0000001305100215","GA","110031002448","999999",32.09917,-81.22747,,,
"ARGOS READY MIX LLC (RED OAK)","GA0000001312100025","GA","110022447734","999999",33.62472,-84.47552,0,,
"ARGOS READY MIX LLC (SMYRNA)","GA0000001306700006","GA","110022447654","999999",33.861277,-84.562838,,,
"ARGOS READY MIX LLC (STILES AVENUE)","GA0000001305100029","GA","110022447832","999999",32.07421,-81.11252,,,
"ARGOS READY MIX LLC (STOCKBRIDGE)","GA0000001315100004","GA","110022448029","999999",33.54451,-84.234299,0,,
"ARIVEC CHEMICALS INC","GA0000001309700027","GA","110000749600","999999",33.76233,-84.73302,,,
"ARLINGTON MANUFACTURI","GA0000001303700003","GA","110001418715","999999",31.4384,-84.725993,,,
"ARMACELL","GA0000001322300019","GA","110000356560","999999",33.91026,-84.82828,,,
"ARMSTRONG GLASS CO INC","GA0000001322700013","GA","110006814812","999999",34.483052,-84.438943,,,
"ARMSTRONG WORLD INDUSTRIES","GA0000001312100671","GA","110001424361","999999",33.752701,-84.548954,,,
"ARMSTRONG WORLD INDUSTRIES, INC.","GA0000001302100030","GA","110000360163","327122 339999",32.773497,-83.6516,87480,,
"ARMUCHEE AUTO COLLISION","GA0000001311500111","GA","110043323481","999999",34.38947,-85.18172,,,
"ARNETTS MILLING CO","GA0000001327700052","GA","110007087918","999999",31.46704,-83.47064,,,
"ARNOLD H B CO","GA0000001326100046","GA","110038675626","999999",32.071819,-84.232513,,,
"ARNOLD H M FERTILIZER","GA0000001329700005","GA","110009277558","999999",33.79167,-83.71008,,,
"AROWOOD PAINT & BODY ","GA0000001325700052","GA","110043322106","999999",34.599258,-83.310146,,,
"ARRISCRAFT INTERNATIONAL USA, INC.","GA0000001307900008","GA","110040492703","999999",32.611875,-83.957876,,,
"ARROW ADHESIVES CO","GA0000001313500025","GA","110000356150","999999",33.96946,-84.21935,,,
"ARROW DYEING & FINISH","GA0000001331300089","GA","110038654505","999999",34.76398,-84.94729,,,
"ARROW SHIRT CO ATLANT","GA0000001312100081","GA","110001751024","999999",33.69993,-84.42837,,,
"ARROWHEAD ALTERNATOR","GA0000001306300029","GA","110038660080","999999",33.434846,-84.3060778,,,
"ARROWHEAD FIBERGLASS INDUSTRIES INC","GA0000001322500019","GA","110064139515","326199",32.533485,-83.87233,,,
"ART MANOUS CUSTOM CAB","GA0000001305700046","GA","110001425985","999999",34.30484,-84.42663,,,
"ARTCRAFT COLLISION REPAIR CENTER","GA0000001306700230","GA","110005690430","999999",33.89655,-84.5401,,,
"ARTHUR M. BLANK HOSPITAL","GA0000001308900412","GA","110071544643","622110",33.829644,-84.332719,,,
"ARTISANS PLANT INC","GA0000001312900036","GA","110001427091","999999",34.487875,-84.955571,,,
"ARTISTIC ACCENTS","GA0000001308900283","GA","110001418813","999999",33.82901,-84.20175,,,
"ARTISTIC ORNAMENTAL I","GA0000001312100674","GA","110001388953","999999",33.7606,-84.32276,,,
"ARTWOOD CARVING CO DI","GA0000001326300008","GA","110038675715","999999",32.787338,-84.56179,,,
"ASAMA COLDWATER MANUFACTURING GEORGIA","GA0000001330100012","GA","110058296883","331511",33.41213,-82.64034,9,,
"ASB GREENWORLD, INC.","GA0000001318500098","GA","110032627049","999999",30.775615,-83.190463,,,
"ASCEND ELEMENTS, INC.","GA0000001321700076","GA","110071248552","335911",33.614717,-83.844571,807,,
"ASHBURN WOOD PRESERVI","GA0000001328700012","GA","110038673922","999999",31.705919,-83.653419,,,
"ASHLAND SPECIALTY INGREDIENTS G.P. - DALTON PLANT","GA0000001331300145","GA","110015680725","999999",34.79964,-84.94631,,,
"ASHMORE CO","GA0000001321300027","GA","110040492927","999999",34.766129,-84.768646,,,
"ASPEN AEROGELS, INC.","GA0000001303100066","GA","110071524441","327993",32.299223,-81.864835,,,
"ASPHALT PRODUCTS CORP","GA0000001318500066","GA","110038674431","999999",30.83804,-83.26375,,,
"ASSA ABLOY SOUTHEAST SERVICE CENTER","GA0000001306700265","GA","110067246670","332321",33.75085,-84.57912,,,
"ASSOCIATED HYGIENIC PRODUCTS","GA0000001313500165","GA","110001970742","999999",34.021419,-84.170198,,,
"ASSOCIATED RUBBER CO","GA0000001312900066","GA","110000358924","999999",34.56421,-84.9372,,,
"ASTEC ROSSVILLE PLANT","GA0000001329500058","GA","110015910264","333120",34.98409,-85.28828,,,
"ASTECHNOLOGIES INC","GA0000001312100648","GA","110001422265","999999",34.04957,-84.3354,,,
"ASTRO DYE WORKS INC","GA0000001312900012","GA","110007090593","999999",34.501794,-84.954431,,,
"AT & T DATA CENTER","GA0000001312100798","GA","110013496573","517110",34.086553,-84.256883,,,
"AT PLASTICS INC","GA0000001311300039","GA","110038646150","999999",33.35258,-84.56163,,,
"AT&T","GA0000001308900395","GA","110064024737","517110",33.76374,-84.27703,,,
"AT&T GEORGIA","GA0000001312100905","GA","110005698753","517110",33.755031,-84.389224,,,
"AT&T GLOBAL INFORMATI","GA0000001313500178","GA","110038645909","999999",33.96846,-84.09969,,,
"AT&T INFORMATION SYSTEMS","GA0000001312100146","GA","110000888148","999999",33.72612,-84.58155,,,
"ATHENA SERVICE CENTER","GA0000001305900082","GA","110038657691","999999",33.97432,-83.32622,,,
"ATHENS BOILER & MACHINE WORKS INC","GA0000001310500005","GA","110007355600","999999",34.110882,-82.867554,,,
"ATHENS CHEVROLET","GA0000001321900019","GA","110005676027","999999",33.9463,-83.42732,,,
"ATHENS CONCRETE PRODUCTS CO","GA0000001305900017","GA","110001325940","999999",33.96654,-83.37853,,,
"ATHENS INDUSTRIAL ELECTRIC","GA0000001321900007","GA","110007249343","999999",33.949089,-83.534767,,,
"ATHENS PAINT & BODY, INC.","GA0000001305900093","GA","110005718152","999999",33.9444,-83.33639,,,
"ATHENS WEST CLEANERS","GA00000013139DC029","GA","110005719561","999999",33.941537,-83.44641,,"POF","Privately Owned Facility"
"ATHENS-CLARKE COUNTY MSW LANDFILL","GA0000001305900084","GA","110013454957","221119 221122 562212",33.9257,-83.2634,,,
"ATKINSON COUNTY - SR 50 MSW LANDFILL","GA0000001300300017","GA","110033177425","562212",31.33676,-83.03276,,,
"ATKORE US TRAY","GA0000001312100966","GA","110071219874","332999",33.75886,-84.55198,,,
"ATLANTA AUTO COLOR","GA0000001312100886","GA","110043431809","999999",34.042797,-84.332506,,,
"ATLANTA AUTO PAINTING, LLC. D/B/A SPRAYGLO","GA0000001312100879","GA","110043431426","999999",33.70459,-84.40803,,,
"ATLANTA CABINET SHOP","GA0000001313500201","GA","110001426190","999999",34.102617,-84.002168,,,
"ATLANTA COCA-COLA BOTTLING CO","GA0000001313900045","GA","110007090272","999999",34.297619,-83.823784,,,
"ATLANTA COCA-COLA BOTTLING CO","GA0000001313500048","GA","110007086027","999999",33.968532,-83.985634,,,
"ATLANTA COCA-COLA BOTTLING CO","GA0000001306700082","GA","110000859278","999999",33.976216,-84.543153,,,
"ATLANTA COMMISSARY #1","GA0000001306700192","GA","110017844788","999999",33.833846,-84.465688,,,
"ATLANTA CONCRETE RECYCLING","GA0000001377700057","GA","110010339641","999999",32.629384,-83.4232125,,,
"ATLANTA DAIRIES COOPERATIVE","GA0000001312100083","GA","110000357550","999999",33.745556,-84.36,,,
"ATLANTA DRUM SERVICES","GA0000001312100682","GA","110001422363","999999",33.722509,-84.393349,,,
"ATLANTA FILM CONVERTING","GA0000001312100619","GA","110010558574","999999",33.722852,-84.39291,,,
"ATLANTA FULTON COUNTY LIBRARY","0400013121EPA04","GA","110071293259","519210",33.6976,-84.4116,,,
"ATLANTA GAS LIGHT CO.","GA0000001305700036","GA","110005687364","486210",34.267865,-84.356584,,,
"ATLANTA GAS LIGHT COMPANY - MACON LNG PLANT","GA0000001316900010","GA","110006160144","221210",32.8918,-83.51668,,,
"ATLANTA GAS LIGHT COMPANY - RIVERDALE LNG PLANT","GA0000001306300083","GA","110001424726","221210",33.540607,-84.412981,,,
"ATLANTA GENERAL TIRE","GA0000001312100279","GA","110001422078","999999",33.775824,-84.36369,,,
"ATLANTA HARDWOOD CORP","GA0000001306700130","GA","110001970939","999999",33.816193,-84.489033,,,
"ATLANTA HEMPHILL PUMP","GA0000001312100173","GA","110001323666","221310",33.786558,-84.407164,,,
"ATLANTA IMPORT COLLISION CENTER INC.","GA0000001312100881","GA","110005664600","999999",33.7706,-84.38311,,,
"ATLANTA JOURNAL & CONSTITUTION","GA0000001312100640","GA","110001420418","999999",33.75617,-84.39181,,,
"ATLANTA JOURNAL-CONSTITUTION","GA0000001313500101","GA","110001427037","999999",33.91703,-84.2256,,,
"ATLANTA JR COLLEGE","GA0000001312100214","GA","110027048969","999999",33.710604,-84.407956,,,
"ATLANTA LUMBER & KILN CO","GA0000001321700019","GA","110006814876","999999",33.58716,-83.87719,,,
"ATLANTA MARBLE MANUFACTURING, INC.","GA0000001308900317","GA","110012576257","326199",33.78131,-84.27098,,,
"ATLANTA METAL COATING","GA0000001308900262","GA","110001424879","999999",33.90482,-84.249483,,,
"ATLANTA METAL INC","GA0000001312100090","GA","110001751051","999999",33.7533,-84.36627,,,
"ATLANTA OIL SERVICES","GA0000001308900248","GA","110038643000","999999",33.67251,-84.33633,,,
"ATLANTA PRESTRESSED CONCRETE INC","GA0000001306300040","GA","110001750695","999999",33.49314,-84.33731,,,
"ATLANTA PROCESSING CO","GA0000001325500041","GA","110001423834","999999",33.30281,-84.39436,,,
"ATLANTA RAILCAR SERVI","GA0000001313500125","GA","110001971082","999999",34.00838,-84.12942,,,
"ATLANTA RIM REPAIR LLC DBA RED LINE RIM REPAIR","GA0000001306700246","GA","110044318477","811121",34.055123,-84.625484,,,
"ATLANTA ROAD BODY SHOP, INC.","GA0000001306700236","GA","110005671442","999999",33.8968,-84.52164,,,
"ATLANTA SAND AND SUPPLY - ROBERTA MINE","GA0000001307900010","GA","110070046144","212321",32.636326,-83.992203,,,
"ATLANTA SOUTH RIVER W","GA0000001312100672","GA","110001424334","999999",33.68244,-84.36565,,,
"ATLANTA STOVE WORKS","GA0000001312100008","GA","110038644492","999999",33.75487,-84.36419,,,
"ATLANTA STRUCTURAL CONCRETE CO","GA0000001306700049","GA","110010328065","999999",33.86179,-84.668,,,
"ATLANTA UTOY CREEK WPCP","GA0000001312100036","GA","110058299470","221320",33.74721,-84.554744,,,
"ATLANTIC ENVELOPE CO","GA0000001312100639","GA","110005669794","999999",33.80084,-84.40783,,,
"ATLANTIC ENVELOPE CO","GA0000001306700170","GA","110007085885","999999",33.83746,-84.52054,,,
"ATLANTIC FUMIGATION SERVICES","GA0000001310300031","GA","110072155795","562213",32.195737,-81.257904,,,
"ATLANTIC MARINE WAREHOUSE ","GA0000001305100218","GA","110013745590","488210",32.06959,-81.142205,,,
"ATLANTIC MINCO INC","GA0000001319900019","GA","110038666538","999999",33.18488,-84.55096,,,
"ATLANTIC MINCO INC","GA0000001307700042","GA","110038641556","999999",33.44585,-84.83857,,,
"ATLANTIC POLE - GEORGIA, LLC","GA0000001327900005","GA","110000587990","321114",32.24296,-82.38688,12,,
"ATLANTIC POLYMER INC","GA0000001313300015","GA","110010385001","999999",33.576542,-83.182564,,,
"ATLANTIC STATES MILLWORK & LUMBER","GA0000001308900194","GA","110001389355","999999",33.8596,-84.194921,,,
"ATLANTIC STEEL","GA0000001312100007","GA","110038644483","999999",33.748657,-84.387711,,,
"ATLANTIC WOOD INDUSTRIES","GA0000001305100047","GA","110000604597","999999",32.146286,-81.150529,,,
"ATLANTIC WOOD PELLETS ATHENS, LLC","GA0000001315700015","GA","110000358602","321999",34.039171,-83.402562,,,
"ATLAS DEMOLITION","GA0000001377700221","GA","110071498373","212313",33.882352,-84.740489,,,
"ATLAS MOLDED PRODUCTS, A DIVISION OF ATLAS ROOFING CORPORATION","GA0000001313900063","GA","110001764350","326150",34.34377,-83.77809,,,
"ATLAS ROOFING CORP","GA0000001315100009","GA","110005663736","324122",33.409261,-84.291569,2,,
"ATLAS ROOFING CORPORATION","GA0000001328500015","GA","110000357202","326150",32.9969,-85.0464,0,,
"ATLAS WASTE & RECYCLING SYSTEMS","GA0000001377700059","GA","110062741038","999999",32.629384,-83.4232125,,,
"ATLAS WEIGHT CO","GA0000001311700028","GA","110007355815","999999",34.19862,-84.141402,,,
"ATRIUM HEALTH FLOYD MEDICAL CENTER","GA0000001311500074","GA","110007073745","622110",34.25976,-85.17931,,,
"ATRIUM NAVICENT HEALTH SYSTEM","GA0000001302100242","GA","110071883577","622110",32.833857,-83.636552,,,
"AUDLER'S AUTO BODY, INC.","GA0000001305700072","GA","110017780258","999999",34.12229,-84.58831,,,
"AUGUSTA BOX & CRATE","GA0000001324500057","GA","110001424511","999999",33.43039,-81.99725,,,
"AUGUSTA ENERGY, LLC","GA0000001324500168","GA","110038670863","999999",33.45226,-81.9292,,,
"AUGUSTA FIBERGLASS COATINGS, INC.","GA0000001320700032","GA","110007356066","221112 423320 999999",33.0613,-83.8066,33215,,
"AUGUSTA FIBERGLASS COATINGS, INC. (AT GEORGIA POWER - BOWEN PLANT)","GA0000001301500112","GA","110038676288","999999",34.137275,-84.926501,,,
"AUGUSTA FIBERGLASS COATINGS, INC. (AT GEORGIA POWER - HAMMOND PLANT) ","GA0000001311500109","GA","110038643714","999999",34.253383,-85.353573,,,
"AUGUSTA FIBERGLASS COATINGS, INC. (AT GEORGIA POWER - WANSLEY PLANT)","GA0000001314900009","GA","110046233919","221112 423320 999999",33.4131,-85.0336,,,
"AUGUSTA FOUNDRY","GA0000001324500043","GA","110001424478","999999",33.46481,-81.99235,,,
"AUGUSTA IRON & STEEL WORKS INC","GA0000001324500044","GA","110009357285","331111",33.47273,-81.97317,,,
"AUGUSTA IRON & STEEL WORKS INC","GA0000001307300005","GA","110001387552","999999",33.512402,-82.088531,,,
"AUGUSTA IRON & STEEL WORKS, INC.","GA0000001307300037","GA","110039577320","332312",33.51488,-82.08313,,,
"AUGUSTA PLATING CO IN","GA0000001324500101","GA","110005680218","999999",33.37914,-82.01064,,,
"AUGUSTA READY MIX INC","GA0000001324500142","GA","110001425477","999999",33.52323,-82.03732,,,
"AUGUSTA READY MIX, INC.","GA0000001307300031","GA","110030744416","999999",33.515593,-82.242521,,,
"AUGUSTA RECYCLING ASS","GA0000001324500150","GA","110038670818","999999",33.470829,-81.97403,,,
"AUGUSTA RENEWABLE POWER, LLC","GA0000001324500197","GA","110064024531","562219",33.2751,-81.95716,,,
"AUGUSTA TIRE & WHEEL, INC.","040000001324540291","GA","110001414826","999999",33.45173,-82.04519,,"POF","Privately Owned Facility"
"AUGUSTA UNIVERSITY","GA0000001324500134","GA","110013615007","611310",33.47105,-81.99143,,,
"AUGUSTA WOOD PRESERVING","GA0000001324500195","GA","110055580152","113310",33.45729,-81.95207,,,
"AUNT FANNY'S CABIN","040000001306740008","GA","110071362271","722511",33.8831,-84.514,,"COR","Corporation"
"AURUBIS RICHMOND LLC","GA0000001324500209","GA","110071344637","331423",33.34038,-81.98286,,,
"AUSTELL CABINET CO","GA0000001309700017","GA","110038645197","999999",33.812824,-84.633053,,,
"AUSTIN URETHANE INC","GA0000001326100060","GA","110000741001","326150",32.09745,-84.21911,,,
"AUTO AIR & SOUND, INC.","040000001324540285","GA","110001414960","999999",33.45145,-82.06316,,"POF","Privately Owned Facility"
"AUTO AIR OF GEORGIA","040000001312140012","GA","110001970519","999999",33.61361,-84.3491,,"POF","Privately Owned Facility"
"AUTO AIR PLUS","040000001308940800","GA","110001970476","999999",33.80102,-84.28027,,"POF","Privately Owned Facility"
"AUTO BODY SOLUTIONS","GA0000001377700138","GA","110012576774","999999",33.513439,-84.429321,,,
"AUTO CARE","040000001302140994","GA","110005705184","999999",32.87964,-83.66786,,"POF","Privately Owned Facility"
"AUTO CHOICE","GA0000001315100036","GA","110038668439","999999",33.54046,-84.27836,,,
"AUTO DOCTOR, INC.","GA0000001305700068","GA","110043323203","999999",34.20088,-84.45513,,,
"AUTO HOUSE","040000001308940249","GA","110001765607","999999",33.84483,-84.23103,,"POF","Privately Owned Facility"
"AUTO INNOVATIONS, INC.","GA0000001306700256","GA","110055580081","811121",33.89655,-84.5401,,,
"AUTO PERFECTION ","GA0000001305100253","GA","110043962414","999999",32.09327,-81.20264,,,
"AUTO REPAIR","040000001308940910","GA","110001970332","999999",33.88536,-84.28843,,"POF","Privately Owned Facility"
"AUTO STOP-GOODBY ROAD","040000001377740001","GA","110063232069","999999",32.629384,-83.4232125,,"POF","Privately Owned Facility"
"AUTO TECH & BODY WORK","040000001306340245","GA","110001765572","811121",33.64732,-84.36512,,"POF","Privately Owned Facility"
"AUTO TECH COMPUTERIZED CAR CARE","040000001312140990","GA","110007090762","999999",33.86712,-84.30174,,"POF","Privately Owned Facility"
"AUTO TECH COMPUTERIZED CAR CARE","040000001308940000","GA","110001970243","999999",33.88267,-84.28992,,"POF","Privately Owned Facility"
"AUTO TUNE INC.","GA0000001306300126","GA","110032986384","999999",33.61934,-84.38525,,,
"AUTO VENTSHADE CO","GA0000001308900223","GA","110001750908","999999",33.89653,-84.29932,,,
"AUTO ZONE","040000001313940001","GA","110063232121","999999",32.629384,-83.4232125,,"POF","Privately Owned Facility"
"AUTO-CHLOR SYSTEM, LLC","GA0000001312100824","GA","110000358005","999999",33.6713,-84.399349,,,
"AUTOIMPACT NO. 1, LLC.","GA0000001306700215","GA","110043430436","999999",33.8977,-84.57437,,,
"AUTOIMPACT NO. 2, LLC.","GA0000001308900352","GA","110017620948","999999",33.78276,-84.26947,,,
"AUTOLOK INC","GA0000001308900190","GA","110038642920","999999",33.829,-84.1948,,,
"AUTOMETRICS AUTO REPAIR","040000001312140912","GA","110038643974","999999",33.80591,-84.36711,,"POF","Privately Owned Facility"
"AUTOMOTIVE BRAKE & CL","GA0000001312100649","GA","110038666100","999999",33.73442,-84.41114,,,
"AUTOMOTIVE BRAKE & CLUTCH CO","GA0000001308900230","GA","110001750935","999999",33.902843,-84.279143,,,
"AUTOMOTIVE BRAKE & CLUTCH CO","GA0000001312100204","GA","110001421756","999999",33.77004,-84.40663,,,
"AUTOMOTIVE COLLISION CENTER, INC.","GA0000001313100026","GA","110006159343","999999",30.850013,-84.192801,,,
"AUTOMOTIVE FOREIGN SERVICES","040000001312140925","GA","110001970378","999999",32.629384,-83.4232125,,"POF","Privately Owned Facility"
"AUTOMOTIVE RECYCLING","GA0000001324500025","GA","110001424423","999999",33.465232,-81.934772,,,
"AUTOMOTIVE TOUCHUP SPECIALIST","GA0000001377700143","GA","110044318789","488190",34.004157,-84.475604,,,
"AUTONATION COLLISION CENTER UNION CITY","GA0000001312100961","GA","110070683913","811121",33.56718,-84.53045,,,
"AUTOSPORT INC","040000001305140914","GA","110007090717","999999",32.03884,-81.11174,,"POF","Privately Owned Facility"
"AVAP DEMONSTRATION PLANT","GA0000001329300030","GA","110040492892","999999",32.91375,-84.29362,,,
"AVENO INC","GA0000001312100814","GA","110013814694","999999",33.735167,-84.556813,,,
"AVERA GIN CO","GA0000001316300019","GA","110038669651","999999",33.194061,-82.527428,,,
"AVERY DENNISON","GA0000001313900102","GA","110001322391","999999",34.20119,-83.89873,,,
"AVERY DENNISON - FASSON ROLL NORTH AMERICA","GA0000001311300010","GA","110007355646","322222",33.37527,-84.57224,,,
"AVERY DENNISON - HOT TAPE DIVISION","GA0000001312100826","GA","110015634688","999999",33.798693,-84.434322,,,
"AVIENT CORPORATION","GA0000001306700133","GA","110001424735","325991",33.99156,-84.61109,1,,
"AVONDALE MILLS INC","GA0000001303500003","GA","110038671988","999999",33.29509,-83.966652,,,
"AVONDALE MILLS INC","GA0000001329700020","GA","110001751729","999999",33.785932,-83.709904,,,
"AVONDALE MILLS INC TI","GA0000001327700043","GA","110038669964","999999",31.38934,-83.39952,,,
"AVONDALE MILLS SIBLEY","GA0000001324500010","GA","110001423148","999999",33.48683,-81.99248,,,
"AVTECH INTERNATIONAL","GA0000001313500135","GA","110001971117","999999",34.039285,-84.07713,,,
"AYCOCK BROS LUMBER","GA0000001318100005","GA","110007249316","999999",33.78668,-82.54394,,,
"AYRES CORP","GA0000001309500025","GA","110006815900","999999",31.578369,-84.153801,,,
"B & D WOODWORKING INC","GA0000001305700045","GA","110001425976","999999",34.08599,-84.56393,,,
"B & J CO INC","GA0000001327500024","GA","110064340137","999999",31.067988,-84.099006,,,
"B & L ENTERPRISES - ELBERTON QUARRY","GA0000001310500049","GA","110033177434","999999",34.1088,-82.9061,,,
"B & M PAINT & BODY SERVICES ","GA0000001321700065","GA","110043433013","999999",33.57945,-83.88128,,,
"B & M WOOD PRODUCTS INC","GA0000001329900010","GA","110000360742","999999",31.12736,-82.58388,0,,
"B & N MILLING","GA0000001327500009","GA","110038668830","999999",31.073771,-84.090317,,,
"B & P IRON CO","GA0000001312100685","GA","110001424628","999999",33.632701,-84.466157,,,
"B & W FARM CENTER INC","GA0000001308100043","GA","110001325343","999999",31.95377,-83.78088,,,
"B C TIRE'S & AUTO SERVICE","040000001307340927","GA","110001970298","999999",33.505908,-82.091141,,"POF","Privately Owned Facility"
"B&B ASPHALT, LLC","GA0000001322500018","GA","110007356093","324121",32.68342,-83.711,,,
"B&D AUTO AIR","040000001308940257","GA","110001765689","999999",33.80913,-84.27343,,"POF","Privately Owned Facility"
"B&D ENTERPRISE, INC. D/B/A PRO-TECH COLLISION","GA0000001311700073","GA","110012283894","999999",34.19367,-84.1385,,,
"B&M INC., DBA KELLY'S AUTO CARE","GA0000001312100882","GA","110043431774","999999",33.79367,-84.41442,,,
"B-H TRANSFER COMPANY","GA0000001330300060","GA","110005718777","423830",33.000217,-82.801268,,,
"B2C REPAIR INCORPORATED","GA0000001312100861","GA","110038455604","999999",33.688247,-84.3602,,,
"BABB LUMBER COMPANY","GA0000001304700017","GA","110064341859","999999",34.89022,-85.07355,,,
"BABCOCK & WILCOX CO","GA0000001312700024","GA","110031046222","999999",31.15,-81.491667,,,
"BABY'S DREAM FURNITURE INC","GA0000001319700008","GA","110000859312","337122",32.33156,-84.52288,,,
"BACKINGS INC","GA0000001312900045","GA","110007090539","999999",34.502689,-84.950691,,,
"BACONTON POWER LLC","GA0000001320500044","GA","110071160260","221112",31.379746,-84.122404,,,
"BAGCRAFT CORP OF AMER","GA0000001306300067","GA","110002011162","999999",33.62995,-84.3888,,,
"BAGCRAFTPAPERCON III LLC","GA0000001313500275","GA","110043178183","322222",33.916705,-84.226644,,,
"BAHCO NORTH AMERICA","GA0000001321500075","GA","110001425217","999999",32.54875,-84.86882,,,
"BAILEY CABINET CO","GA0000001313500211","GA","110001418092","999999",34.11049,-84.04233,,,
"BAILEY MONUMENT CO","GA0000001329900033","GA","110007087357","999999",31.19129,-82.38709,,,
"BAILEY STREET BAKERY LLC","GA0000001312100084","GA","110000513588","311812",33.75037,-84.40495,,,
"BAINBRIDGE TIE & LUMB","GA0000001308700028","GA","110038641823","999999",30.802389,-84.54744,,,
"BAKER CONCRETE CONSTRUCTION INC.","GA0000001377700238","GA","110071767637","327320",32.629384,-83.4232125,,,
"BAKER DIVISION OF SONOCO","GA0000001313300017","GA","110040493016","999999",33.56215,-83.18949,,,
"BAKER HYDRO INC","GA0000001324500061","GA","110001424548","999999",33.369018,-81.997906,,,
"BALDWIN BODY SHOP, INC.","GA0000001300900045","GA","110043429395","999999",33.07401,-83.22581,,,
"BALDWIN DON MANUFACTURING CO","GA0000001308900056","GA","110001420846","999999",33.832665,-84.254758,,,
"BALDWIN PAVING CO INC EAST CHEROKEE PLANT","GA0000001305700091","GA","110070924470","324121",34.28852,-84.38519,,,
"BALDWIN PAVING CO INC PLT 1","GA0000001301300070","GA","110002374181","999999",34.02875,-83.82647,,,
"BALDWIN PAVING CO INC PLT 2","GA0000001306300107","GA","110064341680","999999",33.61071,-84.4099,,,
"BALDWIN PAVING CO INC PLT 2","GA0000001306300098","GA","110007083814","999999",33.58968,-84.41622,,,
"BALDWIN PAVING CO INC PLT 3","GA0000001309700055","GA","110001426939","999999",33.73924,-84.787953,,,
"BALDWIN PAVING CO., INC. - HALL COUNTY PLANT","GA0000001313900163","GA","110070838872","324121",34.20974,-83.78113,,,
"BALDWIN PAVING CO., INC. - KENNESAW PLANT","GA0000001306700272","GA","110070526422","324121",34.018116,-84.576964,,,
"BALDWIN PAVING COMPANY","GA0000001306700094","GA","110007255889","999999",33.97761,-84.56521,,,
"BALDWIN PAVING COMPANY, INC.","GA0000001311700060","GA","110013394718","324121",34.173834,-84.13763,,,
"BALDWIN PAVING COMPANY, INC. - PLANT 6","GA0000001307700065","GA","110030744425","999999",33.448242,-84.688499,,,
"BALFOUR POLE","GA0000001320500046","GA","110022406323","999999",31.32095,-84.17372,,,
"BALKCOM CABINET & MIL","GA0000001302100188","GA","110001425869","999999",32.93617,-83.71707,,,
"BALL AEROSOL AND SPECIALTY CONTAINER, INC.","GA0000001314300014","GA","110000356819","999999",33.73665,-85.27707,,,
"BALL CONTAINER LLC ROME CAN PLANT","GA0000001311500077","GA","110017416072","332431",34.3294,-85.0936,190700,,
"BALL METAL BEVERAGE CONTAINER CORP.","GA0000001307100005","GA","110000741010","999999",31.111145,-83.788444,,,
"BALLARD CONTRACTORS","GA0000001330100020","GA","110070361508","327320",33.406613,-82.637017,,,
"BALLENGER CORP","GA0000001312100044","GA","110038644562","999999",33.71082,-84.38006,,,
"BALLENGER CORP","GA0000001306700012","GA","110038660320","999999",33.854462,-84.217392,,,
"BALLENGER CORP","GA0000001312100538","GA","110038646436","999999",33.748657,-84.387711,,,
"BALLENGER GROUP INC","GA0000001331300102","GA","110038654550","999999",34.78764,-84.96266,,,
"BALLENGER GROUP INC","GA0000001306300070","GA","110038660204","999999",33.59016,-84.27852,,,
"BALLENGER GROUP INC","GA0000001312100616","GA","110038606568","999999",34.02374,-84.32953,,,
"BALLENGER GROUP INC","GA0000001306300068","GA","110038660197","999999",33.63842,-84.3028,,,
"BALLENGER PAVING CO","GA0000001309700045","GA","110001765377","999999",33.68012,-84.86226,,,
"BANK OF AMERICA PEACHTREE BATTLE","040000001312140032","GA","110071883439","522110",33.8201,-84.3883,,"COR","Corporation"
"BANKHEAD CONTRACTING, INC.","GA0000001306700092","GA","110038660437","999999",34.022139,-84.586386,,,
"BANKHEAD ENTERPRISES","GA0000001309700033","GA","110038645231","999999",33.78684,-84.66812,,,
"BANKHEAD ENTERPRISES","GA0000001312100307","GA","110038646310","999999",33.799315,-84.426992,,,
"BANKHEAD ENTERPRISES","GA0000001312100001","GA","110038644465","999999",33.78451,-84.48844,,,
"BANKHEAD ENTERPRISES, INC.","GA0000001312100127","GA","110038645446","999999",33.771066,-84.34781,,,
"BANKHEAD ENTERPRISES, INC.","GA0000001312100731","GA","110038666173","999999",33.771729,-84.431705,,,
"BANKHEAD ENTERPRISES, INC.","GA0000001304500031","GA","110038655540","999999",33.57214,-85.05172,,,
"BANNER FORD","040000001308940801","GA","110001970485","999999",33.79602,-84.28595,,"POF","Privately Owned Facility"
"BAPTIST HOSPITAL WORT","GA0000001332100025","GA","110001427180","999999",31.515512,-83.838596,,,
"BARBE AMERICA INC","GA0000001313900053","GA","110000358416","999999",34.21374,-83.89722,,,
"BARBER J O LUMBER CO","GA0000001319900006","GA","110007089480","999999",33.19677,-84.741846,,,
"BARBER'S BODY SHOP, INC.","GA0000001312700085","GA","110043431907","999999",31.19497,-81.50524,,,
"BARCO LLC","GA0000001314300032","GA","110072172748","326299",33.731029,-85.276787,,,
"BARD MANUFACTURING COMPANY","GA0000001321100016","GA","110000358719","999999",33.54362,-83.510119,,,
"BARNES PAINT & BODY SHOP, LLC.","GA0000001309500098","GA","110043323418","999999",31.55466,-84.09444,,,
"BARNETT SOUTHERN CORPORATION, INC.-STATEWIDE MOBILE CRUSHING PLANT #1","GA0000001377700246","GA","110070507651","212313 237310 327320",32.629384,-83.4232125,,,
"BARNWELL COLLARIES","GA0000001308300006","GA","110038641725","999999",34.87204,-85.509087,,,
"BARRETT DODGE","040000001305940203","GA","110022877010","441110",33.940441,-83.477822,,"POF","Privately Owned Facility"
"BARRETT WOOD PRODUCTS","GA0000001313900084","GA","110001426234","999999",34.54123,-83.853269,,,
"BARRON INC","GA0000001308900232","GA","110001750953","999999",33.84105,-84.32147,,,
"BARRON QUARRY","GA0000001316900014","GA","110037592450","999999",33.059398,-83.601879,,,
"BARROW ENTERPRISES, INC., DBA BARROW BODY SHOP","GA0000001306700216","GA","110005679060","999999",33.89826,-84.52187,,,
"BARROW'S WOODWORKING","GA0000001305900079","GA","110007089925","999999",33.932048,-83.46067,,,
"BARTOW COUNTY MSW LANDFILL","GA0000001301500103","GA","110043581905","562212",34.16532,-84.79891,,,
"BARTOW LFG LLC","GA0000001301500116","GA","110060936279","999999",34.14457,-84.76363,,,
"BARTOW PALLETS INC","GA0000001312300020","GA","110007044563","999999",34.694981,-84.482903,,,
"BARTOW PAVING","GA0000001301500012","GA","110030744283","999999",34.18439,-84.78456,,,
"BARWICK E T IND INC","GA0000001329500001","GA","110038674814","999999",34.701735,-85.287412,,,
"BARWICK E T IND INC A","GA0000001329500002","GA","110038674823","999999",34.773823,-85.372711,,,
"BASCOM GIN COMPANY","GA0000001325100026","GA","110001752014","999999",32.841048,-81.664296,,,
"BASCOMB MISSION THRIFT","04000EPAGAASBBASCO","GA","110070672242","999999",34.086852,-84.519419,,,
"BASE MANUFACTURING","GA0000001308900259","GA","110001425002","999999",33.85646,-84.18885,,,
"BASF AGRICULTURAL SOLUTIONS US LLC","GA0000001327300027","GA","110071356714","115111",31.73597,-84.40126,,,
"BASF AGRICULTURAL SOLUTIONS US LLC","GA0000001307500015","GA","110007486354","325320",31.16272,-83.44855,24,,
"BASF CORPORATION","GA0000001308700001","GA","110002438979","999999",30.758289,-84.501605,,,
"BASF CORPORATION -  ATTAPULGUS OPERATIONS","GA0000001308700037","GA","110007248683","327992",30.738333,-84.493889,2942749,,
"BASF CORPORATION-EDGAR PLANT","GA0000001331900009","GA","110005670577","212323",32.852745,-83.232553,,,
"BASF CORPORATION-SAVANNAH OPERATIONS","GA0000001305100023","GA","110000360378","327992 999999",32.078611,-81.054444,474997,,
"BASSETT FURNITURE INDS OF NC","GA0000001302100066","GA","110000360109","999999",32.70884,-83.64975,,,
"BASSETT FURNITURE INDS OF NC INC","GA0000001317500048","GA","110000359932","999999",32.51863,-82.93176,,,
"BATHCRAFT, LLC","GA0000001318500073","GA","110000360779","326191",30.80012,-83.27844,37315,,
"BATHROOM DESIGNS","GA0000001312100815","GA","110000357480","999999",33.75542,-84.35587,,,
"BATHROOM DESIGNS","GA0000001308900331","GA","110022522670","999999",33.84842,-84.22872,,,
"BATTER UP FOODS LLC","GA0000001312100862","GA","110038526440","311412",33.74262,-84.57272,,,
"BATTLE LUMBER COMPANY INC","GA0000001316300012","GA","110055129588","321113",32.857757,-82.393239,4,,
"BAX-STEEL BUILDINGS INC","GA0000001300100007","GA","110007083878","999999",31.76798,-82.33082,,,
"BAXALTA US INC.","GA0000001329700056","GA","110054888154","325414",33.65621,-83.71822,,,
"BAXLEY CREOSOTE CO","GA0000001300100006","GA","110005665903","999999",31.7745,-82.33656,,,
"BAXLEY REDIMIX CONCRETE","GA0000001300100012","GA","110007083896","999999",31.75774,-82.34512,,,
"BAXLEY VENEER & CLEAT","GA0000001309500018","GA","110038645017","999999",31.576084,-84.187038,,,
"BAXLEY VENEER & CLEAT CO","GA0000001300100004","GA","110007083850","999999",31.7719,-82.3482,,,
"BAXTERS PAINTING & BODY SHOP, INC.","GA0000001326700015","GA","110043426673","999999",31.94848,-81.95399,,,
"BAYER CROPSCIENCE - WOODBINE PLANT","GA0000001303900002","GA","110000360760","325320",30.942306,-81.525611,,,
"BAYER HEALTHCARE LLC","GA0000001321300038","GA","110007497716","339113",34.78996,-84.78438,,,
"BCT GIN #2","GA0000001302700002","GA","110064338845","115111",30.89374,-83.4869,,,
"BCT GIN CO","GA0000001307100030","GA","110007073004","115111",31.0638,-83.61961,,,
"BCT GIN CO","GA0000001307100069","GA","110064524670","115111",31.064519,-83.622456,,,
"BCT GIN CO INC MORVEN","GA0000001302700012","GA","110007047258","999999",30.9619,-83.50046,,,
"BD COVINGTON","GA0000001321700021","GA","110009356464","339112",33.6082,-83.8396,806,,
"BD GLOBAL DISTRIBUTION CENTER","GA0000001321700075","GA","110070683851","493110",33.60427,-83.81912,,,
"BD MADISON","GA0000001321100021","GA","110037143203","339112",33.56232,-83.46814,849,,
"BEACH TIMBER COMPANY, INC.","GA0000001300500011","GA","110007250198","321113",31.57719,-82.45956,,,
"BEACON CUSTOM WOODWOR","GA0000001308900289","GA","110001752345","999999",33.79913,-84.28023,,,
"BEADLES & BALFOUR, LLC","GA0000001327500022","GA","110005690680","321113",30.83371,-83.99825,,,
"BEADLES & BALFOUR, LLC","GA0000001307100016","GA","110001387623","321113 321999",31.18925,-83.7837,,,
"BEAN W R & SONS INC","GA0000001312100108","GA","110001751113","999999",33.763311,-84.542965,,,
"BEARDEN AUTO BODY","GA0000001312300025","GA","110043323533","999999",34.82942,-84.40605,,,
"BEASLEY FLOORING PRODUCTS, INC.","GA0000001302100203","GA","110012143377","321918",32.700087,-83.669456,,,
"BEASLEY FOREST PRODUCTS, INC.","GA0000001316100019","GA","110057312885","321113",31.907942,-82.561203,0,"FDF","Federal Facility (U.S. Government)"
"BEATTIE'S AUTO SERVICE","040000001324540279","GA","110001414915","999999",33.48531,-82.02988,,"POF","Privately Owned Facility"
"BEAULIEU FIBERS","GA0000001331300068","GA","110006829664","999999",34.7654,-84.95369,,,
"BEAULIEU FIBERS AMERI","GA0000001331300128","GA","110001426485","999999",34.711894,-84.973714,,,
"BEAULIEU FIBERS INC","GA0000001311500010","GA","110001759687","999999",34.270301,-85.217464,,,
"BEAULIEU GROUP,LLC PL","GA0000001321300032","GA","110007083226","999999",34.766129,-84.768646,,,
"BEAULIEU OF AMERICA I","GA0000001321300009","GA","110013937277","999999",34.734845,-84.820532,,,
"BEAULIEU PLANT 560","GA0000001331300122","GA","110000359148","999999",34.759065,-84.95139,,,
"BEAULIEU SERETEAN","GA0000001331300059","GA","110041528326","999999",34.8003,-84.96616,,,
"BEAULIEU UNITED D&W","GA0000001321300031","GA","110013947532","999999",34.824985,-84.763019,,,
"BEAVER MANUFACTURING","GA0000001321700031","GA","110007249398","999999",33.5173,-83.734993,1,,
"BEAVERS AUTOMOTIVE, INC., D/B/A CAR CRAFTERS","GA0000001311100014","GA","110043431293","999999",34.89329,-84.3545,,,
"BEDWELL COLLISION, LLC.","GA0000001311700074","GA","110043431346","999999",34.12745,-84.22494,,,
"BEHR PROCESS CORPORATION","GA0000001315100058","GA","110005719785","444120",33.39781,-84.16375,,,
"BEKAERT STAINLESS TECHOLOGIES","GA0000001306700247","GA","110045442570","333414",33.94042,-84.51205,,,
"BEKAERT TIRE REINFORCEMENT US CORPORATION","GA0000001311500068","GA","110000356739","332618",34.21936,-85.173638,1138,,
"BELL'S CLEANERS","GA00000013139DC030","GA","110005673583","999999",34.300982,-83.824543,,"POF","Privately Owned Facility"
"BELL'S PAINT & BODY SHOP","GA0000001320900006","GA","110043962502","999999",32.23134,-82.46034,,,
"BELLA VISTA OF ROME, LLC, 200 EAST SECOND AVE., ROME, GA 30161","04000BELVISTAASBDR","GA","110070616550","999999",34.25113,-85.17293,,,
"BELLAMY STRICKLAND COLLISION CENTER","040000001303540001","GA","110009359149","999999",33.40758,-84.16726,,"POF","Privately Owned Facility"
"BELLAMY STRICKLAND COLLISION CENTER","GA0000001315100051","GA","110009359149","999999",33.40758,-84.16726,,,
"BELLSOUTH TELECOMM LINDBERGH CENTER","GA0000001312100816","GA","110038668331","999999",33.82487,-84.3672,,,
"BELLSOUTH TELECOMM MIDTOWN ONE","GA0000001312100817","GA","110038643947","999999",33.775293,-84.384607,,,
"BELLSOUTH TELECOMM MIDTOWN TWO","GA0000001312100818","GA","110013745563","517110",33.77435,-84.38732,,,
"BELLSOUTH TELECOMMUNI","GA0000001312100745","GA","110038666235","999999",33.89181,-84.29554,,,
"BELLSOUTH TELECOMMUNI","GA0000001306300094","GA","110001971206","999999",33.636186,-84.357971,,,
"BELLSOUTH TELECOMMUNI","GA0000001306700149","GA","110038665325","999999",33.883801,-84.512945,,,
"BELLSOUTH TELECOMMUNI","GA0000001313500180","GA","110001425672","999999",33.93663,-84.21391,,,
"BELLSOUTH TELECOMMUNI","GA0000001308900273","GA","110038644198","999999",33.76391,-84.31114,,,
"BELLSOUTH TELECOMMUNI","GA0000001312100742","GA","110038666217","999999",33.945186,-84.333513,,,
"BELLSOUTH TELECOMMUNI","GA0000001312100741","GA","110038666208","999999",33.90093,-84.379698,,,
"BELLSOUTH TELECOMMUNI","GA0000001312100746","GA","110038666244","999999",33.926881,-84.340805,,,
"BELLSOUTH TELECOMMUNI","GA0000001309700051","GA","110001425574","999999",33.74612,-84.75057,,,
"BELLSOUTH TELECOMMUNI","GA0000001312100740","GA","110038666191","999999",33.80838,-84.41882,,,
"BELLSOUTH TELECOMMUNI","GA0000001312100744","GA","110007356903","999999",33.92801,-84.34506,,,
"BELLSOUTH TELECOMMUNI","GA0000001311700032","GA","110005973367","999999",34.20833,-84.13879,,,
"BELLSOUTH TELECOMMUNI","GA0000001312100738","GA","110017745243","999999",33.756517,-84.384234,,,
"BELLSOUTH TELECOMMUNI","GA0000001306700150","GA","110038665334","999999",33.910888,-84.465268,,,
"BELLSOUTH TELECOMMUNI","GA0000001312100739","GA","110038666182","999999",33.73862,-84.42767,,,
"BELLSOUTH TELECOMMUNI","GA0000001313500179","GA","110009358168","999999",33.85552,-84.02687,,,
"BELLSOUTH TELECOMMUNI","GA0000001312100743","GA","110007356921","999999",33.82951,-84.33718,,,
"BELLSOUTH TELECOMMUNI","GA0000001308900274","GA","110009355679","999999",33.85158,-84.22313,,,
"BELLSOUTH TELECOMMUNI","GA0000001309500088","GA","110001425645","999999",31.57846,-84.153755,,,
"BELLSOUTH TELECOMMUNI","GA0000001302100183","GA","110001425663","999999",32.83825,-83.63177,,,
"BELLSOUTH TELECOMMUNI","GA0000001313900082","GA","110001425636","999999",34.30046,-83.82163,,,
"BELLSOUTH TELECOMMUNI LENOX PARK BLDG","GA0000001308900311","GA","110038644232","999999",33.85042,-84.34785,,,
"BELLSOUTH TELECOMMUNICATIONS","GA0000001305100190","GA","110001425654","999999",32.06323,-81.09786,,,
"BELLSOUTH TELECOMMUNICATIONS-BAPCO","GA0000001308900312","GA","110006362783","999999",33.85125,-84.24462,,,
"BELMONT LANDING","0400000013121EPA05","GA","110018854630","999999",33.53363,-84.41397,,"POF","Privately Owned Facility"
"BEN HILL READYMIX CON","GA0000001311700022","GA","110010327752","999999",34.14098,-84.1482,,,
"BEN HILL READYMIX CONCRETE CO","GA0000001306700007","GA","110007046507","999999",33.86678,-84.66666,,,
"BEN HILL READYMIX CONCRETE CO","GA0000001313500078","GA","110038645767","999999",34.00238,-84.145493,,,
"BEN'S DIESEL PERFORMANCE","04000EPAMOBBEN","GA","110070624691","811121",33.5871934,-83.8221732,,,
"BENCHMARK CARPET","GA0000001301500052","GA","110038676144","999999",34.15664,-84.7936,,,
"BENNETT CHEVROLET BUICK INC.","GA0000001303900030","GA","110043429812","999999",30.78091,-81.62765,,,
"BENNETT CONCRETE CO INC","GA0000001316100013","GA","110001426305","999999",31.86644,-82.59271,,,
"BERRY FURNITURE INC","GA0000001311500053","GA","110007085769","999999",34.20358,-85.17273,,,
"BERRY GLOBAL CORPORATION","GA0000001331700029","GA","110005680012","326113 999999",33.710191,-82.754303,,,
"BERRY PLASTICS CORPORATION","GA0000001321700061","GA","110000519975","326150",33.61489,-83.8421,,,
"BEST AUTO CARE","040000001308940009","GA","110001970252","999999",33.86712,-84.30174,,"POF","Privately Owned Facility"
"BEST AUTO CARE","040000001312140909","GA","110001970252","999999",33.86712,-84.30174,,"POF","Privately Owned Facility"
"BEST BLOCKS INC","GA0000001302100074","GA","110001764948","999999",32.706335,-83.643073,,,
"BEST CONCRETE PRODUCT","GA0000001312100187","GA","110038645598","999999",33.636118,-84.45799,,,
"BEST GLOVE, INC.","GA0000001311500040","GA","110007355708","315992",34.388729,-85.181969,,,
"BEST MANUFACTURING CO","GA0000001323300009","GA","110038643242","999999",33.90417,-85.06726,,,
"BEST REDIMIX CONCRETE","GA0000001313900040","GA","110001426742","999999",34.28608,-83.81963,,,
"BETHANY HOME NURSING","GA0000001327900019","GA","110062740976","999999",32.217378,-82.394218,,,
"BETSILL'S TRANSMISSION SERVICE","040000001306340259","GA","110001765705","999999",33.519927,-84.3251873,,"POF","Privately Owned Facility"
"BETTER BACKERS INC","GA0000001321300019","GA","110002443918","314110 999999",34.750995,-84.768068,,,
"BETTER BACKERS INC","GA0000001321300018","GA","110007255086","999999",34.750275,-84.775512,,,
"BEVERS & ASSOCIATES","GA0000001324700020","GA","110007087133","999999",33.64035,-83.98433,,,
"BFI MEDICAL WASTE SYS","GA0000001306300073","GA","110038660222","999999",33.60772,-84.3262,,,
"BFI WASTE SERVICES, LLC - ADAIRSVILLE HAULING FACILITY","GA0000001301500127","GA","110054883961","484210",34.39186,-84.93109,,,
"BFI WATTS RD MSW LF","GA0000001312100786","GA","110038668288","999999",33.78667,-84.48341,,,
"BFS USA, LLC","GA0000001301500131","GA","110064025656","326199",34.272001,-84.791967,,,
"BGS OF GEORGIA INC","GA0000001312100560","GA","110064141780","999999",33.783433,-84.487306,,,
"BHJ USA LLC","GA0000001314700032","GA","110071174404","311111",34.33835,-82.96794,,,
"BHW SHEET METAL CO","GA0000001306300079","GA","110001389033","999999",33.53004,-84.35279,,,
"BIANCHI INDUSTRIAL SERVICES LLC","GA0000001377700099","GA","110024519092","999999",33.74982,-84.37928,,,
"BIBB CO ANDERSON PLT","GA0000001321500067","GA","110038672674","999999",32.49655,-84.98368,,,
"BIBB CO ARNALL PLT","GA0000001307700032","GA","110007355469","999999",33.432091,-84.868172,,,
"BIBB CO CAMELLIA PLT","GA0000001320700010","GA","110001128636","999999",33.091866,-83.784609,,,
"BIBB CO COLISEUM PLT","GA0000001302100118","GA","110009357203","999999",32.840225,-83.619168,,,
"BIBB CO COLUMBUS PLT","GA0000001321500100","GA","110001425253","999999",32.49951,-84.99126,,,
"BIBB CO PAYNE PLT","GA0000001302100119","GA","110001764788","999999",32.85369,-83.67981,,,
"BIBB CONCRETE PIPE CO","GA0000001302100065","GA","110007255308","999999",32.84698,-83.58794,,,
"BIBB STEEL & SUPPLY","GA0000001302100163","GA","110001326690","999999",32.791522,-83.649681,,,
"BIBB YARNS INC","GA0000001320700012","GA","110007086946","999999",33.05272,-83.95145,,,
"BICKLEY A M CHEMICALS","GA0000001319300012","GA","110038666413","999999",32.456322,-83.940399,,,
"BIERLEIN PORTABLE CRUSHING PLANT","GA0000001301700043","GA","110038455677","999999",31.68629,-83.26135,,,
"BIERLEIN PORTABLE CRUSHING PLANT","GA0000001377700120","GA","110038455677","999999",31.68629,-83.26135,,,
"BIG BEND AGRI-SERVICES INC","GA0000001313100011","GA","110007253042","999999",30.72709,-84.34363,,,
"BILL HEARD CHVROLET - BUFORD","040000001313940008","GA","110013473384","441110 999999",34.10665,-84.0033,,"POF","Privately Owned Facility"
"BILLY HOWELL FORD COLLISION","GA0000001311700081","GA","110043962487","999999",34.23836,-84.21177,,,
"BILLY'S COLLISION CENTER","GA0000001313500277","GA","110043431961","999999",33.900749,-84.206244,,,
"BIMBO BAKERIES QSR, LLC","GA0000001318500117","GA","110071223098","311812",30.814733,-83.298719,,,
"BIMBO BAKERIES USA, INC.","GA0000001308900239","GA","110001324193","311812",33.688515,-84.272555,,,
"BIO ENERGY (GEORGIA II) LLC","GA0000001318500115","GA","110070828387","221117",30.81425,-83.35981,,,
"BIO ENERGY (GEORGIA) LLC","GA0000001311300044","GA","110040580083","999999",33.4863,-84.4418,,,
"BIO-LAB INC","GA0000001308900038","GA","110001766553","999999",33.77333,-84.28611,,,
"BIO-LAB, INCORPORATED","GA0000001324700009","GA","110007087213","325612",33.671111,-84.045278,5443968,,
"BIO-PLUS, LLC","GA0000001328700020","GA","110007087687","424590",31.68253,-83.6386,,,
"BIOCARBON, LLC","GA0000001327100026","GA","110071883644","325194",31.922676,-82.682269,,,
"BIODIESEL PRODUCTION FACILITY - GREENSBORO","GA0000001313300020","GA","110031467357","999999",33.57239,-83.19274,,,
"BIOMASS GAS & ELECTRIC LLC","GA0000001311700062","GA","110027225492","999999",34.27745,-84.04763,,,
"BIRCHWOOD FOODS","GA0000001313500341","GA","110070671365","311612",33.917345,-84.20376,,,
"BIRD LEROY T GIN","GA0000001303100027","GA","110038671906","999999",32.53825,-81.932259,,,
"BIRDSONG PEANUT CO","GA0000001309900002","GA","110007045205","424590",31.380459,-84.931773,,,
"BIRDSONG PEANUT COMPANY","GA0000001320100001","GA","110002439095","424590",31.172157,-84.720989,,,
"BIRDSONG PEANUT COMPANY","GA0000001303700014","GA","110033182801","424590",31.43513,-84.71207,,,
"BIRDSONG PEANUT COMPANY","GA0000001332100023","GA","110010384244","424590",31.547,-83.9043,,,
"BIRDSONG PEANUTS CO","GA0000001309900005","GA","110001324148","999999",31.37826,-84.93309,,,
"BISCHOF & KLEIN USA","GA0000001301500060","GA","110038676162","999999",34.21931,-84.79614,,,
"BISHOP CLEANING","GA00000013095DC011","GA","110005674984","999999",31.59254,-84.17602,,"POF","Privately Owned Facility"
"BITUMAR (GEORGIA), INC.","GA0000001309700010","GA","110000498578","324121 424710",33.76219,-84.729403,,,
"BITZER NORTH AMERICA, INC.","GA0000001313900124","GA","110023109296","999999",34.217907,-83.89052,,,
"BITZER USA, INC.","GA0000001313900141","GA","110054887413","333912",34.214501,-83.889673,,,
"BIZARRE COFFEE WAREHOUSE","0400000013057EPA27","GA","110071362286","423850",34.232,-84.491,,"POF","Privately Owned Facility"
"BJ SANITARY LANDFILL","GA0000001313500185","GA","110013576772","562212",33.93222,-84.23611,,,
"BJ'S WHOLESALE CLUB  #145","0400000013035EPA35","GA","110013645957","999999",33.46443,-84.2189,,"POF","Privately Owned Facility"
"BLACK & BLACK COLLISION","GA0000001329700052","GA","110031292704","999999",33.82755,-83.82763,,,
"BLACKJACK ASPHALT INC.","GA0000001303900029","GA","110033134365","999999",30.9716,-81.724569,,,
"BLACKLIDGE EMULSIONS, INC.","GA0000001309700043","GA","110001752005","324121",33.7718,-84.73127,,,
"BLACKS AUTO BODY","GA0000001308700059","GA","110064025362","811121",30.9435465,-84.6019536,,,
"BLACKSHEAR MILLING","GA0000001322900004","GA","110007253300","999999",31.30632,-82.242149,,,
"BLAIR MANUFACTURING C","GA0000001306700034","GA","110001325842","999999",33.957661,-84.551941,,,
"BLALOCK LUMBER CO","GA0000001331100001","GA","110007356468","999999",34.596931,-83.76342,,,
"BLALOCK LUMBER CO","GA0000001301100007","GA","110007355021","999999",34.4522,-83.5857,,,
"BLANTON COLLISION CENTER","GA0000001315700051","GA","110043432602","999999",34.1079,-83.57329,,,
"BLANTON PAINT & BODY INC.","GA0000001307100067","GA","110005683965","999999",31.178512,-83.769675,,,
"BLAW KNOX","GA0000001304500061","GA","110005719883","999999",33.61792,-85.09947,,,
"BLAZE RECYCLING","0400000013015EPA15","GA","110043975419","999999",34.294048,-83.813791,,"POF","Privately Owned Facility"
"BLAZE RECYCLING AND METAL","0400000013135EPA56","GA","110044871332","999999",33.968487,-83.969363,,"POF","Privately Owned Facility"
"BLAZE RECYCLING AND METAL","0400000013135EPA55","GA","110006546871","423930 999999",33.92323,-84.19091,,"POF","Privately Owned Facility"
"BLECKLEY FARM SERVICE","GA0000001302300009","GA","110038670783","999999",32.36196,-83.38484,,,
"BLOODWORTH H F","GA0000001331900019","GA","110007088873","999999",32.851231,-83.217262,,,
"BLOUNT CONSTRUCTION CO.","GA0000001311700012","GA","110013539402","324121",34.228056,-84.167778,,,
"BLOUNT CONSTRUCTION CO.","GA0000001312100053","GA","110038644580","999999",33.632942,-84.465845,,,
"BLOUNT CONSTRUCTION COMPANY","GA0000001311500067","GA","110001421319","324121 999999",34.33525,-85.17232,,,
"BLOUNT CONSTRUCTION COMPANY","GA0000001313900021","GA","110005988592","324121 999999",34.129771,-83.925172,,,
"BLOUNT CONSTRUCTION COMPANY","GA0000001377700034","GA","110010339240","212319 999999",33.91861,-84.24533,,,
"BLOUNT CONSTRUCTION COMPANY","GA0000001308900216","GA","110001750873","324121 999999",33.710467,-84.093754,,,
"BLOUNT CONSTRUCTION COMPANY","GA0000001313500255","GA","110002011493","324121 999999",33.927719,-84.254084,,,
"BLOUNT CONSTRUCTION COMPANY, INC.","GA0000001308900149","GA","110007073996","324121 999999",33.67273,-84.3373,,,
"BLUE BIRD BODY CO.","GA0000001322500001","GA","110058136262","336211",32.5622,-83.88022,13589,,
"BLUE BIRD NORTH GEORGIA","GA0000001329500044","GA","110007484659","336211",34.67742,-85.2872,,,
"BLUE BIRD WANDERLODGE","GA0000001322500002","GA","110042078275","999999",32.56007,-83.88385,,,
"BLUE CIRCLE AGGREGATES, INC.","GA0000001301500072","GA","110038676215","999999",34.369129,-84.932632,,,
"BLUE CIRCLE ATLANTIC (CEMENT TERM)","GA0000001305100063","GA","110038656442","999999",32.0891,-81.08782,,,
"BLUE CIRCLE WILLIAMS BROTHERS","GA0000001311300022","GA","110001759767","999999",33.49602,-84.57894,,,
"BLUE CIRCLE WILLIAMS BROTHERS","GA0000001325500014","GA","110007088551","999999",33.247108,-84.263786,,,
"BLUE CIRCLE WILLIAMS BROTHERS","GA0000001301300061","GA","110022447761","999999",33.980645,-83.707934,,,
"BLUE CIRCLE WILLIAMS BROTHERS","GA0000001313500030","GA","110064338480","999999",33.97822,-84.16897,,,
"BLUE CIRCLE WILLIAMS BROTHERS","GA0000001306700100","GA","110001766820","999999",34.072376,-84.522038,,,
"BLUE CIRCLE WILLIAMS BROTHERS","GA0000001328500022","GA","110022448001","327320 999999",33.01592,-85.03152,0,,
"BLUE CIRCLE WILLIAMS BROTHERS","GA0000001312100089","GA","110001751042","999999",33.570298,-84.57095,,,
"BLUE CIRCLE WILLIAMS BROTHERS","GA0000001313700014","GA","110001422595","999999",34.511311,-83.527092,,,
"BLUE CIRCLE WILLIAMS BROTHERS","GA0000001306700068","GA","110064225388","999999",34.07164,-84.521937,,,
"BLUE CIRCLE WILLIAMS BROTHERS","GA0000001308900184","GA","110001389319","999999",33.732785,-84.106615,,,
"BLUE CIRCLE WILLIAMS BROTHERS","GA0000001312100073","GA","110001751015","999999",33.73977,-84.35885,,,
"BLUE CIRCLE WILLIAMS BROTHERS","GA0000001312100533","GA","110001764644","999999",33.923193,-84.371102,,,
"BLUE CIRCLE WILLIAMS BROTHERS","GA0000001305700025","GA","110007084662","999999",34.19409,-84.50571,,,
"BLUE CIRCLE WILLIAMS BROTHERS","GA0000001309700012","GA","110007045250","999999",33.751659,-84.747299,,,
"BLUE CIRCLE WILLIAMS BROTHERS","GA0000001312100708","GA","110001424968","999999",33.739998,-84.359907,,,
"BLUE CIRCLE WILLIAMS BROTHERS","GA0000001315300036","GA","110022447805","999999",32.462833,-83.746024,,,
"BLUE CIRCLE WILLIAMS BROTHERS","GA0000001313700041","GA","110001422595","999999",34.511311,-83.527092,,,
"BLUE CIRCLE WILLIAMS BROTHERS","GA0000001306700019","GA","110022447994","999999",34.0208,-84.59224,,,
"BLUE CIRCLE WILLIAMS BROTHERS","GA0000001308900006","GA","110064137063","999999",33.892548,-84.297958,,,
"BLUE CIRCLE WILLIAMS BROTHERS","GA0000001321500162","GA","110001419732","999999",32.52264,-84.90579,,,
"BLUE CIRCLE WILLIAMS BROTHERS","GA0000001320700016","GA","110010338884","999999",32.706335,-83.643073,,,
"BLUE CIRCLE WILLIAMS BROTHERS","GA0000001312100198","GA","110001421738","999999",33.76734,-84.36126,,,
