"AIRName","SourceID","AIRState","RegistryID","AIRNAICS","FacLat","FacLong","FacTRIAIRReleases","AIRFacilityTypeCode","AIRFacilityTypeDesc"
"1 CLEANERS","VA0000005176000440","VA","110001900907","812320",37.571746,-77.437521,,"NON","Non-Government"
"11751 MEADOWVILLE OWNER LLC C/O GFH CAPITAL LTD","VA0000005104100495","VA","110028010042","518210",37.36191,-77.33308,,"NON","Non-Government"
"1320 NORTH COURTHOUSE, LLC","VA0000005101300836","VA","110038526075","517110 517111",38.888509,-77.083566,,"NON","Non-Government"
"1951 KIDWELL ASSOCIATES","VA0000005105900409","VA","110001897948","531120",38.91073,-77.221,,"POF","Privately Owned Facility"
"1ST CHOICE BODY SHOP","VA0000005101300822","VA","110005227209","811121",38.846,-77.05433,,"NON","Non-Government"
"1ST RESPONSE RAIL SERVICE INC","VA0000005108153083","VA","110071820709","332812",36.54623,-77.52929,,"NON","Non-Government"
"2.49 CLEANERS","VA0000005176000480","VA","110020680654","812320",37.605254,-77.571107,,"NON","Non-Government"
"21110 RIDGETOP CIRCLE LLC","VA0000005110701042","VA","110044950274","517110 517111 518210",39.02498,-77.41359,,"NON","Non-Government"
"21571 BEAUMEADE CIRCLE LLC","VA0000005110700824","VA","110012709925","517112",39.02086,-77.45381,,"NON","Non-Government"
"22810-22860 INTERNATIONAL DRIVE LLC","VA0000005110700814","VA","110001914821","517110 518210",38.98483,-77.42467,,"NON","Non-Government"
"22995 WILDER COURT LLC","VA0000005110700839","VA","110018852204","518210",38.98023,-77.44347,,"NON","Non-Government"
"299 ONE PRICE CLEANERS","VA0000005176000435","VA","110007345113","812320",37.6187,-77.52373,,"NON","Non-Government"
"301 CLEANERS","VA0000005109900022","VA","110038455560","812320",38.267927,-77.142522,,"NON","Non-Government"
"3600 CENTRE","VA0000005176000296","VA","110007321479","482111",37.56914,-77.47847,,"POF","Privately Owned Facility"
"395 COLLISION CENTER","VA0000005105900877","VA","110027235604","811121",38.79889,-77.17038,,"NON","Non-Government"
"460 SERVICE CENTER","VA0000005114744009","VA","110044954555","999999",37.27372,-78.30432,,"POF","Privately Owned Facility"
"500 COURT SQUARE CONDOMINIUM ASSOCIATES","VA0000005100300022","VA","110001908794","531110",38.031459,-78.478096,,"POF","Privately Owned Facility"
"5100 MONUMENT CONDOMINIUMS","VA0000005108700269","VA","110001894424","531110",37.57869,-77.50142,,"POF","Privately Owned Facility"
"530 E MAIN STREET BLDG","VA0000005176000276","VA","110001904707","453998",37.53999,-77.43929,,"POF","Privately Owned Facility"
"5TH AVENUE CLEANERS","VA0000005108700471","VA","110005291308","812320",37.583,-77.49515,,"NON","Non-Government"
"623 LANDFILL - PORTABLE 52139","VA0000005107552139","VA","110024521034","562212",37.69069,-77.66549,,"NON","Non-Government"
"7-CLEANERS INC","VA0000005110700122","VA","110001901176","812320",39.118611,-77.555,,"NON","Non-Government"
"700 MAIN ST LLC","VA0000005168000214","VA","110061064761","524210",37.41613,-79.14343,,"NON","Non-Government"
"7TH AND FRANKLIN STS BLDG CHEVY CHASE LA","VA0000005176000297","VA","110020673430","531120",37.54001,-77.43712,,"POF","Privately Owned Facility"
"A & A CONTRACTORS LLC - PORTABLE 52385","VA0000005108552385","VA","110037604152","212319 423810",37.71925,-77.4663,,"NON","Non-Government"
"A & G COAL CO","VA0000005119500157","VA","110007026814","212111 212114",36.945593,-82.720599,,"NON","Non-Government"
"A & G COAL CORP-RAMSEY PREP PLANT","VA0000005119500229","VA","110041892627","212111 212114",36.939626,-82.5695,,"NON","Non-Government"
"A & G COAL INC - 11561P","VA0000005119511561","VA","110030749304","333131",36.9980366,-82.566165,,"NON","Non-Government"
"A & J DEVELOPMENT & EXCAVATION, INC. - PORTABLE 52615","VA0000005108552615","VA","110070049497","423810",38.376972,-78.922767,,"NON","Non-Government"
"A & R AUTO BODY LLC","VA0000005110700895","VA","110037605516","811121",38.96388,-77.50102,,"NON","Non-Government"
"A & T AUTO SALES","VA0000005104144020","VA","110001911904","441110",37.39584,-77.4302,,"POF","Privately Owned Facility"
"A &A AND R LOGISTICS INCORPORATED","VA0000005155000052","VA","110037605366","325211 325991",36.75707,-76.28779,,"NON","Non-Government"
"A 1 SANDROCK","VA0000005159021597","VA","110069427445","324121",36.582456,-79.367795,,"NON","Non-Government"
"A AND A PAVING LIMITED LIABILITY COMPANY","VA0000005104152554","VA","110069429185","324121",37.36087,-77.39732,,"NON","Non-Government"
"A AND N ELECTRIC COOPERATIVE","VA0000005100100041","VA","110040485622","999999",37.7195613,-75.6677837,,"POF","Privately Owned Facility"
"A AND N ELECTRIC COOPERATIVE - TANGIER ISLAND","VA0000005100100012","VA","110010407354","221112",37.827582,-75.991197,,"NON","Non-Government"
"A AND R LOGISTICS INCORPORATED","VA0000005155000245","VA","110037605366","325211 325991",36.75707,-76.28779,,"NON","Non-Government"
"A C FURNITURE INC","VA0000005108900129","VA","110012148498","337122",36.65934,-79.72762,,"NON","Non-Government"
"A CLEANER WORLD","VA0000005177000221","VA","110001900729","812320",37.25688,-79.95692,,"NON","Non-Government"
"A CLEANER WORLD #128","VA0000005116100254","VA","110005290773","812320",37.310658,-79.885925,,"NON","Non-Government"
"A CLEANER WORLD #190","VA0000005169000104","VA","110001899072","812320",36.67921,-79.85082,,"NON","Non-Government"
"A CLEANER WORLD #194","VA0000005112100075","VA","110001899438","812320",37.21071,-80.40005,,"NON","Non-Government"
"A H ROBINS COMPANY INC/SERGEANTS PET PRODUCTS","VA0000005108700091","VA","110020678756","325412",37.48435,-77.3613,,"NON","Non-Government"
"A L DUCK JR INCORPORATED","VA0000005109300007","VA","110006851399","311612",36.78738,-76.85362,,"POF","Privately Owned Facility"
"A M CONTRACTOR","VA0000005119511563","VA","110030749313","333131",36.943624,-82.782796,,"NON","Non-Government"
"A ONE AUTO REPAIR AND BODY SHOP","VA0000005151000393","VA","110037604722","811111",38.80532,-77.13067,,"NON","Non-Government"
"A P HILL SCHOOL","VA0000005105300055","VA","110021455655","611110",37.2092,-77.415,,"CNG","County Government"
"A S RHODES ELEMENTARY SCHOOL","VA0000005118700016","VA","110007321503","611110",38.9481,-78.2064,,"CNG","County Government"
"A SMITH BOWMAN DISTILLERY","VA0000005117700062","VA","110020676785","312140",38.28192,-77.45086,,"NON","Non-Government"
"A T AND T OAKTON","VA0000005105900992","VA","110012261514","517112 517210",38.87643,-77.30627,,"NON","Non-Government"
"A TO Z AUTOMOTIVE LLC","VA0000005110700892","VA","110037605482","811111",38.96454,-77.50158,,"NON","Non-Government"
"A TO Z REPAIR","VA0000005104144037","VA","110046102711","999999",37.432017,-77.613962,,"POF","Privately Owned Facility"
"A W BENNETT CO INC","VA0000005108500224","VA","110063891052","812220",37.61594,-77.33858,,"NON","Non-Government"
"A W BENNETT FUNERAL COMPANY INC","VA0000005108700170","VA","110001895496","812210",37.64753,-77.58851,,"NON","Non-Government"
"A+ DRY CLEANERS","VA0000005151000175","VA","110020669007","812320",38.82237,-77.16173,,"NON","Non-Government"
"A-1 CLEANERS","VA0000005115300803","VA","110001913886","812320",38.661643,-77.366543,,"NON","Non-Government"
"A-MART DEPARTMENT STORE INCORPORATED","VA0000005118500018","VA","110010407639","452990",37.2478,-81.3033,,"NON","Non-Government"
"A-OK CLEANERS","VA0000005151000203","VA","110002031916","812320",38.71985,-77.12426,,"NON","Non-Government"
"A. P. HILL","VA0000005103300017","VA","110001886674","928110",38.072354,-77.32246,94,"FDF","Federal Facility (U.S. Government)"
"A.E.S. OF NORFOLK","VA00000051710H0001","VA","110001906411","811412",36.86185,-76.24043,,"POF","Privately Owned Facility"
"A.K. AUTOMOTIVE","VA0000005110700893","VA","110037605491","811111",38.97421,-77.4122,,"NON","Non-Government"
"A.O. SMITH ELECTRICAL PRODUCTS COMPANY","VA0000005103100085","VA","110001893666","335312",37.13072,-79.28941,,"NON","Non-Government"
"AA TRUCK AND AUTO BODY","VA0000005105900878","VA","110027235613","811121",38.6757353,-77.2038396,,"NON","Non-Government"
"AAA PAVING AND SEALING","VA0000005102100012","VA","110006849018","324121",37.235556,-81.094722,,"NON","Non-Government"
"AAA PAVING AND SEALING","VA0000005118500060","VA","110020677212","324121",37.068353,-81.710809,,"NON","Non-Government"
"AB WHOLESALE INCORPORATED","VA0000005118500074","VA","110001902512","445110",37.2445,-81.26508,,"POF","Privately Owned Facility"
"ABB INC","VA0000005108700591","VA","110042000312","335313",37.50165,-77.35027,,"NON","Non-Government"
"ABB POWER T & D COMPANY INCORPORATED","VA0000005165000072","VA","110000342344","335311",37.0118,-76.40778,,"NON","Non-Government"
"ABBOTT LABORATORIES ABBOTT NUTRITION DIV","VA0000005103100033","VA","110020667358","311514",37.130556,-79.267778,,"NON","Non-Government"
"ABBOTT LABORATORIES-ROSS PRODUCTS DIV.","VA0000005103144002","VA","110020667358","311514",37.130556,-79.267778,,"POF","Privately Owned Facility"
"ABEL LAKE BOOSTER PUMP STATION","VA0000005163000113","VA","110043427609","221119",38.2992718,-77.4866583,,"POF","Privately Owned Facility"
"ABERCOMBIE OIL COMPANY","VA0000005108900070","VA","110001904878","424710",36.69116,-79.91288,,"POF","Privately Owned Facility"
"ABINGDON CLEANERS & LAUNDERERS, INC.","VA0000005119100006","VA","110001899036","812320",36.71372,-81.96548,,"NON","Non-Government"
"ABINGDON CLEANERS INC","VA0000005107300027","VA","110007323155","812320",37.259722,-76.497222,,"NON","Non-Government"
"ABINGDON MILLWORK INC","VA0000005119100194","VA","110037605106","321911",36.70199,-81.98832,,"NON","Non-Government"
"ABINGDON READY MIX","VA0000005119100094","VA","110001892435","327320",36.6956,-82.0175,,"NON","Non-Government"
"ABOVE NET COMMUNICATIONS","VA0000005105901058","VA","110043433246","999999",38.873594,-77.433293,,"POF","Privately Owned Facility"
"ABOVENET COMMUNICATIONS","VA0000005105901085","VA","110043433754","999999",38.95822,-77.37522,,"POF","Privately Owned Facility"
"ABOVENET COMMUNICATIONS","VA0000005105900815","VA","110001914705","518210",38.91722,-77.23427,,"NON","Non-Government"
"ACC2 (RHINO)","VA0000005110700840","VA","110040512237","518210",39.02097,-77.4598,,"NON","Non-Government"
"ACC3 (QUILL VENTURES)","VA0000005110700845","VA","110062742741","518210",39.0204,-77.4607,,"NON","Non-Government"
"ACCESS CLEANERS LLC","VA0000005118700045","VA","110018852160","812320",38.91684,-78.19218,,"NON","Non-Government"
"ACCLAIM CLEANERS","VA0000005106100065","VA","110014397214","812320",38.72966,-77.80226,,"NON","Non-Government"
"ACCLAIM COAL SALES INCORPORATED","VA0000005105100035","VA","110007321077","212111 212114",37.1264,-82.38,,"NON","Non-Government"
"ACCO CHAIN & LIFTING PRODUCTS","VA0000005117300077","VA","110020667839","333923",36.895,-81.7508,,"NON","Non-Government"
"ACCO STONE PORTABLE CRUSHER","VA0000005112121463","VA","110024887693","212312",37.17155,-80.26938,,"NON","Non-Government"
"ACCO STONE PORTABLE PEP SCREEN PLANT","VA0000005112121398","VA","110020667946","212312 213115",37.18467,-80.39497,,"NON","Non-Government"
"ACCO STONE QUARRY","VA0000005112100003","VA","110020667946","212312 213115",37.18467,-80.39497,,"NON","Non-Government"
"ACCO STONE QUARRY - PORTABLE 81608","VA0000005112181608","VA","110056281982","212312",37.18467,-80.39497,,"NON","Non-Government"
"ACCOMACK COUNTY ARCADIA HIGH SCHOOL","VA0000005100100016","VA","110007327295","611110",37.925335,-75.549111,,"CNG","County Government"
"ACCOMACK COUNTY NANDUA HIGH SCHOOL","VA0000005100100022","VA","110002032933","611110",37.678184,-75.723933,,"CNG","County Government"
"ACCOTINK PUMPING STATION","VA0000005105901012","VA","110040513307","221320",38.70805,-77.16333,,"NON","Non-Government"
"ACCURATE MARINE ENVIRONMENTAL - PORTSMOUTH","VA0000005174061905","VA","110071524347","562211",36.80021,-76.29636,,"NON","Non-Government"
"ACCUTEC BLADES, INC.","VA0000005101500016","VA","110071499008","332215",38.191062,-78.990422,,"NON","Non-Government"
"ACE CLEANERS","VA0000005119900026","VA","110020667688","812320",37.137394,-76.456972,,"NON","Non-Government"
"ACKEN SIGNS","VA0000005118500131","VA","110007326688","339950",37.22912,-81.32312,,"NON","Non-Government"
"ACME MARKETS OF VIRGINIA INCORPORATED/LEBANON","VA0000005116700059","VA","110007323896","445110",36.9056,-82.0575,,"NON","Non-Government"
"ACN-RICHMOND, LLC","VA0000005176000375","VA","110001889494","332439",37.501258,-77.430897,,"NON","Non-Government"
"ACREDALE ANIMAL HOSPITAL","VA0000005181061821","VA","110070936797","541940",36.79938,-76.17955,,"NON","Non-Government"
"ACRES SAND & STONE LLC","VA0000005101500135","VA","110007327605","212321",38.005594,-79.027158,,"NON","Non-Government"
"ACTION AUTO BODY","VA0000005101300813","VA","110005225176","811121",38.82791,-77.05131,,"NON","Non-Government"
"ACTION CLEANERS","VA0000005105900656","VA","110001901354","812320",38.86864,-77.17465,,"NON","Non-Government"
"ACTIVE WEAR INC","VA0000005108900131","VA","110020683214","315190",36.65536,-79.87173,,"NON","Non-Government"
"AD FIRE PROTECTION SYSTEMS CORP.","VA0000005110900052","VA","110020680182","212323 212324",38.014573,-77.976703,,"NON","Non-Government"
"ADAM'S SQUARE CLEANERS","VA0000005101300260","VA","110001901103","812320",38.86339,-77.08384,,"NON","Non-Government"
"ADAMS CONST CO - SOUTHSIDE (HORSEPASTURE)","VA0000005108900117","VA","110020672315","324121",36.689999,-79.904999,,"NON","Non-Government"
"ADAMS CONSTRUCTION CO","VA0000005116330894","VA","110033645081","324121",37.77661,-79.429846,,"NON","Non-Government"
"ADAMS CONSTRUCTION CO  - CLOSED B'BG PORT","VA0000005112100062","VA","110061822452","324121",37.18499,-80.39425,,"NON","Non-Government"
"ADAMS CONSTRUCTION CO  - ROCKYDALE","VA0000005116100011","VA","110007317803","324121",37.214952,-79.955555,,"NON","Non-Government"
"ADAMS CONSTRUCTION CO  DUBLIN","VA0000005115500047","VA","110006847948","324121",37.086906,-80.662118,,"NON","Non-Government"
"ADAMS CONSTRUCTION CO - 11287P","VA0000005107711287","VA","110001887165","212313 212321 324121",36.572603,-80.930952,,"NON","Non-Government"
"ADAMS CONSTRUCTION CO - ALLEGHANY","VA0000005100521465","VA","110061859779","324121",37.795612,-79.89057,,"NON","Non-Government"
"ADAMS CONSTRUCTION CO - B'BG AZTEC DRUM PLANT","VA0000005112121356","VA","110061822452","324121",37.18499,-80.39425,,"NON","Non-Government"
"ADAMS CONSTRUCTION CO - BLUE RIDGE ASPHALT PLANT","VA0000005102380039","VA","110061162735","324121",37.37935,-79.80253,,"NON","Non-Government"
"ADAMS CONSTRUCTION CO - CLOSED ALLEGHANY","VA0000005100561067","VA","110061859779","324121",37.795612,-79.89057,,"POF","Privately Owned Facility"
"ADAMS CONSTRUCTION CO - CLOSED BLUE RIDGE","VA0000005102300004","VA","110061162735","324121",37.37935,-79.80253,,"NON","Non-Government"
"ADAMS CONSTRUCTION CO - CLOSED WOODHAVEN","VA0000005116100017","VA","110001887940","324121",37.3375,-79.99168,,"NON","Non-Government"
"ADAMS CONSTRUCTION CO - CMI DRUM PLANT","VA0000005116100230","VA","110001887940","324121",37.3375,-79.99168,,"NON","Non-Government"
"ADAMS CONSTRUCTION CO - DRAPER ASPHALT PLANT","VA0000005116100009","VA","110001887922","324121",37.215489,-79.955448,,"NON","Non-Government"
"ADAMS CONSTRUCTION CO - EDGERTON ASPHALT PLANT","VA0000005102500005","VA","110007210534","324121",36.745756,-77.746294,,"NON","Non-Government"
"ADAMS CONSTRUCTION CO - GRAYSON ASPHALT PLANT","VA0000005107700064","VA","110001887165","212313 212321 324121",36.572603,-80.930952,,"NON","Non-Government"
"ADAMS CONSTRUCTION CO - LAWHORNE BROS PAVING DIV","VA0000005103100004","VA","110020673591","324121",37.311029,-79.196765,,"NON","Non-Government"
"ADAMS CONSTRUCTION CO - LAWHORNE BROS PORT 32003","VA0000005103132003","VA","110020673591","324121",37.311029,-79.196765,,"NON","Non-Government"
"ADAMS CONSTRUCTION CO - LEXINGTON","VA0000005116381607","VA","110033645081","324121",37.77661,-79.429846,,"NON","Non-Government"
"ADAMS CONSTRUCTION CO - NEWBERN PLANT","VA0000005115500042","VA","110006847911","324121",37.06477,-80.70441,,"NON","Non-Government"
"ADAMS CONSTRUCTION CO - PORT CMI ASPHALT PLANT","VA0000005116111534","VA","110001887940","324121",37.3375,-79.99168,,"NON","Non-Government"
"ADAMS CONSTRUCTION CO - PORTABLE 52660","VA0000005114752660","VA","110070102351","324121",37.311839,-78.494865,,"NON","Non-Government"
"ADAMS CONSTRUCTION CO- 11177P","VA0000005107700052","VA","110064211641","212313",36.575917,-80.922556,,"NON","Non-Government"
"ADAMS CONSTRUCTION CO-ROCKY MOUNT","VA0000005106700036","VA","110007317251","324121",37.01,-79.8467,,"NON","Non-Government"
"ADAMS CONSTRUCTION CO-SOUTHSIDE DIVISION","VA0000005159000139","VA","110064210241","324121",36.55733,-79.3693,,"NON","Non-Government"
"ADAMS CONSTRUCTION CO.","VA0000005103100193","VA","110062722914","324121",37.31369,-79.22405,,"NON","Non-Government"
"ADAMS CONSTRUCTION CO. - PORTABLE ASPHALT PLANT","VA0000005119732009","VA","110017742282","324121",36.87994,-80.772618,,"NON","Non-Government"
"ADAMS CONSTRUCTION COMPANY","VA0000005116321578","VA","110033645081","324121",37.77661,-79.429846,,"NON","Non-Government"
"ADAMS CONSTRUCTION COMPANY","VA0000005116500069","VA","110027214805","324121",38.70289,-78.73731,,"NON","Non-Government"
"ADAMS CONSTRUCTION COMPANY","VA0000005116500129","VA","110020669631","324121",38.506819,-78.851425,,"NON","Non-Government"
"ADAMS CONSTRUCTION COMPANY","VA0000005119700063","VA","110017742282","324121",36.87994,-80.772618,,"NON","Non-Government"
"ADAMS CONSTRUCTION COMPANY  - PORTABLE 52418","VA0000005108152418","VA","110045945643","324121",36.613716,-77.587816,,"NON","Non-Government"
"ADAMS CONSTRUCTION COMPANY - GRAYSON CO","VA0000005107711245","VA","110020684008","324121",36.575917,-80.922556,,"NON","Non-Government"
"ADAMS CONSTRUCTION COMPANY - JACK PLANT","VA0000005105300005","VA","110063898171","324121",37.197924,-77.502442,,"NON","Non-Government"
"ADAMS CONSTRUCTION COMPANY - LINDA LANE","VA0000005166000003","VA","110001888262","324121",38.43953,-78.84038,,"NON","Non-Government"
"ADAMS CONSTRUCTION COMPANY - PORTABLE 21580","VA0000005159000170","VA","110063898171","324121",37.197924,-77.502442,,"NON","Non-Government"
"ADAMS CONSTRUCTION COMPANY - PORTABLE 52827","VA0000005108152827","VA","110070890943","324121",36.603453,-77.567868,,"NON","Non-Government"
"ADAMS CONSTRUCTION COMPANY - PUDDLEDOCK","VA0000005114900011","VA","110002030276","324121",37.24036,-77.37159,,"NON","Non-Government"
"ADAMS CONSTRUCTION COMPANY - RAPHINE","VA0000005101500165","VA","110044951380","324121",37.92509,-79.167499,,"NON","Non-Government"
"ADAMS CONSTRUCTION COMPANY - RIVERSIDE PLANT","VA0000005116100273","VA","110043217122","324121",37.23585,-80.18145,,"NON","Non-Government"
"ADAMS CONSTRUCTION MECKLENBURG ASPHALT PLANT","VA0000005111700073","VA","110043703070","324121",36.740278,-78.211531,,"NON","Non-Government"
"ADAMS LUMBER COMPANY","VA0000005108300051","VA","110020667429","321113",37.079686,-78.8762288,,"NON","Non-Government"
"ADAMS OIL COMPANY","VA0000005114500008","VA","110020679755","424710 454311",37.55366,-77.93567,,"NON","Non-Government"
"ADAMS OIL COMPANY","VA0000005114500003","VA","110020679755","424710 454311",37.55366,-77.93567,,"POF","Privately Owned Facility"
"ADAMS-GREEN FUNERAL HOME","VA0000005105900837","VA","110015306514","812210",38.96972,-77.38513,,"NON","Non-Government"
"ADESA VIRGINIA LLC","VA0000005110700850","VA","110027235873","423110",38.954816,-77.501661,,"POF","Privately Owned Facility"
"ADKINS ASSOC. / YOUR STORE","VA00000051041G0259","VA","110005251360","999999",37.48093,-77.58273,,"POF","Privately Owned Facility"
"ADVANCE TREADS INC","VA0000005103100168","VA","110007321905","326212",37.3678,-79.1144,,"NON","Non-Government"
"ADVANCED FINISHING SYSTEMS, INC.","VA0000005107300034","VA","110020684311","332813",37.28852,-76.50864,,"NON","Non-Government"
"ADVANCED TECHNOLOGIES INC - NEWPORT NEWS","VA0000005170061744","VA","110070262546","541712 541713",37.09438,-76.46964,,"NON","Non-Government"
"ADVANCED TECHNOLOGIES INC - ROBOTICS DIVISION","VA0000005165000108","VA","110055475908","333511",37.0121,-76.39928,,"NON","Non-Government"
"ADVANCED WATER TECHNOLOGY - PORTABLE 61101","VA0000005155061101","VA","110038805512","562910",36.883814,-76.1432365,,"NON","Non-Government"
"ADVANSIX RESINS AND CHEMICALS LLC - CHESTERFIELD","VA0000005104100051","VA","110000342460","325211 326199",37.33963,-77.2884,,"NON","Non-Government"
"ADVANSIX RESINS AND CHEMICALS LLC - HOPEWELL PLANT","VA0000005167000026","VA","110000620221","325199",37.3009,-77.2722,787472,"NON","Non-Government"
"ADVEX CORPORATION","VA0000005165000098","VA","110002032988","332313",37.086482,-76.393987,,"NON","Non-Government"
"AEC VIRGINIA LLC - BOYKINS PLANT","VA0000005117500023","VA","110001890339","313220",36.58592,-77.20313,,"NON","Non-Government"
"AEGIS FILMS INCORPORATED","VA0000005106700068","VA","110055567765","326113",36.9614445,-79.8664315,,"NON","Non-Government"
"AEROFIN","VA0000005168000117","VA","110000552946","332410",37.37033,-79.17263,,"POF","Privately Owned Facility"
"AEROJET ROCKETDYNE, INC. - ORANGE COUNTY FACILITY","VA0000005113700022","VA","110001136501","336415",38.271803,-77.902797,,"NON","Non-Government"
"AEROSPACE DATA FACILITY - EAST","VA0000005105974154","VA","110070226312","928110",38.6993531,-77.1574972,,"FDF","Federal Facility (U.S. Government)"
"AETNA INSULATED WIRE COMPANY","VA0000005181000051","VA","110000342166","335929",36.89954,-76.186489,,"NON","Non-Government"
"AFFINITY FUNERAL SERVICE","VA0000005108552666","VA","110070205459","812220",37.60186,-77.37483,,"NON","Non-Government"
"AFFORDABLE AUTOMOTIVE REPAIR","VA0000005117744007","VA","110041353889","999999",38.24996,-77.49645,,"POF","Privately Owned Facility"
"AFFORDABLE CREMATION AND FUNERAL SERVICE","VA0000005176000478","VA","110006529159","812210",37.54709,-77.43687,,"NON","Non-Government"
"AFL","VA0000005119100125","VA","110011742141","331524",36.667222,-82.073056,,"NON","Non-Government"
"AFTON CHEMICAL CORPORATION","VA0000005176000410","VA","110000826688","541380",37.539117,-77.447827,,"NON","Non-Government"
"AFTON SQUARE APARTMENTS","VA0000005174044005","VA","110001906457","531110",36.80836,-76.32199,,"POF","Privately Owned Facility"
"AG FORTE LLC - VIRGINIA DIVISION","VA0000005116500206","VA","110020683483","112330",38.55274,-78.85385,,"POF","Privately Owned Facility"
"AG RENEWABLE RESOURCES LLC","VA0000005104900008","VA","110043570114","221117",37.518511,-78.234657,,"NON","Non-Government"
"AGAPE PET SERVICES","VA0000005108700594","VA","110056289653","812220",37.487,-77.25542,,"NON","Non-Government"
"AGAPE PET SERVICES","VA0000005181000102","VA","110001907919","812220",36.83861,-76.1087,,"NON","Non-Government"
"AGAPE PET SERVICES OF VIRGINIA LLC","VA0000005179081749","VA","110070050138","812220",38.20485,-79.00443,,"NON","Non-Government"
"AGGREGATE INDUSTRIES - CHARLES CITY SAND AND GRAVEL","VA0000005103600019","VA","110064342466","212321",37.396613,-77.191976,,"NON","Non-Government"
"AGGREGATE INDUSTRIES MAR - ALBION","VA0000005117941033","VA","110020750123","327320",38.25659,-77.38938,,"NON","Non-Government"
"AGGREGATE INDUSTRIES MAR - CULPEPER PLANT","VA0000005104700007","VA","110001890972","327320",38.4628,-77.9967,,"NON","Non-Government"
"AGGREGATE INDUSTRIES MAR-KING GEORGE SAND AND GRAV","VA0000005109900002","VA","110031475605","212321",38.253757,-77.290107,,"NON","Non-Government"
"AGGREGATES EQUIPMENT INC","VA0000005119511662","VA","110046386228","212111 212114",36.9127114,-82.7950444,,"NON","Non-Government"
"AGGREGATES USA LLC - ABINGDON QUARRY","VA0000005119111651","VA","110056279922","212312 327320",36.693863,-81.978749,,"POF","Privately Owned Facility"
"AGI KLEARFOLD","VA0000005110900042","VA","110008192954","323111",38.01228,-77.9749,,"NON","Non-Government"
"AGL RESOURCES INCORPORATED","VA0000005103300046","VA","110038439892","486210",38.0280328,-77.3537363,,"POF","Privately Owned Facility"
"AGL RESOURCES VIRGINIA NATURAL GAS CO - CHESAPEAKE","VA0000005155000217","VA","110001913966","454310",36.775855,-76.282765,,"NON","Non-Government"
"AGMARK INTERMODAL SYSTEMS INC","VA0000005117100075","VA","110002032791","424510",38.99811,-78.37681,,"NON","Non-Government"
"AGNL COFFMAN LLC - PLANT # 2","VA0000005117300066","VA","110013765728","321918",36.8413,-81.49612,,"NON","Non-Government"
"AGRI NUTRIENTS ASSOCIATES LIMITED LIABILITY COMPANY","VA0000005105300112","VA","110056291631","327420",37.215079,-77.4703818,,"NON","Non-Government"
"AGRIUM US INC","VA0000005168000100","VA","110056955585","424910",37.37925,-79.14376,,"NON","Non-Government"
"AGRIUM US INC - CHESAPEAKE PLANT","VA0000005155000044","VA","110000342022","325312",36.771499,-76.28996,,"NON","Non-Government"
"AGS MANUFACTURING INC","VA0000005101581775","VA","110070526499","333243",38.28441,-78.92134,,"NON","Non-Government"
"AHN'S CLEANER","VA0000005176000429","VA","110007322940","812320",37.63601,-77.46181,,"NON","Non-Government"
"AHNS CLEANERS","VA0000005157000182","VA","110017624258","812320",37.24627,-77.41027,,"POF","Privately Owned Facility"
"AID TIRE AND AUTO REPAIR","VA0000005103144038","VA","110041889837","999999",37.32738,-79.24867,,"POF","Privately Owned Facility"
"AIR LEE CLEANERS - 21181","VA0000005177000206","VA","110039136084","812320",37.295647,-80.001886,,"NON","Non-Government"
"AIR WAY RESOURCES LLC","VA0000005119500037","VA","110007319151","212111 212114",36.9003,-82.7892,,"NON","Non-Government"
"AIR-LEE CLEANERS - 21407","VA0000005177000260","VA","110005231098","812320",37.314855,-79.95377,,"NON","Non-Government"
"AIRCRAFT SERVICES INTERNATIONAL INC.","VA0000005110700064","VA","110006849848","424720",38.95269,-77.44086,,"NON","Non-Government"
"AIRDYE SOLUTIONS LLC","VA0000005116500106","VA","110000499595","323111",38.391166,-78.900164,,"NON","Non-Government"
"AIRE SHANNON, INC.","VA0000005117700016","VA","110001897332","488119",38.269135,-77.44761,,"POF","Privately Owned Facility"
"AIRGAS CARBONIC","VA0000005167000077","VA","110013670526","221210",37.303611,-77.278056,,"POF","Privately Owned Facility"
"AIRJET INCORPORATED","VA0000005117700096","VA","110064451221","332313",38.24121,-77.43629,,"NON","Non-Government"
"AIRPORT CHEVRON","VA0000005101944006","VA","110037591889","999999",37.336438,-79.191479,,"POF","Privately Owned Facility"
"AIRPORT HYATT HOTEL","VA0000005101300208","VA","110001891668","721110",38.84887,-77.05214,,"POF","Privately Owned Facility"
"AKZO NOBEL COATINGS INC - 30857","VA0000005108900088","VA","110007318820","325510",36.76,-80.0142,,"NON","Non-Government"
"AKZO NOBEL COATINGS INC - ROANOKE","VA0000005177000084","VA","110000342861","325510",37.27057,-79.99075,17932,"NON","Non-Government"
"ALADDIN MANUFACTURING","VA0000005103500012","VA","110025316799","313210",36.767297,-80.725372,,"NON","Non-Government"
"ALADDIN MANUFACTURING CORPORATION","VA0000005116300001","VA","110002083922","314110",37.636093,-79.446451,,"NON","Non-Government"
"ALAN KOOGLER - FARM","VA0000005116500208","VA","110020683508","112310",38.40784,-79.0902,,"NON","Non-Government"
"ALAN P KOOGLER - FARM","VA0000005116500211","VA","110020683580","112310",38.4051466,-78.8807227,,"POF","Privately Owned Facility"
"ALBAN AUTOMOTIVE","VA0000005105900880","VA","110005231132","811121",38.73762,-77.19382,,"NON","Non-Government"
"ALBANO CLEANERS - KEMPS RIVER","VA0000005181000079","VA","110001899991","812320",36.802704,-76.17555,,"NON","Non-Government"
"ALBANO CLEANERS - LEVEL GREEN","VA0000005181000077","VA","110001899973","812320",36.81157,-76.20499,,"NON","Non-Government"
"ALBANO CLEANERS - PLEASURE HOUSE RD","VA0000005181000078","VA","110001899982","812320",36.895975,-76.140208,,"NON","Non-Government"
"ALBANO CLEANERS - WASHINGTON ST","VA0000005180000116","VA","110001901960","812320",36.72773,-76.58191,,"NON","Non-Government"
"ALBANO CLEANERS INC - AIRLINE BLVD","VA0000005174000095","VA","110001899893","812320",36.80938,-76.36831,,"NON","Non-Government"
"ALBANO CLEANERS INC - BATTLEFIELD BLVD","VA0000005155000178","VA","110001899740","812320",36.71524,-76.2387,,"NON","Non-Government"
"ALBANO CLEANERS INC - COLLEY AVE","VA0000005171000240","VA","110001899848","812320",36.88276,-76.29484,,"NON","Non-Government"
"ALBANO CLEANERS INC - GEORGE WASHINGTON","VA0000005155000177","VA","110001899731","812320",36.781533,-76.335652,,"NON","Non-Government"
"ALBANO CLEANERS INC - HAMILTON AVE","VA0000005174000094","VA","110001899884","812320",36.83,-76.33913,,"NON","Non-Government"
"ALBANO CLEANERS INC - LITTLE CREEK","VA0000005171000237","VA","110001899811","812320",36.91529,-76.2384,,"NON","Non-Government"
"ALBANO CLEANERS INC - LITTLE CREEK RD","VA0000005171000242","VA","110071724084","812320",36.91613,-76.29432,,"NON","Non-Government"
"ALBANO CLEANERS INC - SEWELLS POINT","VA0000005171000238","VA","110001899820","812320",36.890453,-76.238543,,"NON","Non-Government"
"ALBANO CLEANERS INC - THOMAS CORNER","VA0000005171000239","VA","110005230614","812320",36.855035,-76.194628,,"NON","Non-Government"
"ALBANO CLEANERS INC - W 22ND ST","VA0000005171000192","VA","110001899401","812320",36.86886,-76.28733,,"NON","Non-Government"
"ALBANO CLEANERS INC- LASKIN RD","VA0000005181000072","VA","110001899928","812320",36.85878,-75.98133,,"NON","Non-Government"
"ALBANO CLEANERS INCORPORATED - 3025 SHORE DRIVE","VA0000005181000084","VA","110071499166","812320",36.91017,-76.07819,,"NON","Non-Government"
"ALBANO CLEANERS INCORPORATED - GREAT NECK","VA0000005181000074","VA","110001899946","812320",36.870335,-76.040988,,"NON","Non-Government"
"ALBANO CLEANERS INCORPORATED - S FIRST COLONIAL","VA0000005181000026","VA","110071723342","812320",36.8387,-76.02175,,"NON","Non-Government"
"ALBANO CLEANERS INCORPORATED - VA BEACH BLVD","VA0000005181000073","VA","110001899937","812320",36.84356,-76.077,,"NON","Non-Government"
"ALBANO CLEANERS INCORPORATED- SOUTH PLAZA TR","VA0000005181000076","VA","110001899964","812320",36.83002,-76.09453,,"NON","Non-Government"
"ALBANO CLEANERS INCORPORATED-PRINCESS ANNE RD","VA0000005181000094","VA","110001902031","812320",36.81526,-76.1446,,"NON","Non-Government"
"ALBANY INDUSTRIES","VA0000005164000018","VA","110045483473","337121",36.688101,-80.917198,,"NON","Non-Government"
"ALBEMARLE COUNTY OFFICE BUILDING","VA0000005100300100","VA","110001891212","921190",38.03524,-78.48185,,"CNG","County Government"
"ALBEMARLE HIGH SCHOOL","VA0000005100300044","VA","110001902870","611110",38.07416,-78.49892,,"CNG","County Government"
"ALBERT HARRIS ELEMENTARY SCHOOL","VA0000005169000044","VA","110021450375","611110",36.69176,-79.88702,,"CTG","Municipality"
"ALBERT HILL MIDDLE SCHOOL","VA0000005176000221","VA","110001914395","611110",37.56213,-77.48177,,"CNG","County Government"
"ALCATEL TELECOM CABLE","VA0000005116100233","VA","110038804540","327212",37.354707,-79.959909,,"POF","Privately Owned Facility"
"ALCOA WHEEL PRODUCTS","VA0000005116700076","VA","110000343423","332112",36.901,-82.04986,,"NON","Non-Government"
"ALDIE ELEMENTARY SCHOOL","VA0000005110700013","VA","110020680618","611110",38.97369,-77.64366,,"CNG","County Government"
"ALDRIN ELEMENTARY SCHOOL","VA0000005105900973","VA","110026375214","611110",38.98027,-77.33898,,"CNG","County Government"
"ALEXANDRIA APARTMENTS","VA0000005151044003","VA","110001906849","531110",38.84172,-77.0649,,"POF","Privately Owned Facility"
"ALEXANDRIA BOARD AREA OFFICE 1","VA0000005105900230","VA","110001897804","611110",38.76847,-77.09396,,"CNG","County Government"
"ALEXANDRIA BUICK PONTIAC GMC MITSUBISHI","VA0000005151000386","VA","110033142524","811111",38.80749,-77.12861,,"NON","Non-Government"
"ALEXANDRIA COATINGS, LLC","VA0000005105900559","VA","110000340809","332813",38.7025,-77.222778,,"NON","Non-Government"
"ALEXANDRIA KNOLLS","VA0000005151000137","VA","110001900033","531110",38.80786,-77.13812,,"POF","Privately Owned Facility"
"ALEXANDRIA RENEW ENTERPRISES WWTP","VA0000005151000121","VA","110020668981","221320",38.802577,-77.082363,,"CTG","Municipality"
"ALFA LAVAL INCORPORATED - HENRICO","VA0000005108700543","VA","110020670674","332410",37.52776,-77.34042,,"NON","Non-Government"
"ALFA LAVAL THERMAL INC","VA0000005108500083","VA","110001909793","811310",37.70417,-77.43676,,"NON","Non-Government"
"ALIGNED DATA CENTERS IAD03","VA0000005110774247","VA","110071903163","518210",38.9700316,-77.464002,,"NON","Non-Government"
"ALIGNED ENERGY DATA CENTERS (ASHBURN), LLC","VA0000005110774169","VA","110070604328","541513",39.012595,-77.472859,,"NON","Non-Government"
"ALKEMIX CORPORATION","VA0000005111700068","VA","110038456104","313320",36.75041,-78.10225,,"NON","Non-Government"
"ALL AMERICAN AUTO BODY","VA0000005105900986","VA","110033142490","811111",38.7449686,-77.23564,,"NON","Non-Government"
"ALL AMERICAN BOTTLERS","VA0000005177044004","VA","110001906876","327213",37.3025065,-80.1143247,,"POF","Privately Owned Facility"
"ALL CONSTRUCTION INC","VA0000005109181639","VA","110045944127","212312",38.44777,-79.68196,,"NON","Non-Government"
"ALL PETS CREMATION CENTER","VA0000005184000141","VA","110040513799","812220",39.19152,-78.18715,,"NON","Non-Government"
"ALL RITE CLEANERS INCORPORATED","VA0000005177000262","VA","110020681788","812320",37.30777,-79.94693,,"NON","Non-Government"
"ALL SAINTS ELEMENTARY SCHOOL","VA0000005115300027","VA","110007322245","611110",38.754191,-77.484076,,"NON","Non-Government"
"ALL TUNE & LUBE","VA0000005108744005","VA","110043179440","999999",37.66084,-77.61253,,"POF","Privately Owned Facility"
"ALLAN MYERS MATERIAL","VA0000005110700139","VA","110020677515","324121",39.07496,-77.52663,,"NON","Non-Government"
"ALLAN MYERS MATERIAL","VA0000005117900001","VA","110001888431","324121",38.27,-77.43,,"NON","Non-Government"
"ALLAN MYERS MATERIALS - ROCKVILLE","VA0000005107500018","VA","110002083879","212313 212319 324121",37.69793,-77.6594,,"NON","Non-Government"
"ALLAN MYERS VA DBA ALLAN MYERS MATERIALS - PORTABLE 52656","VA0000005108552656","VA","110070083499","324121",37.69793,-77.6594,,"NON","Non-Government"
"ALLAN MYERS VA INC  I-66 ASPHALT PLANT - MANASSAS","VA0000005115374148","VA","110071073181","324121",38.7938977,-77.530962,,"NON","Non-Government"
"ALLAN MYERS VA INC - CHESAPEAKE ASPHALT","VA0000005155061730","VA","110070049951","324121",36.74738,-76.29063,,"NON","Non-Government"
"ALLAN MYERS VA INC - NEW KENT","VA0000005112700010","VA","110040977306","324121",37.51132,-76.85819,,"NON","Non-Government"
"ALLAN MYERS VA INC DBA ALLAN MYERS MATERIALS","VA0000005170000089","VA","110001889029","324121",37.10536,-76.49872,,"NON","Non-Government"
"ALLAN MYERS VA INC DBA ALLAN MYERS MATERIALS","VA0000005117500061","VA","110054884924","324121",36.9236757,-76.8624013,,"NON","Non-Government"
"ALLAN MYERS VA INC DBA ALLAN MYERS MTLS - POWHATAN","VA0000005114500022","VA","110043704505","324121",37.52,-77.78,,"NON","Non-Government"
"ALLAN MYERS VA INC DBA ALLAN MYERS MTRLS - HALIFAX RD","VA0000005173052527","VA","110070005246","324121",37.18772,-77.42182,,"NON","Non-Government"
"ALLEGHANY ASPHALT & CONSTRUCTION INC","VA0000005100500047","VA","110064319811","324121",37.80558,-80.04149,,"NON","Non-Government"
"ALLEGHANY ASPHALT AND CONSTRUCTION INC","VA0000005102321777","VA","110069998899","212312 212319",37.4576996,-80.0293755,,"NON","Non-Government"
"ALLEGHANY COUNTY SCHOOL BOARD OFFICE","VA0000005100500033","VA","110006850559","611110",37.78915,-79.88209,,"POF","Privately Owned Facility"
"ALLEGHANY COUNTY SCHOOLS - CLIFTON MIDDL","VA0000005100500049","VA","110021591115","611699",37.80044,-79.87226,,"POF","Privately Owned Facility"
"ALLEGHANY HIGH SCHOOL","VA0000005100500017","VA","110020678042","611110",37.78717,-79.90803,,"CNG","County Government"
"ALLEGHANY REDI-MIX LLC - COVINGTON","VA0000005100500034","VA","110007344301","327320",37.781765,-79.993231,,"NON","Non-Government"
"ALLEGHANY REGIONAL HOSPITAL","VA0000005100500030","VA","110020682885","622110",37.790595,-79.884249,,"NON","Non-Government"
"ALLEGHENY EXPORTS LLC","VA0000005118781720","VA","110069427365","561710",38.98561,-78.18131,,"NON","Non-Government"
"ALLEGHENY WAREHOUSE COMPANY - QFF 52706","VA0000005176052706","VA","110070226371","561710",37.51253,-77.43606,,"NON","Non-Government"
"ALLEGIANCE HEALTHCARE CUSTOM STERILE DIVISION","VA0000005110700104","VA","110020676589","339113",38.98373,-77.42554,,"NON","Non-Government"
"ALLENDALE PROPERTIES","VA0000005169000015","VA","110007317037","321918",36.69019,-79.88115,,"NON","Non-Government"
"ALLIANCE FERTILIZER CORPORATION","VA0000005108500013","VA","110001905403","325314",37.613207,-77.333331,,"NON","Non-Government"
"ALLIANT TECHSYSTEMS OPERATIONS LLC","VA0000005112100082","VA","110064435936","325920",37.12257,-80.56499,,"NON","Non-Government"
"ALLIANT TECHSYSTEMS OPERATIONS LLC (MCA)","VA0000005112121713","VA","110071319281","332992",37.1071583,-80.5618885,,"NON","Non-Government"
"ALLIED ANIMAL HOSPITAL","VA0000005108700149","VA","110001907214","541940",37.6106,-77.5194,,"NON","Non-Government"
"ALLIED COAL CO INC","VA0000005119511637","VA","110039139768","212111",36.93572,-82.6178,,"NON","Non-Government"
"ALLIED COAL COMPANY","VA0000005119511270","VA","110007327507","212111 212114",36.9572,-82.7714,,"NON","Non-Government"
"ALLIED CONCRETE - CULPEPER","VA0000005166041026","VA","110055563894","327331",38.41851,-78.88854,,"NON","Non-Government"
"ALLIED CONCRETE - LOUISA READY MIX CONCRETE","VA0000005110900029","VA","110001887487","327320",37.9662,-77.90098,,"NON","Non-Government"
"ALLIED CONCRETE CO - PORTABLE 81688","VA0000005166081688","VA","110055612430","327320",38.41851,-78.88854,,"NON","Non-Government"
"ALLIED CONCRETE PODUCTS, L.L.C. - RICHMOND BLOCK","VA0000005108700015","VA","110020670380","327331",37.50538,-77.38306,,"NON","Non-Government"
"ALLIED CONCRETE PRODUCTS LLC - ARVONIA","VA0000005102900005","VA","110027235445","327992 327999",37.705263,-78.327239,,"NON","Non-Government"
"ALLIED CONCRETE PRODUCTS LLC - ARVONIA -","VA0000005102932066","VA","110027235445","327992 327999",37.705263,-78.327239,,"POF","Privately Owned Facility"
"ALLIED CONCRETE PRODUCTS LLC - ARVONIA - 32072","VA0000005102932072","VA","110027235445","327992 327999",37.705263,-78.327239,,"NON","Non-Government"
"ALLIED CONCRETE PRODUCTS LLC - ARVONIA - 32073","VA0000005102932073","VA","110027235445","327992 327999",37.705263,-78.327239,,"NON","Non-Government"
"ALLIED MAINTENANCE CORPORATION","VA0000005101300199","VA","110007319721","485111",38.8489,-77.0464,,"NON","Non-Government"
"ALLIED SYSTEMS/ANNANDALE MILLWORK","VA0000005106900134","VA","110064238392","321911",39.14329,-78.13253,,"NON","Non-Government"
"ALLIED TERMINALS, INC. - SHUTDOWN","VA0000005155000132","VA","110000881966","424710 493190",36.793,-76.28704,,"NON","Non-Government"
"ALLIED WASTE SERVICES OF LYNCHBURG","VA0000005103100185","VA","110020677427","562111",37.38015,-79.10881,,"NON","Non-Government"
"ALLIED WOOD PRODUCTS INC","VA0000005106900091","VA","110002030800","321912",39.23409,-78.11354,,"NON","Non-Government"
"ALLOY POLYMERS","VA0000005176000314","VA","110004716013","326199",37.48054,-77.42984,,"NON","Non-Government"
"ALLSTATE ENVIRONMENTAL SERVICES - PORTABLE 61124","VA0000005170061124","VA","110001893693","562219",37.02945,-76.46572,,"NON","Non-Government"
"ALLTECH, INC","VA0000005101344002","VA","110007326161","561210",38.8783374,-77.1007034,,"POF","Privately Owned Facility"
"ALMOL INC. / CARTER'S SPEEDY MART","VA00000051143G0007","VA","110037605918","999999",36.64923,-79.31282,,"POF","Privately Owned Facility"
"ALPHA TECHNOLOGIES INC","VA0000005114300141","VA","110001905886","333248 333249",36.6137,-79.58058,,"NON","Non-Government"
"ALSCO","VA0000005151000128","VA","110020668482","812331",38.80427,-77.13543,,"NON","Non-Government"
"ALSCO","VA0000005181000060","VA","110001890749","812331",36.88741,-76.17629,,"NON","Non-Government"
"ALSCO - RICHMOND","VA0000005104100489","VA","110015780181","812331",37.29911,-77.37786,,"NON","Non-Government"
"ALTAVISTA APPAREL","VA0000005103100186","VA","110001908712","315240 315250",37.12964,-79.28574,,"NON","Non-Government"
"ALTAVISTA HIGH SCHOOL","VA0000005103100124","VA","110001903316","611110",37.109809,-79.294049,,"CNG","County Government"
"ALTAVISTA MOTORS","VA0000005114344001","VA","110037593182","999999",37.15223,-79.22795,,"POF","Privately Owned Facility"
"ALTAVISTA MOTORS INC.","VA0000005103144001","VA","110007326189","441110",37.1413978,-79.2374427,,"POF","Privately Owned Facility"
"ALTAVISTA YMCA","VA0000005103100188","VA","110001908730","813410",37.111663,-79.287588,,"POF","Privately Owned Facility"
"ALTEC INDUSTRIES, INC.","VA0000005102300044","VA","110020682634","336211",37.43337,-79.90743,2,"NON","Non-Government"
"ALTERNATIVE ENERGY DEVELOPERS INC","VA0000005170000123","VA","110002033246","221112",37.24779,-76.66118,,"NON","Non-Government"
"ALTRIA CLIENT SERVICES - HEADQUARTERS ANNEX","VA0000005108700490","VA","110020668366","551112",37.601723,-77.514893,,"NON","Non-Government"
"ALTRIA COMPOUNDS LLC","VA0000005176000515","VA","110055530910","312230 325199",37.472043,-77.43608,,"NON","Non-Government"
"ALTRIA HEADQUARTERS","VA0000005108700045","VA","110001894380","312230",37.60176,-77.5149,,"NON","Non-Government"
"AM PHIL PRODUCTS INC","VA0000005107700065","VA","110020684874","336390",36.66853,-80.91914,,"NON","Non-Government"
"AMADAS INDUSTRIES - HOLLAND ROAD","VA0000005180000088","VA","110001893498","333111",36.7306,-76.60799,,"NON","Non-Government"
"AMADAS INDUSTRIES - KENYON ROAD","VA0000005180000120","VA","110001909150","333111",36.73,-76.65582,,"NON","Non-Government"
"AMANDA'S REDI MIX LLC PLANT #4","VA0000005116100278","VA","110056438788","327320",37.2853328,-80.0552407,,"NON","Non-Government"
"AMANDA'S REDI-MIX INC","VA0000005158021518","VA","110040757838","327320",37.78177,-79.993225,,"NON","Non-Government"
"AMANDAS REDI MIX LLC - PLANT #2","VA0000005153000057","VA","110044301074","327320",37.746977,-79.338922,,"NON","Non-Government"
"AMAZON DATA SERVICES (IAD-130, IAD-131, IAD-313, AND DCA-072)","VA0000005115374171","VA","110070890991","518210",38.76004,-77.51704,,"NON","Non-Government"
"AMAZON DATA SERVICES - DCA-51","VA0000005106174198","VA","110070890950","518210",38.73956,-77.82534,,"NON","Non-Government"
"AMAZON DATA SERVICES IAD-156, IAD-157, IAD-158, IAD-159, AND IAD-327","VA0000005110774250","VA","110071949274","518210",38.899353,-77.5187056,,"NON","Non-Government"
"AMAZON DATA SERVICES IAD-215","VA0000005110774252","VA","110072102042","518210",39.0419474,-77.4781301,,"NON","Non-Government"
"AMAZON DATA SERVICES INC - DCA-060","VA0000005104774270","VA","110072142035","518210",38.443462,-77.877368,,"NON","Non-Government"
"AMAZON DATA SERVICES INC - DCA-64","VA0000005105974272","VA","110072102029","518210",38.740884,-77.187546,,"NON","Non-Government"
"AMAZON DATA SERVICES INC - IAD-104/105/106","VA0000005168374240","VA","110071767641","518210",38.750474,-77.522771,,"NON","Non-Government"
"AMAZON DATA SERVICES INC - IAD-134/135/136","VA0000005105974239","VA","110071369117","518210",38.906396,-77.454373,,"NON","Non-Government"
"AMAZON DATA SERVICES INC - IAD-163/164/174","VA0000005110774227","VA","110071435094","518210",39.03445,-77.42896,,"NON","Non-Government"
"AMAZON DATA SERVICES INC - IAD-165/166/167/168/613","VA0000005105974273","VA","110071667303","518210",38.923195,-77.421171,,"NON","Non-Government"
"AMAZON DATA SERVICES INC - IAD-500/501","VA0000005105974300","VA","110072172712","518210",38.93496,-77.42572,,"NON","Non-Government"
"AMAZON DATA SERVICES INC IAD-120/121/122","VA0000005110774205","VA","110071219847","518210",38.9700316,-77.464002,,"NON","Non-Government"
"AMAZON DATA SERVICES INC IAD-161/162","VA0000005110774214","VA","110071251359","518210",39.0419474,-77.4781301,,"NON","Non-Government"
"AMAZON DATA SERVICES INC IAD-169/179","VA0000005110774244","VA","110072129252","518210",39.015004,-77.452282,,"NON","Non-Government"
"AMAZON DATA SERVICES INC IAD-195/196/197/198","VA0000005115374277","VA","110071894236","518210",38.805586,-77.622845,,"NON","Non-Government"
"AMAZON DATA SERVICES INC IAD-210/211","VA0000005115374278","VA","110072072048","518210",38.772549,-77.542741,,"NON","Non-Government"
"AMAZON DATA SERVICES INC IAD-667, IAD-668, IAD-669, IAD-670, AND IAD-671","VA0000005110774301","VA","110072129324","518210",39.0643984,-77.603768,,"NON","Non-Government"
"AMAZON DATA SERVICES INC. IAD450 COSNER TECH CAMPUS","VA0000005117774288","VA","110072000328","518210",38.20335,-77.46941,,"NON","Non-Government"
"AMAZON DATA SERVICES INC., IAD 550 LOUISA REB","VA0000005110974299","VA","110072129225","518210",38.049914,-77.813401,,"NON","Non-Government"
"AMAZON DATA SERVICES, INC.","VA0000005110774181","VA","110070791106","518210",38.9700316,-77.464002,,"NON","Non-Government"
"AMAZON DATA SERVICES, INC.  IAD-14 IAD-52 IAD-59","VA0000005115300914","VA","110045437559","518210",38.7938977,-77.530962,,"NON","Non-Government"
"AMAZON DATA SERVICES, INC.  IAD-90 IAD-91 IAD-92","VA0000005110774121","VA","110070107024","518210",38.9700316,-77.464002,,"NON","Non-Government"
"AMAZON DATA SERVICES, INC. IAD 50 IAD 60 IAD-71  IAD-78 IAD-79 IAD-80","VA0000005110701047","VA","110056298340","518210",39.02697,-77.4591,,"NON","Non-Government"
"AMAZON DATA SERVICES, INC. IAD-1 IAD-9","VA0000005105900846","VA","110020047894","518210",38.897187,-77.4438744,,"NON","Non-Government"
"AMAZON DATA SERVICES, INC. IAD-10 IAD-32 IAD-98 IAD-99 IAD-118 IAD-119 IAD-129","VA0000005110701023","VA","110043179459","518210",39.02072,-77.42902,,"NON","Non-Government"
"AMAZON DATA SERVICES, INC. IAD-100 IAD-101 IAD-102 IAD-103","VA0000005168374129","VA","110070832692","518210",38.73892,-77.50251,,"NON","Non-Government"
"AMAZON DATA SERVICES, INC. IAD-114 IAD-115","VA0000005110774150","VA","110070361557","518210",39.037742,-77.449324,,"NON","Non-Government"
"AMAZON DATA SERVICES, INC. IAD-116 IAD-117","VA0000005110774170","VA","110070616738","518210",39.02363,-77.41664,,"NON","Non-Government"
"AMAZON DATA SERVICES, INC. IAD-12 IAD-15 IAD-16 IAD-76 IAD-230","VA0000005110701026","VA","110043294262","518210",38.98896,-77.44832,,"NON","Non-Government"
"AMAZON DATA SERVICES, INC. IAD-132 IAD-133","VA0000005115374167","VA","110070693022","518210",38.7938977,-77.530962,,"NON","Non-Government"
"AMAZON DATA SERVICES, INC. IAD-140/141/143","VA0000005110774184","VA","110070824293","518210",38.9700316,-77.464002,,"NON","Non-Government"
"AMAZON DATA SERVICES, INC. IAD-144  IAD-145","VA0000005110774153","VA","110070624552","518210",38.984279,-77.425107,,"NON","Non-Government"
"AMAZON DATA SERVICES, INC. IAD-150 IAD-151 IAD-152","VA0000005110774174","VA","110070624735","518210",38.899353,-77.5187056,,"NON","Non-Government"
"AMAZON DATA SERVICES, INC. IAD-51 IAD-56 IAD-88  IAD-89","VA0000005110701053","VA","110058901568","518210",38.98837,-77.43831,,"NON","Non-Government"
"AMAZON DATA SERVICES, INC. IAD-55 IAD-64 IAD-84","VA0000005115300922","VA","110056292168","518210",38.81733,-77.64686,,"NON","Non-Government"
"AMAZON DATA SERVICES, INC. IAD-57 IAD-58","VA0000005110701054","VA","110058901577","518210",38.9700316,-77.464002,,"NON","Non-Government"
"AMAZON DATA SERVICES, INC. IAD-6 IAD-13 IAD-54","VA0000005110700846","VA","110031223771","518210",39.0035,-77.48506,,"NON","Non-Government"
"AMAZON DATA SERVICES, INC. IAD-61 IAD-63 IAD-65  IAD-86","VA0000005110774080","VA","110067157524","518210",38.91865,-77.49211,,"NON","Non-Government"
"AMAZON DATA SERVICES, INC. IAD-62/68/81/83/93/609/614","VA0000005110774085","VA","110069993200","518210",38.95152,-77.5181,,"NON","Non-Government"
"AMAZON DATA SERVICES, INC. IAD-7 IAD-11 IAD-24","VA0000005115300890","VA","110038456168","518210",38.79058,-77.53953,,"NON","Non-Government"
"AMAZON DATA SERVICES, INC. IAD-73 IAD-74 IAD-602 IAD-193 IAD-194","VA0000005115374081","VA","110067012672","518210",38.7803,-77.55732,,"NON","Non-Government"
"AMAZON DATA SERVICES, INC. IAD-75 IAD-85 IAD-95 IAD-96","VA0000005115374115","VA","110070106480","518210",38.776822,-77.536673,,"NON","Non-Government"
"AMAZON DCA-50","VA0000005104774190","VA","110070666736","518210",38.4593,-77.85042,,"NON","Non-Government"
"AMAZON DCA-54","VA0000005105974207","VA","110070832844","518210",38.6993531,-77.1574972,,"NON","Non-Government"
"AMBASSADOR DRYCLEANERS","VA0000005105900646","VA","110007323388","812320",38.839111,-77.426136,,"NON","Non-Government"
"AMBERLEIGH APARTMENTS","VA0000005105900274","VA","110001894326","531110",38.86156,-77.23047,,"POF","Privately Owned Facility"
"AMBROSE BRANCH COAL COMPANY","VA0000005119500118","VA","110038804639","212111 212114",37.0777333,-82.6273989,,"NON","Non-Government"
"AMCOR RIGID PACKAGING","VA0000005119700103","VA","110031470995","326160",36.96663,-81.00734,,"NON","Non-Government"
"AMCOR TOBACCO PACKAGING AMERICAS","VA0000005159000124","VA","110000857617","323111",36.57722,-79.31422,,"NON","Non-Government"
"AMCOR TOBACCO PACKAGING AMERICAS INCORPORATED","VA0000005104100419","VA","110060260293","323111",37.35397,-77.33754,,"NON","Non-Government"
"AMELIA ACADEMY","VA0000005100700007","VA","110001893764","611110",37.334795,-77.980563,,"CNG","County Government"
"AMELIA AD1 LLC","VA0000005100753085","VA","110071540528","112120",37.479,-77.9791,,"NON","Non-Government"
"AMELIA LUMBER COMPANY INCORPORATED","VA0000005100700018","VA","110029527590","321912",37.3356,-77.99244,,"NON","Non-Government"
"AMELIA SPECIAL EDUCATION SCHOOL","VA0000005176000211","VA","110001914359","611110",37.53922,-77.47082,,"CNG","County Government"
"AMELON ELEMENTARY SCHOOL","VA0000005100900011","VA","110001896538","611110",37.47014,-79.11824,,"CNG","County Government"
"AMERESCO STAFFORD LLC - LFGTE FACILITY","VA0000005117900100","VA","110038526155","221112",38.38066,-77.41319,,"NON","Non-Government"
"AMERICA'S FOODS","VA0000005171000179","VA","110001890605","311999",36.84148,-76.20792,,"NON","Non-Government"
"AMERICAN BORATE COMPANY - ELIZABETH RIVER TERMINAL","VA0000005155000259","VA","110038279001","488310",36.78134,-76.29798,,"NON","Non-Government"
"AMERICAN CLEANERS","VA0000005110700136","VA","110001910594","812320",39.10664,-77.56493,,"NON","Non-Government"
"AMERICAN COMBUSTION INDUSTRIES","VA0000005163041038","VA","110038805362","332313",38.30063,-77.4754,,"NON","Non-Government"
"AMERICAN CONCRETE & BLOCK CORPORATION","VA0000005110500065","VA","110001905948","327320 327331",36.76791,-83.01821,,"NON","Non-Government"
"AMERICAN CONCRETE GROUP LLC","VA0000005110511749","VA","110001905948","327320 327331",36.76791,-83.01821,,"POF","Privately Owned Facility"
"AMERICAN CONCRETE GROUP LLC - 11337P","VA0000005116911337","VA","110017433669","212312 327320",36.6563096,-82.2122194,,"NON","Non-Government"
"AMERICAN CONCRETE GROUP LLC - BATCH PLAN","VA0000005110500079","VA","110001905948","327320 327331",36.76791,-83.01821,,"POF","Privately Owned Facility"
"AMERICAN CONCRETE SERVICES INC - NORFOLK","VA0000005171000270","VA","110001912048","423320",36.84292,-76.24219,,"NON","Non-Government"
"AMERICAN CONTRACT SYSTEMS INC","VA0000005155000242","VA","110033647490","339113",36.78047,-76.23833,,"NON","Non-Government"
"AMERICAN CRUSHERS AND SCREENS LLC - PORTABLE 61677","VA0000005171061677","VA","110056293826","327320",36.84323,-76.24339,,"NON","Non-Government"
"AMERICAN ELECTRIC POWER GLEN LYN","VA0000005107100002","VA","110000585518","221112",37.37039,-80.8616,,"NON","Non-Government"
"AMERICAN ELECTRIC POWER-CLINCH RIVER PLANT","VA0000005116700003","VA","110000585581","221112",36.990541,-82.145269,,"NON","Non-Government"
"AMERICAN FURNITURE CO","VA0000005108900063","VA","110008180360","337122",36.69297,-79.86859,,"NON","Non-Government"
"AMERICAN GFM CORPORATION","VA0000005155000093","VA","110001902219","333517",36.78075,-76.36441,2626,"NON","Non-Government"
"AMERICAN HARDWOOD INDUSTRIES LLC","VA0000005182000005","VA","110001886399","321918",38.07538,-78.87769,,"NON","Non-Government"
"AMERICAN HOFMANN CORP","VA0000005168000166","VA","110001895815","333319",37.37131,-79.15992,,"POF","Privately Owned Facility"
"AMERICAN INKS & COATINGS","VA0000005176000374","VA","110001892514","325910",37.50788,-77.49653,,"NON","Non-Government"
"AMERICAN LIMESTONE COMPANY INCORPORATED/ABINGDON Q","VA0000005119111180","VA","110056279922","212312 327320",36.693863,-81.978749,,"NON","Non-Government"
"AMERICAN MEDICAL LABORATORY FAIRFAX","VA0000005160000369","VA","110001892284","621511",38.854437,-77.328177,,"NON","Non-Government"
"AMERICAN OF MARTINSVILLE INC - REDD LEVEL","VA0000005108900064","VA","110000867973","337122",36.652764,-79.866254,,"NON","Non-Government"
"AMERICAN PARTS COMPANY INC","VA0000005176000398","VA","110001897421","333994",37.54686,-77.46299,,"NON","Non-Government"
"AMERICAN PHOENIX INC","VA0000005159000169","VA","110046273260","424690",36.543496,-79.392615,20,"NON","Non-Government"
"AMERICAN PRESS INCORPORATED","VA0000005113700021","VA","110001891141","323111",38.138326,-78.185006,,"NON","Non-Government"
"AMERICAN REAL ESTATE PARTNERS (AREP)","VA0000005110700134","VA","110061853739","517810 517919",39.00543,-77.44346,,"NON","Non-Government"
"AMERICAN SERVICE BODY SHOP","VA0000005101300814","VA","110027235150","811121",38.87786,-77.11086,,"NON","Non-Government"
"AMERICAN STANDARD BUILDING SYSTEMS INC","VA0000005169000047","VA","110001895744","321992",36.70286,-79.88513,,"NON","Non-Government"
"AMERICAN STONE INCORPORATED","VA0000005105900833","VA","110012626907","327320",38.7345325,-77.1978421,,"NON","Non-Government"
"AMERICAN STRIPPING COMPANY","VA0000005171000272","VA","110064231013","238320",36.83871,-76.20793,,"NON","Non-Government"
"AMERICAN TECHNOLOGY INDUSTRIES, LTD.","VA0000005155000168","VA","110071724176","332812",36.76276,-76.23382,,"NON","Non-Government"
"AMERICAN TOWER CO (ATC)","VA0000005107900013","VA","110010417628","517110 517111",38.3414,-78.4769,,"NON","Non-Government"
"AMERICAN TOWER CO (ATC)","VA0000005100300109","VA","110007345462","517110 517111",38.1599975,-78.4991279,,"NON","Non-Government"
"AMERICAN TOWER CORP CORBIN","VA0000005103300036","VA","110020682554","517110",38.2,-77.384444,,"POF","Privately Owned Facility"
"AMERICAN TOWER CORPORATION","VA0000005104700071","VA","110058910969","517110",38.302022,-78.005856,,"NON","Non-Government"
"AMERICAN TRUSS & PANEL COMPANY LLC","VA0000005119100190","VA","110018851848","321214 321215",36.71256,-81.96403,,"NON","Non-Government"
"AMERICAN TYPE CULTURE COLLECTION","VA0000005115374346","VA","110005290434","541714",38.75308,-77.51787,,"NON","Non-Government"
"AMERICAN VELVET CO","VA0000005113500027","VA","110001887575","313210",37.07642,-78.00184,,"NON","Non-Government"
"AMERICAN WASTE INDUSTRIES, INCORPORATED","VA0000005171000219","VA","110020681715","221320",36.83328,-76.27232,,"NON","Non-Government"
"AMERICAN WATER ENTERPRISES INCORPORATED","VA0000005105901086","VA","110043515773","221310",38.690395,-77.147719,,"NON","Non-Government"
"AMERICAN WATER O AND M INCORPORATED","VA0000005103300045","VA","110038045308","221320",38.1036,-77.279369,,"POF","Privately Owned Facility"
"AMERICAN WOOD FIBERS","VA0000005117300119","VA","110038045273","321920",36.812205,-81.648459,,"NON","Non-Government"
"AMERICAN WOOD FLOORING PRODUCTS INC","VA0000005116700086","VA","110017624310","321918",36.902451,-82.063356,,"NON","Non-Government"
"AMERICAN WOODMARK CORP","VA0000005104300008","VA","110001886763","337110",39.146307,-77.982802,,"NON","Non-Government"
"AMERICAN WOODMARK ORANGE DIMENSION PLANT","VA0000005113700020","VA","110001887593","337110",38.25164,-78.11126,,"NON","Non-Government"
"AMERICLEAN DRYCLEANING CENTERS OF VIRGINIA LLC","VA0000005183000043","VA","110040755233","812320",37.34603,-76.75903,,"NON","Non-Government"
"AMERIGAS PROPANE","VA0000005111700035","VA","110007321004","424710",36.7978,-78.4894,,"NON","Non-Government"
"AMERIMARK","VA0000005168000150","VA","110000343762","326113",37.36969,-79.20503,,"NON","Non-Government"
"AMES CLEANERS & FORMALS INC","VA0000005165000021","VA","110001899385","812320",37.02247,-76.31969,,"NON","Non-Government"
"AMF BAKERY SYSTEMS","VA0000005108700251","VA","110007344490","333294",37.58382,-77.47307,,"POF","Privately Owned Facility"
"AMF REECE","VA0000005108500071","VA","110005247704","333248 333249",37.62128,-77.36591,,"NON","Non-Government"
"AMHERST CO HIGH SCHOOL","VA0000005100900009","VA","110001896510","611110",37.56938,-79.05823,,"CNG","County Government"
"AMHERST COUNTY LANDFILL","VA0000005100921684","VA","110060771865","562212",37.47626,-79.03557,,"CNG","County Government"
"AMHERST MIDDLE SCHOOL","VA0000005100900004","VA","110064320168","611110",37.56993,-79.03276,,"CNG","County Government"
"AMOCO OIL CO  BEDFORD","VA0000005101900026","VA","110001891258","424710",37.33888,-79.53536,,"NON","Non-Government"
"AMPRO PRODUCTS INC","VA0000005174000120","VA","110044320053","999999",36.815295,-76.316795,,"POF","Privately Owned Facility"
"AMRIZE CEMENT INC","VA0000005108153178","VA","110072102066","324199",36.54534,-77.527,,"NON","Non-Government"
"AMRIZE MID ATLANTIC INC - HICKORY HILL PLANT","VA0000005107300036","VA","110024827044","212321",37.45864,-76.60244,,"NON","Non-Government"
"AMRIZE MID ATLANTIC INC - PORTABLE 52923","VA0000005108552923","VA","110071073157","327320",37.611647,-77.4361075,,"NON","Non-Government"
"AMRIZE MID ATLANTIC INC DBA PATRIOT READY MIX - PORTABLE 21602","VA0000005111721602","VA","110070005244","327320",36.696103,-78.376053,,"NON","Non-Government"
"AMRIZE MID ATLANTIC INC.","VA0000005106981748","VA","110070063993","327320",37.79876,-77.46562,,"NON","Non-Government"
"AMRIZE MID-ATLANTIC INC  - FRONT ROYAL","VA0000005118700035","VA","110002032746","327320",38.97,-78.1836,,"NON","Non-Government"
"AMRIZE MID-ATLANTIC INC - HICKORY HILL PLANT","VA0000005110152542","VA","110069429274","212321",37.690449,-77.18026,,"NON","Non-Government"
"AMRIZE MID-ATLANTIC INC - MATTAPONI SAND AND GRAVEL PLANT","VA0000005110100029","VA","110012148577","212321",37.904448,-77.236811,,"NON","Non-Government"
"AMRIZE MID-ATLANTIC INC - STEPHENS CITY","VA0000005106900098","VA","110007026832","327320",39.087635,-78.226256,,"NON","Non-Government"
"AMRIZE MID-ATLANTIC, INC","VA0000005115300071","VA","110002030784","327320",38.797163,-77.538194,0,"NON","Non-Government"
"AMRIZE MID-ATLANTIC, INC - CHANTILLY","VA0000005110701045","VA","110060258322","327320",38.91918,-77.48731,2,"NON","Non-Government"
"AMRIZE MID-ATLANTIC, INC.","VA0000005105900756","VA","110002033139","327320",38.734772,-77.18802,,"NON","Non-Government"
"AMRIZE MID-ATLANTIC, INC.","VA0000005117900012","VA","110001891196","327320",38.33619,-77.48341,,"NON","Non-Government"
"AMRIZE MID-ATLANTIC, INC.","VA0000005117700098","VA","110033647285","212321",38.23848,-77.38739,,"NON","Non-Government"
"AMSTED RAIL COMPANY INCORPORATED","VA0000005173000048","VA","110005218576","332991",37.202615,-77.363834,1,"NON","Non-Government"
"AMTHOR INTERNATIONAL","VA0000005114300126","VA","110001895263","336211",36.94955,-79.37367,,"NON","Non-Government"
"ANCHOR CONCRETE PRODUCTS","VA0000005115300020","VA","110002443464","327331",38.793949,-77.598005,,"NON","Non-Government"
"ANCHOR MOBILE CONCRETE","VA0000005155000226","VA","110020680985","212321",36.81951,-76.25752,,"NON","Non-Government"
"ANDALE CONSTRUCTION INC - PORTABLE 61727","VA0000005165061727","VA","110070049972","327320",37.01011,-76.38943,,"NON","Non-Government"
"ANDALE READY MIX CENTRAL INC - PORTABLE 52794","VA0000005108552794","VA","110070604306","327320",37.79773,-77.42402,,"NON","Non-Government"
"ANDALE READY MIX CENTRAL INC - PORTABLE 52795","VA0000005108552795","VA","110070604306","327320",37.79773,-77.42402,,"NON","Non-Government"
"ANDERSON BROTHERS LUMBER COMPANY INC","VA0000005100700003","VA","110015596835","321113",37.334,-77.98876,,"NON","Non-Government"
"ANDIS PALLET COMPANY INCORPORATED","VA0000005119100134","VA","110007318410","321920",36.70865,-81.92877,,"NON","Non-Government"
"ANDREW LEWIS MIDDLE SCHOOL","VA0000005177500031","VA","110001895129","611110",37.28574,-80.05254,,"POF","Privately Owned Facility"
"ANDREWS FARMING CO.","VA0000005164000031","VA","110062744393","337122",36.649172,-80.945743,,"NON","Non-Government"
"ANDREWS ORGANIC CLEANERS","VA0000005105900592","VA","110001898698","812320",38.841993,-77.277029,,"NON","Non-Government"
"ANDROS FOODS NORTH AMERICA","VA0000005117100012","VA","110001888324","311421",38.76659,-78.6205,,"NON","Non-Government"
"ANHEUSER-BUSCH LLC - WILLIAMSBURG BREWERY","VA0000005109500010","VA","110000341684","312120",37.237518,-76.652662,11131,"NON","Non-Government"
"ANIMAL CARE CENTER OF FLOYD","VA0000005106321658","VA","110070560884","541940",36.929788,-80.331375,,"NON","Non-Government"
"ANNANDALE 1HR CLEANERS","VA0000005105900616","VA","110005229706","812320",38.82845,-77.19086,,"NON","Non-Government"
"ANNANDALE HIGH SCHOOL","VA0000005105900117","VA","110001891873","611110",38.82275,-77.20752,,"POF","Privately Owned Facility"
"ANNANDALE TERRACE ELEMENTARY SCHOOL","VA0000005105900178","VA","110001892097","611110",38.82669,-77.20767,,"POF","Privately Owned Facility"
"ANTAEUS CTC TECHNICAL SERVICES INCORPORATED","VA0000005119100139","VA","110012168386","324199 332431",36.620222,-82.122632,,"NON","Non-Government"
"ANTHEM BLUE CROSS & BLUE SHIELD","VA0000005108700555","VA","110012626710","524114",37.58461,-77.49166,,"NON","Non-Government"
"ANTHEM CDC 3","VA0000005166000169","VA","110040513209","518210",38.46082,-78.85467,,"NON","Non-Government"
"ANTHONY POOLS","VA0000005105900379","VA","110002030793","423390",38.74063,-77.19396,,"POF","Privately Owned Facility"
"ANTHONY'S CLEANERS - FRANKLIN STREET","VA0000005165000077","VA","110001899125","812320",37.02648,-76.34773,,"NON","Non-Government"
"ANTHONY'S CLEANERS - NICKERSON BOULEVARD","VA0000005165000076","VA","110001899116","812320",37.05037,-76.31082,,"NON","Non-Government"
"ANTONS CLEANERS","VA0000005151000212","VA","110005219815","812320",38.835994,-77.060854,,"NON","Non-Government"
"APAC  GEORGIA INC","VA0000005116121300","VA","110001909588","327320",37.326502,-79.965604,,"NON","Non-Government"
"APAC - ATLANTIC INCORPORATED - SOUTH BOSTON","VA0000005108300035","VA","110020673421","324121",36.68933,-78.87019,,"NON","Non-Government"
"APAC ATLANTIC INCORPORATED - HANOVER PLANT","VA0000005108552070","VA","110020684071","324121",37.86565,-77.46044,,"NON","Non-Government"
"APAC GA INC  SOUTHERN ROAD BUILDERS","VA0000005108751912","VA","110002372389","327320",37.5067,-77.33,,"NON","Non-Government"
"APAC TENNESSEE INCORPORATED - MEMPHIS DIVISION","VA0000005100932042","VA","110031222905","327320",37.6332917,-79.1008403,,"NON","Non-Government"
"APAC VIRGINIA INC","VA0000005110900039","VA","110020679942","324121",38.079256,-77.907087,,"NON","Non-Government"
"APAC VIRGINIA INC CHESTERFIELD PLANT","VA0000005104100080","VA","110005246153","324121",37.43585,-77.62163,,"NON","Non-Government"
"APAC-ATLANTIC INC VIRGINIA DIVISION - FRONT ROYAL","VA0000005118700005","VA","110020670601","324121",38.951944,-78.186667,,"NON","Non-Government"
"APG LIME CORP KIMBALLTON PLANT 2","VA0000005107100003","VA","110020671450","327410",37.38156,-80.66442,0,"NON","Non-Government"
"APG MID ATLANTIC - RICHMOND","VA0000005104100050","VA","110020684990","423390",37.404762,-77.406735,,"NON","Non-Government"
"APG MID-ATLANTIC - CHESAPEAKE","VA0000005155000031","VA","110071722378","327331",36.78797,-76.29474,,"NON","Non-Government"
"APG MID-ATLANTIC - MILFORD","VA0000005103300032","VA","110001896440","327999",38.01366,-77.37278,0,"NON","Non-Government"
"APG MID-ATLANTIC - ULEXITE PLANT","VA0000005155000095","VA","110001888896","327992",36.79083,-76.28966,,"NON","Non-Government"
"APG MID-ATLANTIC - WINCHESTER","VA0000005106900124","VA","110010407979","327331",39.21892,-78.15442,,"NON","Non-Government"
"APPALACHIA COAL COMPANY, INC.","VA0000005119511399","VA","110007021980","212111 212114",36.9436238,-82.7827958,,"NON","Non-Government"
"APPALACHIAN AGGREGATES - S2-11 SCALPING SCREEN","VA0000005107711843","VA","110020582289","212312 212313 212319",36.581165,-81.308136,,"NON","Non-Government"
"APPALACHIAN AGGREGATES LLC","VA0000005118500005","VA","110007030612","212312",37.0872,-81.7117,,"NON","Non-Government"
"APPALACHIAN AGGREGATES LLC","VA0000005118511288","VA","110043179477","212312",37.23659,-81.31882,,"NON","Non-Government"
"APPALACHIAN AGGREGATES LLC - CASTLEWOOD PLANT","VA0000005116700025","VA","110007030079","212312",36.866111,-82.290278,,"NON","Non-Government"
"APPALACHIAN AGGREGATES LLC - CASTLEWOOD RAILROAD SIDING","VA0000005116700007","VA","110007030060","327992",36.8614307,-82.2717544,,"NON","Non-Government"
"APPALACHIAN AGGREGATES LLC - DICKENSONVILLE PLANT","VA0000005116711507","VA","110023153807","212312",36.840534,-82.218161,,"NON","Non-Government"
"APPALACHIAN AGGREGATES LLC - GLADE STONE PLANT","VA0000005119111405","VA","110031470986","212319",36.74957,-81.78385,,"NON","Non-Government"
"APPALACHIAN AGGREGATES LLC - GLADE WASH PLANT","VA0000005119111511","VA","110031257672","212319",36.7532515,-81.7679039,,"NON","Non-Government"
"APPALACHIAN AGGREGATES LLC - MOUTH OF WILSON PLANT","VA0000005107700047","VA","110007027412","212313",36.5833,-81.3086,,"NON","Non-Government"
"APPALACHIAN AGGREGATES LLC - MOUTH OF WILSON PORTABLE CRUSHER","VA0000005107711793","VA","110020582289","212312 212313 212319",36.581165,-81.308136,,"NON","Non-Government"
"APPALACHIAN AGGREGATES LLC - MOUTH OF WILSON PORTABLE SCREEN","VA0000005107711489","VA","110020582289","212312 212313 212319",36.581165,-81.308136,,"NON","Non-Government"
"APPALACHIAN AGGREGATES LLC - PORTABLE CRUSHER","VA0000005119111490","VA","110020582298","212312",36.74957,-81.78385,,"NON","Non-Government"
"APPALACHIAN AGGREGATES LLC - RURAL RETREAT QUARRY","VA0000005119700057","VA","110020677141","212312",36.9269,-81.2739,,"NON","Non-Government"
"APPALACHIAN AGGREGATES LLC - SALTVILLE QUARRY","VA0000005117300084","VA","110007027378","212312",36.8756,-81.6778,,"NON","Non-Government"
"APPALACHIAN AGGREGATES LLC BLUEFIELD QUARRY","VA0000005118500149","VA","110007891077","212312",37.23659,-81.31882,,"NON","Non-Government"
"APPALACHIAN AGGREGATES- BC-1 CT100 STACKER- WILSON","VA0000005107711837","VA","110020582289","212312 212313 212319",36.581165,-81.308136,,"NON","Non-Government"
"APPALACHIAN AGGREGATES- BC-2 CT100 STACKER- WILSON","VA0000005107711839","VA","110020582289","212312 212313 212319",36.581165,-81.308136,,"NON","Non-Government"
"APPALACHIAN AGGREGATES- BC-3 CT100 STACKER- WILSON","VA0000005107711840","VA","110020582289","212312 212313 212319",36.581165,-81.308136,,"NON","Non-Government"
"APPALACHIAN AGGREGATES- BC-4 CT100 STACKER- WILSON","VA0000005107711841","VA","110020582289","212312 212313 212319",36.581165,-81.308136,,"NON","Non-Government"
"APPALACHIAN AGGREGATES- LT120 JAW CRUSHER- WILSON","VA0000005107711842","VA","110020582289","212312 212313 212319",36.581165,-81.308136,,"NON","Non-Government"
"APPALACHIAN AGGREGATES- LT300 HP SHORTHEAD- WILSON","VA0000005107711838","VA","110020582289","212312 212313 212319",36.581165,-81.308136,,"NON","Non-Government"
"APPALACHIAN AGGREGATES- LT300HP STANDARD - WILSON","VA0000005107711836","VA","110020582289","212312 212313 212319",36.581165,-81.308136,,"NON","Non-Government"
"APPALACHIAN AGGREGATES- S4-12 SCREEN - WILSON","VA0000005107711844","VA","110020582289","212312 212313 212319",36.581165,-81.308136,,"NON","Non-Government"
"APPALACHIAN CAST PRODUCTS","VA0000005119100178","VA","110020675296","331523",36.7424,-81.903,,"NON","Non-Government"
"APPALACHIAN CREMATIONS LLC","VA0000005102711892","VA","110072155884","812220",37.3474156,-82.2032218,,"NON","Non-Government"
"APPALACHIAN ENERGY INC","VA0000005102711708","VA","110043702749","486210",37.280311,-81.997653,,"NON","Non-Government"
"APPALACHIAN MILLWORKS AND CABINETRY LLC","VA0000005118511797","VA","110070050176","321918",37.0947,-81.79941,,"NON","Non-Government"
"APPALACHIAN MILLWORKS INC.","VA0000005119100184","VA","110006175851","321999",36.654088,-81.9550695,,"NON","Non-Government"
"APPALACHIAN MOTOR REPAIR INCORPORATED","VA0000005118500123","VA","110001895566","811310",37.249785,-81.28916,,"NON","Non-Government"
"APPALACHIAN OIL COMPANY/# 38","VA0000005119100114","VA","110001902674","424710",36.70315,-82.00095,,"NON","Non-Government"
"APPALACHIAN PLASTICS INCORPORATED","VA0000005119100140","VA","110000343557","326199",36.77297,-81.778,41930,"NON","Non-Government"
"APPALACHIAN POWER COMPANY - LEESVILLE DA","VA0000005103100197","VA","110040485864","999999",37.089992,-79.401504,,"POF","Privately Owned Facility"
"APPALACHIAN RAIL SYSTEM","VA0000005119700084","VA","110007327455","321918",36.89304,-81.27521,,"NON","Non-Government"
"APPALACHIAN WOOD PRESERVERS LLC","VA0000005103100082","VA","110008195087","321113",37.15872,-79.06852,,"NON","Non-Government"
"APPLE BLOSSOM MALL","VA0000005106900085","VA","110007324984","452111 455110",39.16519,-78.16268,,"NON","Non-Government"
"APPLIED RADIANT ENERGY CORPORATION","VA0000005113500004","VA","110001887557","321211 562910",37.18864,-78.20536,,"NON","Non-Government"
"APPOMATTOX CLEANERS","VA0000005114900068","VA","110020669294","812320",37.30462,-77.28727,,"NON","Non-Government"
"APPOMATTOX CO MIDDLE SCHOOL","VA0000005101100006","VA","110020675018","611110",37.339076,-78.846946,,"CNG","County Government"
"APPOMATTOX COUNTY SCHOOLS-NEW ELEMENTARY","VA0000005101100022","VA","110014338993","611110",37.35289,-78.83724,,"POF","Privately Owned Facility"
"APPOMATTOX LIME CO - 30291","VA0000005101100004","VA","110006178064","212311 327410",37.479971,-78.897836,,"POF","Privately Owned Facility"
"APPOMATTOX LIME CO. - 31033","VA0000005101100021","VA","110006178064","212311 327410",37.479971,-78.897836,,"NON","Non-Government"
"APPOMATTOX LIME COMPANY - STAUNTON","VA0000005179000088","VA","110002030089","212312 212319",38.143181,-79.040433,,"NON","Non-Government"
"APPOMATTOX PRIMARY SCHOOL","VA0000005101100009","VA","110020675027","611110",37.35919,-78.83373,,"CNG","County Government"
"APPOMATTOX RIVER MANUFACTURING - HURT DIVISION","VA0000005114300146","VA","110012214629","337122",37.1077,-79.30706,,"NON","Non-Government"
"APPOMATTOX RIVER MANUFACTURING COMPANY - HURT DIV","VA0000005103100194","VA","110012626658","423210",37.10993,-79.28621,,"NON","Non-Government"
"APPOMATTOX RIVER WATER AUTHORITY","VA0000005104100260","VA","110000535519","221320",37.225556,-77.519444,,"NON","Non-Government"
"AQ TRANSFORMER SOLUTIONS INC","VA0000005119700091","VA","110012168279","335311",36.97054,-81.11033,,"NON","Non-Government"
"AQUA CLEAN ENVIRONMENTAL OF VIRGINIA","VA0000005176000097","VA","110001887307","562920",37.55111,-77.4267,,"NON","Non-Government"
"AQUAROBIC INTERNATIONAL INC","VA0000005184000034","VA","110001912431","326121",39.19454,-78.16475,,"NON","Non-Government"
"AQUATIC COMPANY","VA0000005108300037","VA","110000344075","326191",36.668404,-78.930964,47980,"NON","Non-Government"
"AQUIA WASTEWATER TREATMENT PLANT","VA0000005117900108","VA","110008180244","221320",38.44636,-77.39547,,"NON","Non-Government"
"ARAI AMERICAS INCORPORATED","VA0000005181000064","VA","110001914545","339991",36.90038,-76.18773,,"NON","Non-Government"
"ARBAN & CAROSI INCORPORATED","VA0000005115300046","VA","110001892033","327320",38.65294,-77.24588,,"POF","Privately Owned Facility"
"ARBAN, CAROSI & DIANA PRECAST, LLC (FORMERLY AMERICAN STONE VIRGINIA LLC)","VA0000005103300044","VA","110031217635","327320",38.008607,-77.500278,,"NON","Non-Government"
"ARBORTECH FOREST PRODUCTS INC","VA0000005113500037","VA","110001914741","321113",37.070866,-77.943305,14,"NON","Non-Government"
"ARCHDEL VALET SERVICE INC","VA0000005108700191","VA","110020678578","812320",37.475,-77.3747,,"NON","Non-Government"
"ARCHER DANIELS MIDLAND COMPANY - AG SERVICES","VA0000005180000014","VA","110001889519","115114",36.724532,-76.588308,,"NON","Non-Government"
"ARCHER DANIELS MIDLAND COMPANY - AG SERVICES","VA0000005180000146","VA","110001889519","115114",36.724532,-76.588308,,"NON","Non-Government"
"ARCHITECT BUILDING, THE","VA0000005101300170","VA","110001897984","236220",38.89482,-77.07366,,"POF","Privately Owned Facility"
"ARCHITECT OF THE CAPITOL","VA0000005115300889","VA","110038456159","921110",38.76112,-77.50839,,"NON","Non-Government"
"ARCHITECTURAL ACCENTS, LLC","VA0000005108700479","VA","110030748573","337110",37.586421,-77.486674,,"POF","Privately Owned Facility"
"ARCHITECTURAL GRAPHICS INC (AGI)","VA0000005181061941","VA","110072129362","339950",36.7369537,-76.0359871,,"NON","Non-Government"
"ARCHITECTURAL GRAPHICS INC - CRUSADER CIRCLE","VA0000005181000144","VA","110056440356","339950",36.7978,-76.07018,,"NON","Non-Government"
"ARCHITECTURAL GRAPHICS INC - INTERNATIONAL PARKWAY","VA0000005181000124","VA","110000826731","339950",36.81559,-76.05992,,"NON","Non-Government"
"ARCHSTONE NEWPORT VILLAGE I  II & III","VA0000005151000047","VA","110020677640","531110",38.83665,-77.10947,,"NON","Non-Government"
"ARDENT MILLS, LLC","VA0000005104700005","VA","110006519204","311211",38.45181,-77.98929,,"NON","Non-Government"
"AREVA NEWPORT NEWS LLC","VA0000005170000140","VA","110040513842","332410",37.0108,-76.45038,,"NON","Non-Government"
"ARGOS USA LLC - ASHLAND CEMENT TERMINAL","VA0000005108500221","VA","110040513682","327310",37.80216,-77.42518,,"NON","Non-Government"
"ARGOS USA LLC - MIDLOTHIAN","VA0000005104100180","VA","110024422784","327390",37.436026,-77.621727,,"NON","Non-Government"
"ARKAY PACKAGING CORPORATION","VA0000005102300038","VA","110020681984","323111",37.34495,-79.86975,,"NON","Non-Government"
"ARKEMA INC","VA0000005114300138","VA","110007325830","325211",36.7742,-79.4067,,"NON","Non-Government"
"ARKEMA INC - FRANKLIN VA SITE","VA0000005117500058","VA","110012148461","325199",36.652054,-77.001306,500,"NON","Non-Government"
"ARLAND TOWERS (THE TOWERS)","VA0000005101300195","VA","110001898019","531120",38.89498,-77.06989,,"NON","Non-Government"
"ARLANDRIA CLEANERS","VA0000005151000168","VA","110001900426","812320",38.843724,-77.064271,,"NON","Non-Government"
"ARLINGTON ARTS CENTER","VA0000005101300072","VA","110001894834","611110",38.88211,-77.10237,,"CNG","County Government"
"ARLINGTON AUTO BODY SHOP","VA0000005101300815","VA","110027235169","811121",38.87768,-77.10678,,"NON","Non-Government"
"ARLINGTON CLEANERS","VA0000005101300258","VA","110002083815","812320",38.88311,-77.10025,,"NON","Non-Government"
"ARLINGTON COLLISION CENTER LLC","VA0000005101300262","VA","110008197593","811111",38.84548,-77.09196,,"NON","Non-Government"
"ARLINGTON COUNTY BOARD HEALTH CENTER","VA0000005101300042","VA","110064239024","621511",38.86533,-77.08761,,"CNG","County Government"
"ARLINGTON COUNTY COURTHOUSE","VA0000005101300041","VA","110001891551","921110",38.89022,-77.08378,,"POF","Privately Owned Facility"
"ARLINGTON COUNTY WATER POLLUTION CONTROL FACILITY","VA0000005101300018","VA","110001886335","221320",38.8439,-77.05692,,"CNG","County Government"
"ARLINGTON FUNERAL HOME","VA0000005101300218","VA","110001886380","812210",38.88248,-77.10693,,"NON","Non-Government"
"ARLINGTON NATIONAL CEMETERY","VA0000005101300854","VA","110006883435","812220",38.877778,-77.071389,,"POF","Privately Owned Facility"
"ARMED FORCES RESERVE CENTER","VA0000005168000210","VA","110040834791","928110",37.37208,-79.2085,,"FDF","Federal Facility (U.S. Government)"
"ARMSTRONG ELEMENTARY SCHOOL","VA0000005105900971","VA","110030490555","611110",38.97924,-77.3585,,"CNG","County Government"
"ARMSTRONG HIGH SCHOOL","VA0000005176000204","VA","110001914297","611110",37.54063,-77.40159,,"CNG","County Government"
"ARMY & AIR FORCE EXCHANGE SERVICE","VA0000005114900082","VA","110037600922","447110",37.2361298,-77.3358036,,"FDF","Federal Facility (U.S. Government)"
"ARREFF TERMINALS INC","VA0000005174000125","VA","110055586557","311224",36.81067,-76.30579,,"NON","Non-Government"
"ARROW SPECIALTIES USA LLC - SPRUANCE FACILITY","VA0000005104153272","VA","110072172809","325220",37.451917,-77.433361,,"NON","Non-Government"
"ARROW TRANSMISSIONS","VA0000005108744006","VA","110043679427","811113",37.66084,-77.61253,,"POF","Privately Owned Facility"
"ARS MANUFACTURING, INCORPORATED","VA0000005181000058","VA","110038804835","326299",36.883814,-76.1432365,,"POF","Privately Owned Facility"
"ARSENAL OF VIRGINIA INC","VA0000005116500161","VA","110002372664","336214",38.42463,-78.92283,,"NON","Non-Government"
"ARTELEGNO INC","VA0000005117900040","VA","110002030999","337125 337126",38.31907,-77.4467,,"NON","Non-Government"
"ARTHUR ASHE JR ATHLETIC CENTER","VA0000005176000373","VA","110020667615","611110",37.5332,-77.41013,,"CTG","Municipality"
"ARTISAN PACKAGING LLC","VA0000005166000058","VA","110002031220","326160",38.45231,-78.87418,,"NON","Non-Government"
"ARTISITIC METALS","03000VA00010","VA","110070256218","423510",37.274,-79.95515,,,
"ASAP CLEANERS","VA0000005115300828","VA","110015321944","812320",38.795739,-77.517114,,"NON","Non-Government"
"ASH2 LOCKRIDGE DATA CENTER - QTS INVESTMENT PROPERTIES ASHBURN II LLC","VA0000005110774232","VA","110071374547","541513",38.99613,-77.4579,,"NON","Non-Government"
"ASHBURN CENTRAL OFFICE","VA0000005110701014","VA","110045434160","517110",39.04262,-77.48731,,"POF","Privately Owned Facility"
"ASHBURN COLLISION CENTER","VA0000005110700851","VA","110027235882","811121",39.01825,-77.42089,,"NON","Non-Government"
"ASHBURN VILLAGE CLEANERS","VA0000005110700701","VA","110002031685","812320",39.067814,-77.467053,,"NON","Non-Government"
"ASHBY LEE ELEMENTARY SCHOOL","VA0000005117100048","VA","110002030953","611110",38.70512,-78.66802,,"CNG","County Government"
"ASHBY'S BODY SHOP","VA0000005103144049","VA","110044954500","811121",37.189593,-78.92589,,"POF","Privately Owned Facility"
"ASHLAND CONVALESCENT CENTER","VA0000005108500040","VA","110002443669","623311",37.76713,-77.49629,,"NON","Non-Government"
"ASHLAND DISTRIBUTION COMPANY","VA0000005177000024","VA","110011505442","424690",37.27613,-79.98121,,"NON","Non-Government"
"ASHLAND ROLLER MILLS","VA0000005108500007","VA","110001905396","311211",37.806131,-77.472495,,"NON","Non-Government"
"ASHLAND SPECIALTY INGREDIENTS GP","VA0000005167000006","VA","110000342665","325199",37.290756,-77.282185,339480,"NON","Non-Government"
"ASHLAWN ELEMENTARY SCHOOL","VA0000005101300087","VA","110001894816","611110",38.87351,-77.13586,,"CNG","County Government"
"ASHLEY AT RIVER HOUSE, THE","VA0000005101300118","VA","110001896789","531110",38.85991,-77.06334,,"POF","Privately Owned Facility"
"ASHTON LEWIS - RUTHER GLEN INCORPORATED","VA0000005103300031","VA","110001898233","321113",37.89977,-77.34575,,"NON","Non-Government"
"ASHU AUTO","VA0000005101300831","VA","110037599391","811121",38.8464,-77.0836,,"NON","Non-Government"
"ASHWORKS INCORPORATED - PORTABLE 61471","VA0000005155061471","VA","110015708901","327320",36.8143,-76.28389,,"NON","Non-Government"
"ASI CONSTRUCTION LLC - COBBS CREEK","VA0000005104952655","VA","110070072367","237990",37.729367,-78.176905,,"NON","Non-Government"
"ASI CONSTRUCTION LLC - PORTABLE 52652","VA0000005104952652","VA","110070072366","423810",37.729367,-78.176905,,"NON","Non-Government"
"ASI CONSTRUCTORS","VA0000005115373949","VA","110043703105","327320",38.76297,-77.62245,,"NON","Non-Government"
"ASI CONSTRUCTORS INC - PORTABLE 61702","VA0000005180061702","VA","110070049910","236220",36.80079,-76.58098,,"NON","Non-Government"
"ASI CONSTRUCTORS INC - PORTABLE 81721","VA0000005117181721","VA","110069427837","237990",38.8339487,-78.8013079,,"NON","Non-Government"
"ASI RCC INC","VA0000005117740991","VA","110002033406","327320",38.35453,-77.64234,,"NON","Non-Government"
"ASI RCC INC PORTABLE PLANT","VA0000005108921447","VA","110038769865","238110",36.578556,-79.894604,,"NON","Non-Government"
"ASM AG SERVICES LLC - MARION","VA0000005117300122","VA","110043427477","454310 457210",36.83132,-81.51322,,"NON","Non-Government"
"ASPEN HOUSE APARTMENTS","VA0000005151000132","VA","110001897680","531110",38.83426,-77.06297,,"POF","Privately Owned Facility"
"ASSOCIATED ASPHALT BRISTOL LLC","VA0000005152000120","VA","110001890357","423390 424710",36.608613,-82.19384,0,"NON","Non-Government"
"ASSOCIATED ASPHALT HOPEWELL LLC","VA0000005167000084","VA","110005246876","493190",37.311,-77.27237,,"NON","Non-Government"
"ASSOCIATED ASPHALT ROANOKE LLC","VA0000005177000038","VA","110001895352","424710",37.27086,-79.98683,0,"NON","Non-Government"
"ASTRO PAK","VA0000005155000246","VA","110005225933","326291",36.76859,-76.30862,,"POF","Privately Owned Facility"
"AT & T CHARLOTTESVILLE (CHVLVAHS)","VA0000005154000110","VA","110020677034","517110",38.033025,-78.462179,,"POF","Privately Owned Facility"
"AT & T SERVICES - KESWICK (CHVLVA02)","VA0000005100381781","VA","110070604414","517110 517111",38.12765,-78.28558,,"NON","Non-Government"
"AT AND T - DRANESVILLE","VA0000005105900717","VA","110054880296","517112 517210",39.00715,-77.35792,,"NON","Non-Government"
"AT AND T - MOSELEY FACILITY","VA0000005104100165","VA","110002032416","517110",37.40303,-77.78515,,"NON","Non-Government"
"AT AND T COMMUNICATIONS OF VIRGINIA LLC","VA0000005110701029","VA","110043433807","221119",39.10923,-77.56296,,"POF","Privately Owned Facility"
"AT&T","VA0000005101300265","VA","110000826376","517112 517210",38.86373,-77.08725,,"NON","Non-Government"
"AT&T - ROANOKE","VA0000005177000273","VA","110040514002","221111",37.307375,-79.904191,,"POF","Privately Owned Facility"
"AT&T L244230  (#VA4230)","VA0000005100300111","VA","110007345417","517110 517111",38.05581,-78.47035,,"NON","Non-Government"
"AT&T MOBILITY - LEBANON CALL CENTER","VA0000005116700085","VA","110014395877","517112 517210",36.900467,-82.049506,,"NON","Non-Government"
"AT&T NETWORK SYSTEMS #VA3800","VA0000005110900045","VA","110007345514","517110",37.92046,-77.86109,,"POF","Privately Owned Facility"
"AT&T NETWORK SYSTEMS-FAUQUIER","VA0000005106100052","VA","110020674643","517110",38.745,-77.8075,,"POF","Privately Owned Facility"
"AT&T NETWORK SYSTEMS-TURNER RD","VA0000005104100158","VA","110005229314","517112 517210",37.47198,-77.5246,,"NON","Non-Government"
"AT&T SERVICES INC - NORFOLK FACILITY","VA0000005171000248","VA","110001905430","221119 517111",36.85302,-76.29027,,"NON","Non-Government"
"ATC PANELS, INC., FRANKLIN PARTICLEBOARD PLANT","VA0000005109300018","VA","110022532856","321219",36.68485,-76.91291,,"NON","Non-Government"
"ATLANTIC AGGREGATE RECYCLERS","VA0000005155000160","VA","110001893434","562219",36.785,-76.2933,,"NON","Non-Government"
"ATLANTIC CLEANERS","VA0000005181000007","VA","110001907072","812320",36.85976,-75.97944,,"NON","Non-Government"
"ATLANTIC COAST INDUSTRIES WAREHOUSE","VA0000005101100002","VA","110006135663","315240 315250",37.369951,-78.788658,,"NON","Non-Government"
"ATLANTIC CONTAINMENT LLC","VA0000005116581732","VA","110069428328","332312",38.36721,-78.71951,,"NON","Non-Government"
"ATLANTIC CONTRACTING & MATERIAL CO INC - PORTABLE 52472","VA0000005108552472","VA","110037604152","212319 423810",37.71925,-77.4663,,"NON","Non-Government"
"ATLANTIC CONTRACTING & MATERIAL CO INC - PORTABLE 52516","VA0000005108552516","VA","110037604152","212319 423810",37.71925,-77.4663,,"NON","Non-Government"
"ATLANTIC CONTRACTING & MATERIAL CO INC - PORTABLE 52549","VA0000005108552549","VA","110037604152","212319 423810",37.71925,-77.4663,,"NON","Non-Government"
"ATLANTIC CONTRACTING & MATERIAL CO INC - PORTABLE 52574","VA0000005108552574","VA","110037604152","212319 423810",37.71925,-77.4663,,"NON","Non-Government"
"ATLANTIC CONTRACTING & MATERIAL CO INC - PORTABLE 52668","VA0000005108552668","VA","110070144506","237310 327999",37.719017,-77.467516,,"NON","Non-Government"
"ATLANTIC CONTRACTING & MATERIAL CO INC - PORTABLE 52943","VA0000005108552943","VA","110070604305","213115 327999",36.795152,-76.056252,,"NON","Non-Government"
"ATLANTIC CONTRACTING & MATERIAL CO INC - PORTABLE 52986","VA0000005108552986","VA","110070144506","237310 327999",37.719017,-77.467516,,"NON","Non-Government"
"ATLANTIC CONTRACTING & MATERIAL CO INC - PORTABLE 53062","VA0000005108553062","VA","110070604305","213115 327999",36.795152,-76.056252,,"NON","Non-Government"
"ATLANTIC CONTRACTING & MATERIAL CO INC - PORTABLE 53074","VA0000005108553074","VA","110070604305","213115 327999",36.795152,-76.056252,,"NON","Non-Government"
"ATLANTIC CONTRACTING & MATERIAL CO INC - PORTABLE 53081","VA0000005108553081","VA","110069428284","321999 327999 332999 423810",37.719017,-77.467516,,"NON","Non-Government"
"ATLANTIC CONTRACTING & MATERIAL CO INC - PORTABLE 53087","VA0000005108553087","VA","110070604305","213115 327999",36.795152,-76.056252,,"NON","Non-Government"
"ATLANTIC CONTRACTING & MATERIAL CO INC - PORTABLE 53093","VA0000005108553093","VA","110070604305","213115 327999",36.795152,-76.056252,,"NON","Non-Government"
"ATLANTIC CONTRACTING & MATERIAL CO INC - PORTABLE 53098","VA0000005108553098","VA","110069428284","321999 327999 332999 423810",37.719017,-77.467516,,"NON","Non-Government"
"ATLANTIC CONTRACTING & MATERIAL CO INC - TOPP #5","VA0000005184081921","VA","110071642652","212311 212312",39.19298,-78.15903,,"NON","Non-Government"
"ATLANTIC CONTRACTING & MATERIAL CO INC - TOPP#3","VA0000005184081850","VA","110071642652","212311 212312",39.19298,-78.15903,,"NON","Non-Government"
"ATLANTIC CONTRACTING & MATERIAL CO INC TOPP #1","VA0000005184081821","VA","110071642652","212311 212312",39.19298,-78.15903,,"NON","Non-Government"
"ATLANTIC CONTRACTING & MATERIAL CO INC TOPP #2","VA0000005184081822","VA","110071642652","212311 212312",39.19298,-78.15903,,"NON","Non-Government"
"ATLANTIC CONTRACTING & MATERIAL CO INC TOPP #35","VA0000005184081867","VA","110071642652","212311 212312",39.19298,-78.15903,,"NON","Non-Government"
"ATLANTIC CONTRACTING & MATERIAL CO INC TOPP #4","VA0000005184081823","VA","110071642652","212311 212312",39.19298,-78.15903,,"NON","Non-Government"
"ATLANTIC CONTRACTING AND MATERIAL CO INC","VA0000005110772371","VA","110013327453","212319 327320",38.99841,-77.43259,,"POF","Privately Owned Facility"
"ATLANTIC CONTRACTING AND MATERIAL CO INC","VA0000005110700097","VA","110013327453","212319 327320",38.99841,-77.43259,,"NON","Non-Government"
"ATLANTIC CONTRACTING AND MATERIAL CO INC - PORTABLE 52508","VA0000005108552508","VA","110037604152","212319 423810",37.71925,-77.4663,,"NON","Non-Government"
"ATLANTIC CONTRACTING AND MATERIAL CO INC - PORTABLE 52526","VA0000005108552526","VA","110067011959","327999 423810",37.71925,-77.4663,,"NON","Non-Government"
"ATLANTIC CONTRACTING AND MATERIAL CO INC - PORTABLE 52595","VA0000005108552595","VA","110037604152","212319 423810",37.71925,-77.4663,,"NON","Non-Government"
"ATLANTIC CONTRACTING AND MATERIAL CO INC - PORTABLE 52612","VA0000005108552612","VA","110069427588","327999 423810",37.719017,-77.467516,,"NON","Non-Government"
"ATLANTIC CONTRACTING AND MATERIAL CO INC - PORTABLE 52624","VA0000005108552624","VA","110070049429","423810",37.719017,-77.467516,,"NON","Non-Government"
"ATLANTIC CONTRACTING AND MATERIAL CO INC - PORTABLE 52669","VA0000005108552669","VA","110070144507","212319",37.719017,-77.467516,,"NON","Non-Government"
"ATLANTIC CONTRACTING AND MATERIAL CO INC - PORTABLE 52673","VA0000005108552673","VA","110070156172","212319",37.719017,-77.467516,,"NON","Non-Government"
"ATLANTIC CONTRACTING AND MATERIAL CO INC - PORTABLE 52674","VA0000005108552674","VA","110070156279","212319",37.719017,-77.467516,,"NON","Non-Government"
"ATLANTIC CONTRACTING AND MATERIAL CO INC - PORTABLE 52790","VA0000005108552790","VA","110069427588","327999 423810",37.719017,-77.467516,,"NON","Non-Government"
"ATLANTIC CONTRACTING AND MATERIAL CO INC - PORTABLE 52821","VA0000005108552821","VA","110069427588","327999 423810",37.719017,-77.467516,,"NON","Non-Government"
"ATLANTIC CONTRACTING AND MATERIAL CO INC - PORTABLE 52822","VA0000005108552822","VA","110069427588","327999 423810",37.719017,-77.467516,,"NON","Non-Government"
"ATLANTIC CONTRACTING AND MATERIAL CO INC - PORTABLE 52823","VA0000005108552823","VA","110069427588","327999 423810",37.719017,-77.467516,,"NON","Non-Government"
"ATLANTIC CONTRACTING AND MATERIAL CO INC - PORTABLE 52824","VA0000005108552824","VA","110069427588","327999 423810",37.719017,-77.467516,,"NON","Non-Government"
"ATLANTIC CONTRACTING AND MATERIAL CO-PORTABLE #4","VA0000005110774036","VA","110055597377","327320",38.9700316,-77.464002,,"NON","Non-Government"
"ATLANTIC CONTRACTING AND MATERIAL COMPANY","VA0000005110773144","VA","110031247201","327320",38.91665,-77.45677,,"NON","Non-Government"
"ATLANTIC CONTRACTING AND MATERIAL COMPANY INC - PORTABLE 53006","VA0000005108553006","VA","110070144506","237310 327999",37.719017,-77.467516,,"NON","Non-Government"
"ATLANTIC CONTRACTING AND MATERIALS CO., INC. - PORTABLE 52529","VA0000005108552529","VA","110037604152","212319 423810",37.71925,-77.4663,,"NON","Non-Government"
"ATLANTIC CONTRACTING AND MATERIALS INC","VA0000005110774089","VA","110069428300","213115",39.03757,-77.58138,,"NON","Non-Government"
"ATLANTIC INDUSTRIAL SERVICES INC","VA0000005104100111","VA","110000826358","424710",37.34496,-77.38819,,"NON","Non-Government"
"ATLANTIC MATERIALS SERVICES LLC - PORTABLE 21705","VA0000005102321705","VA","110071767621","212319 327999",37.71925,-77.4663,,"NON","Non-Government"
"ATLANTIC MATERIALS SERVICES LLC - PORTABLE 52911","VA0000005104152911","VA","110069429032","327999 333120",37.39173,-77.41203,,"NON","Non-Government"
"ATLANTIC MATERIALS SERVICES LLC - PORTABLE 52939","VA0000005108752939","VA","110067011959","327999 423810",37.71925,-77.4663,,"NON","Non-Government"
"ATLANTIC MATERIALS SERVICES LLC - PORTABLE 53096","VA0000005108553096","VA","110067011959","327999 423810",37.71925,-77.4663,,"NON","Non-Government"
"ATLANTIC MATERIALS SERVICES LLC - PORTABLE 53218","VA0000005108553218","VA","110071767621","212319 327999",37.71925,-77.4663,,"NON","Non-Government"
"ATLANTIC MATERIALS SERVICES LLC - PORTABLE 53242","VA0000005108553242","VA","110071767621","212319 327999",37.71925,-77.4663,,"NON","Non-Government"
"ATLANTIC METROCAST INC - PORTSMOUTH","VA0000005174000113","VA","110061841084","327390",36.806453,-76.295773,,"NON","Non-Government"
"ATLANTIC POLE-VIRGINIA LLC","VA0000005117500050","VA","110012503941","321114",36.62212,-77.1421,3,"NON","Non-Government"
"ATLANTIC RESEARCH CORP - GAINESVILLE","VA0000005115300014","VA","110000620169","336415",38.78827,-77.58546,,"NON","Non-Government"
"ATLANTIC RESEARCH CORPORATION ALEXANDRIA","VA0000005105900071","VA","110002316413","336415",38.8071,-77.1665,,"NON","Non-Government"
"ATLANTIC STRATEGIC MINERALS LLC","VA0000005118300034","VA","110001908534","212290",36.973381,-77.40994,,"NON","Non-Government"
"ATLANTIC WASTE DISPOSAL INC - WAVERLY","VA0000005118300036","VA","110012710290","562212 562920",37.061279,-77.177106,,"NON","Non-Government"
"ATLAS MACHINE & IRON WORKS INCORPORATED","VA0000005115300016","VA","110007320247","332312",38.7964,-77.6081,,"NON","Non-Government"
"ATLAS ROOFING CORPORATION","VA0000005108900110","VA","110040876656","326140",36.645846,-79.858803,,"NON","Non-Government"
"ATLASELEKTRO","VA0000005176000353","VA","110001889485","811310",37.51733,-77.43041,,"NON","Non-Government"
"ATOMIZED PRODUCTS GROUP INC","VA0000005155000260","VA","110056293256","316110",36.7333,-76.23898,,"POF","Privately Owned Facility"
"ATRIUM CONDOMIUM","VA0000005101300221","VA","110001891695","531110",38.8962,-77.07631,,"POF","Privately Owned Facility"
"ATRIUM DEVELOPMENT COMPANY","VA0000005151000125","VA","110038804979","531120",38.81459,-77.03932,,"NON","Non-Government"
"AUBURN CLEANERS","VA0000005151000191","VA","110020669016","812320",38.83538,-77.05739,,"NON","Non-Government"
"AUBURN HIGH SCHOOL","VA0000005112100036","VA","110021465038","611110",37.06141,-80.44133,,"CNG","County Government"
"AUDIOPAK INC","VA0000005106900100","VA","110020677061","334613",39.22251,-78.15015,,"NON","Non-Government"
"AUGER COAL COMPANY","VA0000005118511849","VA","110072141959","212114",37.1118131,-81.8024456,,"NON","Non-Government"
"AUGUSTA BLOCKS LLC","VA0000005179000015","VA","110002031024","327331",38.151927,-79.056458,,"NON","Non-Government"
"AUGUSTA COOPERATIVE FARM BUREAU INC","VA0000005179000112","VA","110002030659","311119",38.134965,-79.040729,,"NON","Non-Government"
"AUGUSTA CORRECTIONAL CENTER","VA0000005101500110","VA","110001890213","922140",38.05839,-79.36742,,"STF","State Government"
"AUGUSTA CORRECTIONAL CENTER - PORTABLE","VA0000005101581807","VA","110001890213","922140",38.05839,-79.36742,,"STF","State Government"
"AUGUSTA HEALTH MEDICAL CENTER","VA0000005101500113","VA","110020669533","622110",38.096307,-78.986962,,"NON","Non-Government"
"AUGUSTA LUMBER - NORTH GARDEN","VA0000005100300059","VA","110007344276","321912",37.94174,-78.636308,,"NON","Non-Government"
"AUGUSTA MILLS","VA0000005116500054","VA","110007322227","315190",38.4083,-78.6203,,"NON","Non-Government"
"AUGUSTA PETROLEUM COOPERATIVE INC","VA0000005101500082","VA","110002031042","424710",38.10633,-79.07272,,"NON","Non-Government"
"AUGUSTA PLASTIC LAMINATE INC","VA0000005101500162","VA","110038783000","326121",38.1924,-79.02014,,"NON","Non-Government"
"AUGUSTA REGIONAL LANDFILL","VA0000005101500157","VA","110030493561","562212",38.0781,-79.0635,,"CNG","County Government"
"AUGUSTA REGIONAL SPCA","VA0000005101500141","VA","110012168402","812220",38.11579,-79.02652,,"NON","Non-Government"
"AUGUSTA WOOD PRODUCTS LC - SAWMILL","VA0000005110100023","VA","110007317484","321912 322130",37.5392,-76.8053,783412,"NON","Non-Government"
"AURORA HILLS CLEANER","VA0000005101300257","VA","110001901087","812320",38.85329,-77.0592,,"NON","Non-Government"
"AUSTIN'S CLEANERS","VA0000005176000427","VA","110020679292","812320",37.49406,-77.44577,,"POF","Privately Owned Facility"
"AUSTIN'S CLEANERS AND LAUNDERERS","VA0000005176000426","VA","110020679274","812320",37.43743,-77.4387,,"NON","Non-Government"
"AUSTINS CLEANERS","VA0000005108700185","VA","110008182572","812320",37.475,-77.374722,,"NON","Non-Government"
"AUSTINVILLE LIMESTONE - BUNKER HILL- PORT 2","VA0000005119711559","VA","110020682359","212312 327410",36.848675,-80.917276,,"NON","Non-Government"
"AUSTINVILLE LIMESTONE CO - 11556P","VA0000005119711556","VA","110020682359","212312 327410",36.848675,-80.917276,,"NON","Non-Government"
"AUSTINVILLE LIMESTONE CO - 11558P","VA0000005119711558","VA","110020682359","212312 327410",36.848675,-80.917276,,"POF","Privately Owned Facility"
"AUSTINVILLE LIMESTONE CO - QUARRY","VA0000005119700005","VA","110020682359","212312 327410",36.848675,-80.917276,,"NON","Non-Government"
"AUSTINVILLE LIMESTONE CO PORTABLE","VA0000005119721482","VA","110020682359","212312 327410",36.848675,-80.917276,,"POF","Privately Owned Facility"
"AUTO BODY OF NEWINGTON","VA0000005105900913","VA","110008189851","811121",38.742456,-77.206447,,"NON","Non-Government"
"AUTO BODY OF TYSONS CORNER","VA0000005105900891","VA","110027235686","811121",38.928882,-77.237939,,"NON","Non-Government"
"AUTO BODY OF VIENNA","VA0000005105900855","VA","110005230017","441229",38.90549,-77.26882,,"POF","Privately Owned Facility"
"AUTO BODY PROGRAM","VA0000005101300816","VA","110027235178","811121",38.86466,-77.08745,,"NON","Non-Government"
"AUTO BODY WORLD INCORPORATED","VA0000005105900912","VA","110027235766","811121",38.84469,-77.27033,,"NON","Non-Government"
"AUTO COLLISION EXPRESS","VA0000005115300846","VA","110005223793","811121",38.64826,-77.28973,,"NON","Non-Government"
"AUTO COLLISION SPECIALTIES INCORPORATED","VA0000005115300847","VA","110005214026","811121",38.628566,-77.253516,,"NON","Non-Government"
"AUTO COSMETICS","VA0000005115300861","VA","110020894807","811111",38.623525,-77.254701,,"NON","Non-Government"
"AUTO CRAFT BODY AND PAINT COMPANY","VA0000005151000377","VA","110005231329","811121",38.80192,-77.1392,,"NON","Non-Government"
"AUTO CRAFT BODY AND PAINT COMPANY","VA0000005115300848","VA","110005227049","811121",38.650553,-77.246594,,"NON","Non-Government"
"AUTO EXPRESS","VA0000005107100065","VA","110044303465","811310",37.4015099,-80.8236261,,"NON","Non-Government"
"AUTO KRAFTERS INC","VA0000005117100011","VA","110001907330","315990",38.648265,-78.674922,,"NON","Non-Government"
"AUTO ROLLS OF VIRGINIA","VA0000005117700056","VA","110007319650","311812",38.22283,-77.48638,,"NON","Non-Government"
"AUTO WHOLESALE","VA0000005176044016","VA","110007327259","811111",37.56337,-77.47162,,"POF","Privately Owned Facility"
"AUTOBODY PRO SHOP","VA0000005116544007","VA","110006458831","811121",38.38521,-78.92249,,"POF","Privately Owned Facility"
"AUTOCRAFTERS","VA0000005168500128","VA","110006178643","811121",38.773593,-77.44001,,"NON","Non-Government"
"AUTOHAUS INCORPORATED","VA0000005105900914","VA","110004837721","811121",38.96763,-77.38123,,"NON","Non-Government"
"AUTOMATED CONVEYOR SYSTEMS INC","VA0000005168000197","VA","110001908482","333922",37.37535,-79.23992,,"NON","Non-Government"
"AUTOMATED PRODUCTION MACHINING, INC.","VA0000005113700015","VA","110001898260","332312",38.134794,-78.191131,,"POF","Privately Owned Facility"
"AUTOMOTIVE CONCEPTS","VA0000005114544012","VA","110037606150","999999",37.393479,-77.725604,,"POF","Privately Owned Facility"
"AUTOMOTIVE RADIATOR & AIR CONDITIONING","VA0000005177044022","VA","110001910282","811111",37.28805,-79.9338,,"POF","Privately Owned Facility"
"AUTOMOTIVE SERVICE GARAGE INCORPORATED","VA0000005151000381","VA","110005231025","811111",38.81051,-77.05142,,"NON","Non-Government"
"AUTOSTAR COLLISION CENTER","VA0000005105900915","VA","110027235784","811121",38.7728635,-77.1865229,,"NON","Non-Government"
"AUXILIARY SYSTEMS INCORPORATED - NORFOLK FACILITY","VA0000005171061861","VA","110071344648","336611",36.85312,-76.27361,,"NON","Non-Government"
"AV IMPORTS LIMITED LIABILITY COMPANY","VA0000005101300821","VA","110027235187","811121",38.86172,-77.09025,,"NON","Non-Government"
"AVALON CLEANERS","VA0000005181000071","VA","110001899189","812320",36.86468,-76.13221,,"NON","Non-Government"
"AVCOM OF VIRGINIA INCORPORATED","VA0000005104100490","VA","110005248268","334515",37.49932,-77.59993,,"NON","Non-Government"
"AVIENT CORPORATION - WINCHESTER SITE","VA0000005106900122","VA","110001908071","325991",39.13989,-78.13289,,"NON","Non-Government"
"AWD TECHNOLOGIES INCORPORATED","VA0000005151071990","VA","110007321665","562910",38.8076,-77.05913,,"NON","Non-Government"
"AWH CORPORATION - LOFTON PLANT","VA0000005101500098","VA","110000343673","332999",37.95644,-79.16985,,"NON","Non-Government"
"AXALTA COATING SYSTEMS USA LLC","VA0000005118700026","VA","110000341149","325510",38.984667,-78.18166,28043,"NON","Non-Government"
"AXTON ELEMENTARY SCHOOL","VA0000005108900057","VA","110007325778","611110",36.66058,-79.71404,,"CNG","County Government"
"AZZ GALVANIZING- BRISTOL","VA0000005119100182","VA","110006521549","332812",36.66682,-82.09693,628,"NON","Non-Government"
"B & B K-9 KENNELS","VA0000005177000233","VA","110001914527","112990",37.27994,-79.96385,,"NON","Non-Government"
"B & D INC","VA0000005113900037","VA","110015708796","112320",38.52862,-78.612685,,"POF","Privately Owned Facility"
"B & E TRANSMIX INC","VA0000005111700047","VA","110001887539","327320",36.722424,-78.141584,,"NON","Non-Government"
"B & G USED AUTO PARTS","VA0000005155044005","VA","110001907660","441120",36.77105,-76.4615,,"POF","Privately Owned Facility"
"B & M ELECTRIC INCORPORATED","VA0000005102700094","VA","110007325457","811310",37.3075,-82.1317,,"NON","Non-Government"
"B & S SITE DEVELOPMENT - FT420","VA0000005115321502","VA","110046100599","212312 212319",38.78571,-77.56886,,"NON","Non-Government"
"B A MULLICAN LUMBER & MANUFACTURING COMPANY INCORP","VA0000005119500158","VA","110007321273","321918",36.92784,-82.69773,,"NON","Non-Government"
"B AND H SALES CORP - P 60984","VA0000005171060984","VA","110012284189","237310",36.87592,-76.3032,,"NON","Non-Government"
"B AND M AUTOMOTIVE","VA0000005105900937","VA","110028718172","811111",38.90578,-77.26748,,"NON","Non-Government"
"B AND S SITE DEVELOPMENT","VA0000005106141069","VA","110038455490","238910",38.71724,-77.79296,,"POF","Privately Owned Facility"
"B AND S SITE DEVELOPMENT INC PORTABLE 1","VA0000005115374006","VA","110046100599","212312 212319",38.78571,-77.56886,,"NON","Non-Government"
"B P SHORT AND SON PAVING COMPANY INC TREGO QUARRY","VA0000005108100027","VA","110038768893","324121",36.5892703854208,-77.5950699996801,,"NON","Non-Government"
"B P SHORT AND SON PAVING COMPANY INC-POR","VA0000005113552431","VA","110046467667","324121",37.1748293,-78.2217386,,"POF","Privately Owned Facility"
