"AIRName","SourceID","AIRState","RegistryID","AIRNAICS","FacLat","FacLong","FacTRIAIRReleases","AIRFacilityTypeCode","AIRFacilityTypeDesc"
"(DUPLICATE DON'T USE) H.C.CROOKER & SONS","ME0000002300100301","ME","110010390585","999999",43.9560209,-70.1324175,,"POF","Privately Owned Facility"
"(DUPLICATE DON'T USE) MORIN BRICK COMPANY - GORHAM","ME0000002300500195","ME","110002057844","327121 999999",43.69502,-70.403049,,"POF","Privately Owned Facility"
"(DUPLICATE) THE LANE CONSTRUCTION CORPORATION","ME0000002300300090","ME","110037130075","212321 324121",46.735888,-67.961127,,"POF","Privately Owned Facility"
"A & B FORESTRY, INC.","ME000ACIN000159","ME","110070144385","212321",44.50593,-70.67269,,"POF","Privately Owned Facility"
"A & M REDI-MIX INC.","ME000AGP164000026","ME","110070132742","327320",44.549446,-68.864325,,"POF","Privately Owned Facility"
"A. C. ELECTRIC CORP.","ME0000002301900919","ME","110024825377","335312",44.787411,-68.820996,,"POF","Privately Owned Facility"
"A. H. GROVER, INC.","ME0000002300500751","ME","110012171988","212321",43.7915,-70.251,,"POF","Privately Owned Facility"
"A. W. CHAFFEE","ME0000002301100636","ME","110039663780","999999",44.63913,-69.52295,,"POF","Privately Owned Facility"
"A.C. ELECTRIC CORP.","ME0000002300100916","ME","110003556811","335312",44.06834,-70.27493,,"POF","Privately Owned Facility"
"A.E. MCQUADE & SONS, INC.","ME0000002300300749","ME","110038930253","212312",46.6333043,-67.8476235,,"POF","Privately Owned Facility"
"ABBOT'S GENERAL STORE","ME0000002303112215","ME","110010390335","999999",43.5686097,-70.7442809,,"POF","Privately Owned Facility"
"ABBOTT DIAGNOSTICS SCARBOROUGH, INC.","ME000A001161","ME","110071231967","325413",43.66219,-70.36671,,"POF","Privately Owned Facility"
"ABBOTT DIAGNOSTICS SCARBOROUGH, INC.","ME000A001147","ME","110070616753","339113",43.5807,-70.36534,,"POF","Privately Owned Facility"
"AC LAWRENCE LEATHER","ME0000002301700006","ME","110007273020","316110",44.21817,-70.51413,,"POF","Privately Owned Facility"
"ACADIA HOSPITAL, CORP.","ME0000002301900011","ME","110001839182","622210",44.81999,-68.7623,,"POF","Privately Owned Facility"
"ACADIA NATIONAL PARK","ME0000002300900866","ME","110015742106","924120",44.336473,-68.060936,,"FDF","Federal Facility (U.S. Government)"
"ACCENT CLEANERS (RIVERSIDE STREET)","ME0000002300563062","ME","110000797479","812320",43.682799,-70.327822,,"POF","Privately Owned Facility"
"AFTERLIFE AFFECTIONS LLC","ME0000002300301081","ME","110055531795","812220",46.81925,-68.16612,,"POF","Privately Owned Facility"
"AGGREGATE RECYCLING CORPORATION","ME0000002303100481","ME","110013869527","999999",43.124151,-70.76394,,"POF","Privately Owned Facility"
"AHJRLLFG LLC","ME000A001150","ME","110070692854","221210",44.99658,-68.70436,,"POF","Privately Owned Facility"
"ALAN K. TOOTHAKER, V.M.D., P.A. D/B/A SMALL ANIMAL CLINIC","ME0000002300900032","ME","110007371058","541940",44.6858027,-68.3947977,,"POF","Privately Owned Facility"
"ALLIANCE PRINTERS, LLC","ME0000002300501090","ME","110070072187","323110",43.9054,-69.99971,,"POF","Privately Owned Facility"
"ALVIN J. COLEMAN & SON, INC.","ME000ACIN000133","ME","110063851434","212321",45.2143185,-68.3888946,,"POF","Privately Owned Facility"
"ALVIN J. COLEMAN & SON, INC.","ME000ACIN000136","ME","110063851434","212321",45.2143185,-68.3888946,,"POF","Privately Owned Facility"
"ALVIN J. COLEMAN & SON, INC.","ME0000002301100965","ME","110031156987","212319",44.31439,-69.80596,,"POF","Privately Owned Facility"
"AMERICAN CONCRETE INDUSTRIES, INC","ME0000002300101058","ME","110039667081","327320",44.08089,-70.27265,,"POF","Privately Owned Facility"
"AMERICAN CONCRETE INDUSTRIES, INC.","ME000AGP164000012","ME","110016666473","327320",44.86226,-68.72244,,"POF","Privately Owned Facility"
"AMERICAN PRIDE, LLC","ME0000002302100852","ME","110021131595","321999",45.17337,-69.35046,,"POF","Privately Owned Facility"
"AMERICAN TISSUE OF MAINE","ME0000002301100002","ME","110038944836","322121",44.32061,-69.76741,,"POF","Privately Owned Facility"
"ANDOVER WOOD PRODUCTS","ME0000002301700317","ME","110008435238","321999",44.643067,-70.75559,,"POF","Privately Owned Facility"
"ANGSTROM FIBER AUBURN, LLC","ME0000002300100678","ME","110038379064","313230 314110 326199",44.03582,-70.263234,,"POF","Privately Owned Facility"
"ANIMAL REFUGE LEAGUE OF GREATER PORTLAND","ME0000002300500846","ME","110016756893","812220",43.66532,-70.34622,,"POF","Privately Owned Facility"
"ANIMAL WELFARE SOCIETY, INC.","ME0000002303100076","ME","110039679755","812220",43.407778,-70.586944,,"POF","Privately Owned Facility"
"ANTHEM HEALTH PLANS OF MAINE, INC.","ME0000002300500637","ME","110003557669","524114",43.63566,-70.35042,,"POF","Privately Owned Facility"
"ANTHONY`S CLEANERS","ME0000002300563096","ME","110020579328","812320",43.80127,-70.18836,,"POF","Privately Owned Facility"
"APLUS SALES SERVICE INC.","ME000AEPA000007","ME","110070604459","811111",43.858588,-70.454831,,,
"APPALACHIAN KATAHDIN LLC","ME0000002300300620","ME","110039681724","321211",45.993854,-68.445706,,"POF","Privately Owned Facility"
"ARCHIE'S, INC.","ME0000002301700007","ME","110038948039","999999",44.5613568,-70.4137267,,"POF","Privately Owned Facility"
"AROOSTOOK CREMATORY, INC.","ME0000002300300746","ME","110007371192","812220",46.66707,-68.01148,,"POF","Privately Owned Facility"
"AROOSTOOK WASTE SOLUTIONS","ME0000002300300977","ME","110013917280","562212",46.86159,-67.90235,,"POF","Privately Owned Facility"
"AROOSTOOK WASTE SOLUTIONS","ME0000002300300997","ME","110043178343","562212",46.62691,-68.0497,,"CTG","Municipality"
"ATHENAHEALTH, INC.","ME0000002302700991","ME","110038040759","524114",44.4232,-69.0245,,"POF","Privately Owned Facility"
"ATLANTIC CUSTOM PROCESSORS, LLC","ME0000002300300007","ME","110044796888","311411",46.7762407,-67.859197,,"POF","Privately Owned Facility"
"AUBURN AGGREGATES, LLC","ME0000002300101125","ME","110070083316","212321",44.02638,-70.29675,,"POF","Privately Owned Facility"
"AUBURN ASPHALT LLC","ME0000002300100864","ME","110018853132","324121",44.0895127,-70.172095,,"POF","Privately Owned Facility"
"AUBURN ASPHALT, LLC","ME000000A001098","ME","110060254086","324121",44.26111,-69.77882,,"POF","Privately Owned Facility"
"AUBURN ASPHALT, LLC","ME000A001141","ME","110070544000","324121",44.09912,-69.86501,,"POF","Privately Owned Facility"
"AUBURN ASPHALT, LLC","ME0000002301101016","ME","110042261799","324121",44.3154846,-69.571186,,"POF","Privately Owned Facility"
"AUBURN CONCRETE","ME0000002301101046","ME","110043219139","327320",44.3519104,-69.7476148,,"POF","Privately Owned Facility"
"AUBURN CONCRETE","ME0000002300501024","ME","110039676222","327320",43.64531,-70.35896,,"POF","Privately Owned Facility"
"AUBURN STOVE FOUNDRY","ME000AEPA000011","ME","110070624643","332999",44.00608,-70.3142,,,
"AUBURNDALE CLEANING CENTER","ME0000002300163001","ME","110020582779","812320",44.12889,-70.22493,,"POF","Privately Owned Facility"
"AUGUSTA EAST REDEVELOPMENT COMPANY, LLC","ME0000002301100111","ME","110039665902","531120",44.31337,-69.76844,,"POF","Privately Owned Facility"
"AUGUSTA ME I SGF, LLC","ME0000002301101083","ME","110055574365","531120",44.3519104,-69.7476148,,"POF","Privately Owned Facility"
"AVEDIS ZILDJIAN CO.","ME0000002301909042","ME","110039668623","321999",44.874079,-69.278524,,"POF","Privately Owned Facility"
"B & T SETTLEMENT CORP.","ME000AGP164000006","ME","110070132441","327320",43.94265,-69.96892,,"POF","Privately Owned Facility"
"B. R. OBERT & SONS, LLC","ME0000002302500737","ME","110038937568","212319",44.77699,-69.81281,,"POF","Privately Owned Facility"
"BACKYARD FARMS, LLC","ME0000002302500937","ME","110039678471","111419",44.826262,-69.847531,,"POF","Privately Owned Facility"
"BAILEY MANUFACTURING CORPORATION","ME0000002301700041","ME","110039662674","337211",44.00577,-70.96498,,"POF","Privately Owned Facility"
"BANGOR & AROOSTOOK RR","ME0000002301900086","ME","110031351720","999999",44.79144,-68.85858,,"POF","Privately Owned Facility"
"BANGOR DRY CLEANERS","ME0000002301901139","ME","110008437691","812310",44.836214,-68.739526,,"POF","Privately Owned Facility"
"BANGOR DUMP","ME0000002301900047","ME","110038948217","999999",44.80332,-68.77048,,"POF","Privately Owned Facility"
"BANGOR HUMANE SOCIETY","ME0000002301900019","ME","110001298435","541940",44.82348,-68.73551,,"POF","Privately Owned Facility"
"BANGOR HYDRO- GRAHAM STAT","ME0000002301900001","ME","110043378662","999999",44.82303,-68.70725,,"POF","Privately Owned Facility"
"BANGOR HYDRO-ELECTRIC","ME0000002301900616","ME","110015713664","221112",45.607223,-68.543886,,"POF","Privately Owned Facility"
"BANGOR MALL, LLC","ME0000002301900936","ME","110028007430","452990",44.83217,-68.75193,,"POF","Privately Owned Facility"
"BANGOR SAVINGS BANK","ME000A001134","ME","110070248485","522180",44.8306292,-68.7923966,,"POF","Privately Owned Facility"
"BARBER FOODS, LLC","ME0000002300500569","ME","110000563621","311615",43.645667,-70.278806,,"POF","Privately Owned Facility"
"BATH IRON WORKS CORPORATION","ME0000002300500154","ME","110039678346","336611",43.91601,-69.885034,22363,"POF","Privately Owned Facility"
"BATH IRON WORKS CORPORATION","ME0000002302300001","ME","110000314605","336611",43.91,-69.815,22582,"POF","Privately Owned Facility"
"BATH MEMORIAL HOSPITAL","ME0000002302300010","ME","110038937489","622110",43.931449,-69.814514,,"POF","Privately Owned Facility"
"BATH-BRUNSWICK VETERINARY ASSOCIATES, INC.","ME0000002300500226","ME","110039662996","541940",43.90993,-69.90598,,"POF","Privately Owned Facility"
"BB DEVELOPMENT LLC D/B/A OXFORD CASINO","ME000A001114","ME","110064832908","713210",44.11525,-70.44548,,,
"BEACHMERE INN","ME0000002303101004","ME","110039662754","999999",43.24499,-70.59389,,"POF","Privately Owned Facility"
"BEAR RIVER SAND & GRAVEL","ME0000002301700992","ME","110042262583","212319",44.50275,-70.81459,,"POF","Privately Owned Facility"
"BEAVER WOOD JOINT VENTURE","ME0000002301900099","ME","110040550132","221111",45.4455258,-68.5344538,,"POF","Privately Owned Facility"
"BELFAST VETERINARY HOSPITAL, INC.","ME0000002302700638","ME","110001839538","541940",44.40736,-68.99212,,"POF","Privately Owned Facility"
"BELFAST, TOWN OF","ME0000002302700012","ME","110038937595","999999",44.4635016,-69.0375706,,"POF","Privately Owned Facility"
"BENTLEY WARREN TRUCKING","ME0000002303100079","ME","110007273565","999999",43.1465512,-70.7743648,,"POF","Privately Owned Facility"
"BERWICK IRON AND METAL RECYCLING, INC","ME0000002303101041","ME","110041848141","423930",43.25,-70.84,,"POF","Privately Owned Facility"
"BETHEL FURNITURE STOCK, INC.","ME0000002301700101","ME","110062747256","999999",44.41596,-70.83889,,"POF","Privately Owned Facility"
"BIDDEFORD HIGH SCHOOL","ME0000002303100024","ME","110036703396","611110",43.49511,-70.47119,,"POF","Privately Owned Facility"
"BIDDEFORD HOLDINGS, LLC","ME0000002303100732","ME","110039681421","311812",43.47207,-70.48697,,"POF","Privately Owned Facility"
"BIDDEFORD TEXTILE COMPANY","ME0000002303100085","ME","110003554993","335211",43.49293,-70.44948,,"POF","Privately Owned Facility"
"BIG APPLE","ME0000002301912808","ME","110001825981","999999",44.804193,-68.764713,,"POF","Privately Owned Facility"
"BISHOP CONCRETE LLC","ME0000002302100872","ME","110016687833","327320",45.342909,-69.051034,,"POF","Privately Owned Facility"
"BLUE RIDGE FIBERBOARD","ME0000002300100012","ME","110001830573","321219",43.99236,-70.052809,,"POF","Privately Owned Facility"
"BLUE ROCK INDUSTRIES","ME0000002300500010","ME","110038930440","324121",43.59036,-70.2993,,"POF","Privately Owned Facility"
"BLUETRITON BRANDS, INC.","ME0000002303100769","ME","110007224976","312112",43.67436,-70.64069,,"POF","Privately Owned Facility"
"BLUETRITON BRANDS, INC.","ME0000002300100701","ME","110001681234","312112",44.02875,-70.35485,,"POF","Privately Owned Facility"
"BOOTHBAY HARBOR SHIPYARD, INC.","ME0000002302300006","ME","110038921646","336611",43.84961,-69.63086,,"POF","Privately Owned Facility"
"BORALEX ATHENS ENERGY INC.","ME0000002302190013","ME","110028023742","221117",44.94502,-69.65843,,"POF","Privately Owned Facility"
"BORALEX SHERMAN LLC","ME0000002300390024","ME","110041144678","221119",45.898421,-68.434278,,"POF","Privately Owned Facility"
"BOUNDARY CO.","ME0000002302500779","ME","110005970878","321113",45.6457,-70.2508,,"POF","Privately Owned Facility"
"BOWDOIN COLLEGE","ME0000002300500002","ME","110001682894","611310",43.905233,-69.96511,,"POF","Privately Owned Facility"
"BP OIL INC","ME0000002301900092","ME","110001681314","999999",44.795916,-68.77076,,"POF","Privately Owned Facility"
"BREWER HIGH SCHOOL","ME0000002301900083","ME","110021962189","611110",44.78119,-68.75544,,"SDT","School District"
"BREWER VETERINARY CLINIC, P.A.","ME0000002301900439","ME","110039663030","812220",44.78279,-68.7322,,"POF","Privately Owned Facility"
"BRIDGETON,TOWN OF","ME0000002300500065","ME","110038930501","999999",44.05489,-70.71278,,"POF","Privately Owned Facility"
"BRIDGTON HOSPITAL","ME0000002300500822","ME","110010406541","622110",44.04696,-70.71345,,"POF","Privately Owned Facility"
"BROADWAY VETERINARY CLINIC, P.A.","ME0000002301900023","ME","110039663076","541940",44.84311,-68.79817,,"POF","Privately Owned Facility"
"BROCKWAY-SMITH COMPANY","ME000A001171","ME","110071468262","493110",43.674217,-70.32131,,"POF","Privately Owned Facility"
"BROOKLAWN MEMORIAL PARK","ME0000002300500181","ME","110001298391","812210",43.65174,-70.3206,,"POF","Privately Owned Facility"
"BROOKLIN, TOWN OF","ME0000002300900054","ME","110007315431","999999",44.2757048,-68.5346757,,"POF","Privately Owned Facility"
"BROWN INDUSTRIAL GROUP, INC.","ME000ACIN000020","ME","110070144348","212321",43.2993201,-70.842062,,"POF","Privately Owned Facility"
"BROWN INDUSTRIAL GROUP, INC.","ME0000002303100694","ME","110012162266","212319",43.2993201,-70.842062,,"POF","Privately Owned Facility"
"BRUNSWICK AD, LLC","ME0000002300501086","ME","110070072186","221119",43.896431,-69.9734865,,"POF","Privately Owned Facility"
"BRUNSWICK HIGH SCHOOL","ME0000002300500095","ME","110001839547","999999",43.88499,-69.97977,,"POF","Privately Owned Facility"
"BRUNSWICK PLAZA DRY CLEANING","ME0000002300563026","ME","110006513558","812320",43.91341,-69.96425,,"POF","Privately Owned Facility"
"BRUNSWICK,TOWN OF","ME0000002300500066","ME","110038930510","999999",43.91624,-69.96349,,"POF","Privately Owned Facility"
"BUCKEYE TERMINALS, LLC","ME0000002301900091","ME","110025247793","424710",44.782168,-68.780378,,"POF","Privately Owned Facility"
"BUCKSPORT GENERATION LLC","ME0000002300900001","ME","110025329963","221112 238910",44.574483,-68.811075,,"POF","Privately Owned Facility"
"BUCKSPORT MILL LLC","ME0000002300901124","ME","110025329963","221112 238910",44.574483,-68.811075,,"POF","Privately Owned Facility"
"BUMBLE BEE SEAFOODS, LLC","ME0000002302300011","ME","110008053550","311711",43.92676,-69.81191,,"POF","Privately Owned Facility"
"BUSY BEE CLEANERS","ME0000002300563049","ME","110003556919","812320",43.8367,-70.44047,,"POF","Privately Owned Facility"
"BUTLER`S CLEANERS","ME0000002302563078","ME","110020580726","812320",44.76273,-69.71522,,"POF","Privately Owned Facility"
"C & L AEROSPACE HOLDINGS, LLC","ME000000A1093","ME","110069567285","488190",44.81184,-68.81945,,"POF","Privately Owned Facility"
"C M ALMY & SONS","01000000E000000031","ME","110039681644","999999",44.78846,-69.38366,,,
"C. B. CUMMINGS & SONS CO.","ME0000002301700305","ME","110003553431","999999",44.212066,-70.544171,,"POF","Privately Owned Facility"
"C. R. TANDBERG, INC.","ME000CIN000203","ME","110071312802","212321",43.83526,-70.43331,,"POF","Privately Owned Facility"
"C. R. TANDBERG, INC.","ME000ACIN000064","ME","110070144358","212321",43.7946894,-70.4053294,,"POF","Privately Owned Facility"
"C.B. BOATWORKS, INC.","ME0000002301700979","ME","110046385531","336612",44.46796,-70.35892,,"POF","Privately Owned Facility"
"CADC PORTLAND 340, LLC","ME000A001138","ME","110070386062","518210",43.658,-70.26141,,"POF","Privately Owned Facility"
"CALAIS COMMUNITYHOSPITAL","ME0000002302900022","ME","110001298364","622110",45.17991,-67.26983,,"POF","Privately Owned Facility"
"CAMDEN TANNING CORPORATIO","ME0000002301300019","ME","110015329928","316110",44.21635,-69.07778,,"POF","Privately Owned Facility"
"CAMDEN YARNS","ME0000002300100045","ME","110038929354","313111",44.0221792,-70.1173875,,"POF","Privately Owned Facility"
"CAPE ELIZABETH HIGH SCHOOL (SURRENDERED)","ME0000002300500144","ME","110007272888","611110",43.59194,-70.22662,,"POF","Privately Owned Facility"
"CAPE ELIZABETH MIDDLE SCHOOL (SURRENDERED)","ME0000002300500145","ME","110007272897","611110",43.59583,-70.23119,,"POF","Privately Owned Facility"
"CARD'S EXCAVATION & TRACTOR WORK","ME0000002302300873","ME","110038937504","212319",44.0734328,-69.9707483,,"POF","Privately Owned Facility"
"CARD'S EXCAVATION & TRACTOR WORK","ME000ACIN000002","ME","110070144344","212321",44.00815,-69.95935,,"POF","Privately Owned Facility"
"CARIBOU HIGH SCHOOL","ME0000002300300072","ME","110038930173","611110",46.869292,-68.033835,,"POF","Privately Owned Facility"
"CARIBOU,TOWN OF","ME0000002300300045","ME","110038930137","999999",46.86062,-68.01107,,"POF","Privately Owned Facility"
"CARLETON WOOLEN MILL","ME0000002301100027","ME","110038944863","999999",44.309991,-69.9630934,,"POF","Privately Owned Facility"
"CARRABASSETT VALLEY SANITARY DISTRICT","ME0000002300700650","ME","110028004273","221320",45.08905,-70.33106,,"CTG","Municipality"
"CARRIER CHIPPING, INC.","ME0000002301100813","ME","110013388262","321999 484121",44.7892707,-69.6677336,,"POF","Privately Owned Facility"
"CARROLL E WALTON","ME000ACIN000096","ME","110070144368","212321",46.72949,-68.02934,,"POF","Privately Owned Facility"
"CARROLL MATERIALS, LLC","ME0000002303100089","ME","110007273752","212321 324121 327320",43.66675,-70.722972,,"POF","Privately Owned Facility"
"CARROLL MATERIALS, LLC","ME000CIN000233","ME","110071719352","212321",43.697433,-70.765018,,,
"CASCADES HOLDINGS US INC.","ME0000002300100600","ME","110013288566","322121",44.044848,-70.29881,,"POF","Privately Owned Facility"
"CASCO BAY ENERGY COMPANY, LLC","ME0000002301900666","ME","110042400666","221112",44.822836,-68.708217,,"POF","Privately Owned Facility"
"CASCO BAY STEEL STRUCTURES, INC.","ME000A001154","ME","110070275550","332312",43.61322,-70.30444,,"POF","Privately Owned Facility"
"CASH ENERGY INC","ME0000002300555600","ME","110001825954","999999",43.65695,-70.28894,,"POF","Privately Owned Facility"
"CENTRAL EQUIMENT COMPANY","ME000CIN000205","ME","110071334983","212321",44.9107504,-68.6912091,,"POF","Privately Owned Facility"
"CENTRAL EQUIPMENT COMPANY","ME000ACIN000122","ME","110070144375","212321",44.8485167,-68.8504049,,"POF","Privately Owned Facility"
"CENTRAL MAIN POWER COMPANY","ME0000002303100882","ME","110038931154","999999",43.14677,-70.67998,,"POF","Privately Owned Facility"
"CENTRAL MAINE & QUEBEC RAILWAY US INC.","ME000A001167","ME","110070236521","488210",45.231182,-68.969499,,"POF","Privately Owned Facility"
"CENTRAL MAINE COMMUNITY COLLEGE","ME0000002300100819","ME","110012162346","611210",44.13404,-70.22892,,"SDT","School District"
"CENTRAL MAINE CONCRETE LLC","ME000AGP164000057","ME","110071642646","327320",44.73726,-69.75817,,"POF","Privately Owned Facility"
"CENTRAL MAINE MEDICAL CENTER","ME0000002300100008","ME","110001830742","622110",44.101541,-70.214594,,"POF","Privately Owned Facility"
"CENTRAL MAINE POWER COMPANY","ME0000002301100952","ME","110038040786","221121",44.3349191,-69.7342048,,"POF","Privately Owned Facility"
"CENTRAL MAINE POWER COMPANY","ME0000002303100883","ME","110038931163","221121",43.1099631,-70.7338332,,"POF","Privately Owned Facility"
"CENTRAL MAINE POWER COMPANY","ME0000002301100666","ME","110011507379","221121",44.312562,-69.818399,,"POF","Privately Owned Facility"
"CHADWICK-BAROSS, INC.","ME000ACIN000124","ME","110070144376","212321",43.68533,-70.34216,,"POF","Privately Owned Facility"
"CHARTER COMMUNICATIONS, LLC","ME000A001143","ME","110070560724","517311",43.86796,-70.66053,,"POF","Privately Owned Facility"
"CHASE & HAMLYN MINERAL EXTRACTION","ME000ACIN000066","ME","110070144359","212321",43.3268,-70.67345,,"POF","Privately Owned Facility"
"CHASE EXCAVATING, INC.","ME000ACIN000033","ME","110010599227","212319 212321",43.73169,-70.29621,,"POF","Privately Owned Facility"
"CHASE EXCAVATING, INC.","ME000ACIN000032","ME","110010599227","212319 212321",43.73169,-70.29621,,"POF","Privately Owned Facility"
"CHASE EXCAVATING, INC.","ME0000002300500904","ME","110010599227","212319 212321",43.73169,-70.29621,,"POF","Privately Owned Facility"
"CHEMFAST","ME000AEPA000008","ME","110070624561","424690",43.67955,-70.41186,,,
"CHERRYFIELD FOODS INC","ME00000023029X0113","ME","110000726331","311411 311421",44.609444,-67.927778,,"POF","Privately Owned Facility"
"CHERRYFIELD FOODS, INC.","ME0000002302900903","ME","110000726331","311411 311421",44.609444,-67.927778,,"POF","Privately Owned Facility"
"CHESTER ANIMAL HOSPITAL","ME0000002301900703","ME","110038948967","999999",45.4455258,-68.5344538,,"POF","Privately Owned Facility"
"CHESTERVILLE SAND AND GRAVEL","ME0000002300700917","ME","110024825340","999999",44.5143,-70.06988,,"POF","Privately Owned Facility"
"CHEVRON OIL CO","ME0000002301909010","ME","110038950953","999999",44.7289801,-68.9499635,,"POF","Privately Owned Facility"
"CHRISTY'S STORE # 317","ME0000002303181820","ME","110003552496","999999",43.50815,-70.40769,,"POF","Privately Owned Facility"
"CIANBRO CORPORATION","ME000AGP164000043","ME","110070740263","327320",43.0759,-70.73489,,"POF","Privately Owned Facility"
"CIANBRO EASTERN MANUFACTURING FACILITY","ME0000002301900005","ME","110000314561","237990",44.77168,-68.78034,,"POF","Privately Owned Facility"
"CIANBRO FABRICATION AND COATING CORPORATION","ME000AEPA000004","ME","110070380192","332312",44.7896,-68.83568,,"POF","Privately Owned Facility"
"CIANBRO FABRICATION AND COATING CORPORATION","ME0000002302500794","ME","110015743739","332999",44.77,-69.36,,"POF","Privately Owned Facility"
"CIMENT QUEBEC INC.","ME0000002300500825","ME","110013388244","327320",43.80346,-70.67914,,"POF","Privately Owned Facility"
"CINTAS CORPORATION NO.3","ME0000002300500999","ME","110055570047","812332",43.65703,-70.38281,,"POF","Privately Owned Facility"
"CITGO PETROLEUM CORPORATION","ME0000002300500060","ME","110000314393","424710",43.637314,-70.267927,3103,"POF","Privately Owned Facility"
"CITY OF AUGUSTA - AUGUSTA CIVIC CENTER","ME0000002301100948","ME","110039664761","531120",44.34258,-69.7978,,"CTG","Municipality"
"CITY OF AUGUSTA - CATC/CONY HS","ME0000002301100899","ME","110030739333","611110",44.32081,-69.76143,,"SDT","School District"
"CITY OF AUGUSTA - CONY HIGH SCHOOL","ME0000002301100829","ME","110021968487","611110",44.31627,-69.76546,,"CTG","Municipality"
"CITY OF AUGUSTA - HATCH HILL LANDFILL","ME0000002301100030","ME","110038944872","562212",44.3519104,-69.7476148,,"CTG","Municipality"
"CITY OF BANGOR","ME0000002301901087","ME","110056292792","711310",44.78861,-68.77796,,"CTG","Municipality"
"CITY OF BANGOR","ME0000002301900906","ME","110041432170","488119",44.809008,-68.817115,,"MXO","Mixed Ownership (e.g., Public/Private)"
"CITY OF BANGOR","ME0000002301900088","ME","110001839262","611110",44.8297,-68.78528,,"SDT","School District"
"CITY OF BATH LANDFILL","ME0000002302300980","ME","110039666073","562212",43.94,-69.82,,"CTG","Municipality"
"CITY OF BIDDEFORD, BIDDEFORD MIDDLE SCHOOL","ME0000002303100926","ME","110036721063","611110",43.472509,-70.468033,,"SDT","School District"
"CITY OF CARIBOU, CARY MEDICAL CENTER","ME0000002300300362","ME","110007273707","622110",46.87808,-68.00951,,"POF","Privately Owned Facility"
"CITY OF PORTLAND","ME0000002300500417","ME","110012166217","611110",43.654106,-70.269705,,"SDT","School District"
"CITY OF PORTLAND","ME0000002300500194","ME","110001839609","922190",43.68085,-70.28955,,"CTG","Municipality"
"CITY OF PORTLAND","ME0000002300500169","ME","110022015512","611110",43.706201,-70.290069,,"SDT","School District"
"CITY OF PORTLAND","ME0000002300500167","ME","110001298202","611110",43.67109,-70.29502,,"SDT","School District"
"CITY OF PORTLAND","ME0000002300500987","ME","110056298288","711110",43.6602,-70.25776,,"MXO","Mixed Ownership (e.g., Public/Private)"
"CITY OF PORTLAND","ME0000002300500170","ME","110001298211","611110",43.69531,-70.29164,,"SDT","School District"
"CITY OF PORTLAND","ME0000002300501082","ME","110055574347","488190 922120",43.65908,-70.25212,,"CTG","Municipality"
"CITY OF PORTLAND","ME0000002300500068","ME","110035937047","336611",43.65819,-70.24966,,"CTG","Municipality"
"CITY OF PORTLAND","ME0000002300500168","ME","110022257038","611110",43.67646,-70.29467,,"POF","Privately Owned Facility"
"CITY OF PORTLAND","ME0000002300500078","ME","110038040768","921110",43.65236,-70.34045,,"CTG","Municipality"
"CITY OF PORTLAND","ME0000002300500238","ME","110012166191","611110",43.65945,-70.25898,,"CTG","Municipality"
"CITY OF PORTLAND","ME0000002300500890","ME","110027225642","711310",43.661507,-70.194607,,"CTG","Municipality"
"CITY OF SOUTH PORTLAND","ME0000002300501074","ME","110058899535","611110",43.620614,-70.268488,,"SDT","School District"
"CITY OF WESTBROOK - WESTBROOK SCHOOL DEPARTMENT","ME0000002300500114","ME","110054371880","611110",43.7079198,-70.3526019,,"CTG","Municipality"
"CITY OF WESTBROOK- WESTBROOK COMMUNITY CENTER","ME0000002300500141","ME","110001839084","624110",43.68987,-70.35928,,"CTG","Municipality"
"CITY SERVICE OIL","ME0000002301909012","ME","110038950962","999999",43.9824454,-69.6927542,,"POF","Privately Owned Facility"
"CIVES CORPORATION","ME000A001175","ME","110000581424","332312",44.3606,-69.74186,,"POF","Privately Owned Facility"
"CLEAN FUELS","ME000AEPA000009","ME","110040448165","493190",44.45484,-69.67939,,,
"CLEAN HARBORS ENV SERV INC","ME0000002300500097","ME","110000759858","924110",43.639071,-70.283202,,"POF","Privately Owned Facility"
"CLEAN MAINE CARBON, LLC","ME000A001164","ME","110071328287","335991",45.45461,-69.60888,,"POF","Privately Owned Facility"
"COASTAL ENERGY, INC","ME0000002300909034","ME","110069427784","454310",44.57382,-68.45346,,,
"COLBY-COOP.STARCH CO","ME0000002300300005","ME","110038930075","999999",46.857586,-68.002899,,"POF","Privately Owned Facility"
"COLD BROOK ENERGY, INC.","ME0000002301909083","ME","110000865485","424710",44.778673,-68.783956,,"POF","Privately Owned Facility"
"COLLINS WILDWOOD PET CREMATIONS, INC.","ME0000002301900818","ME","110012166128","812220",45.24559,-68.56559,,"POF","Privately Owned Facility"
"COLUMBIA FOREST PRODUCTS, INC.","ME0000002300300073","ME","110010377617","113310 321211",46.702012,-68.043337,,"POF","Privately Owned Facility"
"COMCAST OF MAINE/NEW HAMPSHIRE, INC.","ME000A001149","ME","110070666787","517311",43.876954,-70.115942,,"POF","Privately Owned Facility"
"COMMERCIAL PAVING, LLC","ME0000002300501088","ME","110056299919","324121",43.70512,-70.40735,,"POF","Privately Owned Facility"
"CONGRESS FEDERAL REALTY, LLC","ME0000002300516000","ME","110012172031","523991",43.6574,-70.25829,,"POF","Privately Owned Facility"
"CONSOLIDATED COMMUNICATIONS","ME000EPA000016","ME","110071084256","517919",43.443194,-70.782611,,,
"CONSOLIDATED COMMUNICATIONS OF NORTHERN NEW ENGLAND COMPANY, LLC DBA FAIRPOINT","ME0000002300500795","ME","110003556250","517111",43.71685,-70.30286,,"POF","Privately Owned Facility"
"CONSOLIDATED COMMUNICATIONS OF NORTHERN NEW ENGLAND COMPANY, LLC DBA FAIRPOINT","ME0000002301900796","ME","110002356398","517111",44.80374,-68.76987,,"POF","Privately Owned Facility"
"CONSOLIDATED COMMUNICATIONS OF NORTHERN NEW ENGLAND COMPANY, LLC DBA FAIRPOINT","ME0000002300580439","ME","110031159172","517111",43.6558,-70.26408,,"POF","Privately Owned Facility"
"COOPER WIRING DEVICES, INC.","ME0000002300500672","ME","110000314222","335931",43.91814,-69.96348,,"POF","Privately Owned Facility"
"COPP EXCAVATING INC","ME000A001172","ME","110071667176","212321",43.882102,-70.307094,,"POF","Privately Owned Facility"
"CORINTH PELLETS, LLC","ME0000002301900956","ME","110030739351","321219",44.993209,-69.008487,,"POF","Privately Owned Facility"
"CORNVILLE CONSTRUCTION, INC.","ME0000002302500747","ME","110012166119","212319",44.7892707,-69.6677336,,"POF","Privately Owned Facility"
"CORNWALL INDUSTRIES","ME0000002301700049","ME","110038948075","999999",44.2480012,-70.4908157,,"POF","Privately Owned Facility"
"COSTIGAN CHIP LLC","ME0000002301900671","ME","110039675722","321999",45.013456,-68.605676,,"POF","Privately Owned Facility"
"COTTON CREAMATORY","ME000AGP165000021","ME","110067383469","812220",44.090611,-69.818206,,"POF","Privately Owned Facility"
"COTTON CREMATORY","ME000AGP165000010","ME","110067383469","812220",44.090611,-69.818206,,"POF","Privately Owned Facility"
"COUNTY OF CUMBERLAND - CUMBERLAND COUNTY JAIL","ME0000002300500552","ME","110012166280","922140",43.6543535,-70.2976108,,"CNG","County Government"
"COURTNEY CLEANERS","ME0000002303163154","ME","110020580940","812320",43.41664,-70.7526,,"POF","Privately Owned Facility"
"COUSINEAU WOOD PRODUCTS OF MAINE, LLC","ME0000002302500005","ME","110021175921","113310 321113",44.852122,-69.903214,,"POF","Privately Owned Facility"
"COW PLAZA 1 LLC","ME0000002300500807","ME","110041711449","999999",43.65717,-70.25584,,"POF","Privately Owned Facility"
"COYNE TEXTILE SERVICES","ME00000023001E0001","ME","110037236309","812332",44.07922,-70.2587,,"POF","Privately Owned Facility"
"CPK MANUFACTURING, LLC","ME000A001117","ME","110000314525","326199",44.35854,-69.73987,7728,"POF","Privately Owned Facility"
"CPRC GROUP LLC","ME0000002300500182","ME","110001298417","324121",43.60534,-70.30628,,"POF","Privately Owned Facility"
"CRISTY'S STORE #315","ME0000002303118088","ME","110008433098","999999",43.49133,-70.45515,,"POF","Privately Owned Facility"
"CROOKER CONSTRUCTION, LLC","ME000AGP164000032","ME","110070132840","327320",43.94265,-69.96892,,"POF","Privately Owned Facility"
"CROOKER CONSTRUCTION, LLC","ME0000002302300187","ME","110001092898","212321 237310 324121",43.938853,-69.975571,,"POF","Privately Owned Facility"
"CROOKER CONSTRUCTION, LLC","ME0000002301500507","ME","110010391254","212319",44.198014,-69.6196894,,"POF","Privately Owned Facility"
"CROSS-FIRE SOIL REMEDIATION LLC","ME0000002300900951","ME","110028717618","562910",44.6858027,-68.3947977,,"POF","Privately Owned Facility"
"CUSTOM CRUSHING CO","ME0000002300500110","ME","110010391281","212321",43.68724,-70.29813,,"POF","Privately Owned Facility"
"CUTTS ISLAND, LLC","ME0000002303100026","ME","110007278383","316219",43.550411,-70.4663413,,"POF","Privately Owned Facility"
"D. A. WILSON & COMPANY, LLC","ME000ACIN000174","ME","110070144392","212321",44.3930372,-70.8374248,,"POF","Privately Owned Facility"
"DAAQUAM MAINE, INC.","ME0000002301909050","ME","110002476687","321113",45.01,-68.629722,,"POF","Privately Owned Facility"
"DAMARISCOTTA CONCRETE PLANT","ME0000002301500938","ME","110027226062","327320",44.022351,-69.4907559,,"POF","Privately Owned Facility"
"DANA WARP MILL, LLC","ME0000002300500781","ME","110001681181","999999",43.67962,-70.368707,,"POF","Privately Owned Facility"
"DANISCO USA INC.","ME0000002301300002","ME","110000581512","311999",44.107014,-69.104236,719,"POF","Privately Owned Facility"
"DAVID BRAGG","ME0000002301700707","ME","110007225010","212321",44.41204,-70.51077,,"POF","Privately Owned Facility"
"DAVID HILL","ME000CIN000188","ME","110070560646","212321",43.568,-70.59976,,"POF","Privately Owned Facility"
"DAYTON SAND & GRAVEL COMPANY, INC.","ME0000002303100583","ME","110039666698","212321 324121",43.53607,-70.59116,,"POF","Privately Owned Facility"
"DCP SEARSPORT LLC","ME0000002302701057","ME","110043630764","424710",44.46386,-68.904058,,"POF","Privately Owned Facility"
"DEAD RIVER COMPANY","ME0000002303156530","ME","110001825936","999999",43.15038,-70.66666,,"POF","Privately Owned Facility"
"DEAD RIVER COMPANY","ME0000002300510046","ME","110001825963","999999",43.908757,-69.94857,,"POF","Privately Owned Facility"
"DEAD RIVER COMPANY","ME0000002302945140","ME","110010390344","324199",45.18676,-67.26734,,"POF","Privately Owned Facility"
"DEARBORN BROTHERS CONSTRUCTION","ME000ACIN000009","ME","110043219344","212321",43.64492,-70.4901,,"POF","Privately Owned Facility"
"DEARBORN BROTHERS CONSTRUCTION, INC.","ME000ACIN000099","ME","110043219344","212321",43.64492,-70.4901,,"POF","Privately Owned Facility"
"DEARBORN BROTHERS CONSTRUCTION, INC.","ME0000002303100878","ME","110062747345","212319",43.5686097,-70.7442809,,"POF","Privately Owned Facility"
"DEEP CREEK GRAZING ASSOCIATION, INC.","ME0000002301300840","ME","110013388208","721110",44.30145,-68.99105,,"POF","Privately Owned Facility"
"DEPT OF VETERANS AFFAIRS","ME0000002301100372","ME","110001839495","622110",44.28025,-69.70411,,"FDF","Federal Facility (U.S. Government)"
"DEPT OF VETERANS AFFAIRS (DUPLICATE DON'T USE)","ME0000002301109031","ME","110001839495","622110",44.28025,-69.70411,,"FDF","Federal Facility (U.S. Government)"
"DER-TEX CORPORATION","ME0000002303100801","ME","110001681163","339999",43.51938,-70.4516,,"POF","Privately Owned Facility"
"DEXTER SHOE COMPANY","ME0000002301900129","ME","110000771852","316219",45.0122,-69.29418,,"POF","Privately Owned Facility"
"DIAMOND MATCH","ME0000002301100006","ME","110038944854","999999",44.550456,-69.713556,,"POF","Privately Owned Facility"
"DICAPERL MINERALS CORP.","ME0000002301300330","ME","110010427136","327992",44.08475,-69.14463,,"POF","Privately Owned Facility"
"DIESEL FUEL SYSTEMS, INC.","ME000AEPA000016","ME","110070936805","811111",44.78128,-68.81944,,"POF","Privately Owned Facility"
"DIODES US MANUFACTURING INCORPORATED","ME0000002300500370","ME","110000314375","334413",43.640687,-70.325903,1651,"POF","Privately Owned Facility"
"DIRENZO AND SONS INC","ME0000002300500158","ME","110064451114","212321",43.7079198,-70.3526019,,"POF","Privately Owned Facility"
"DIRIGO DOWELS, INC.","ME0000002302500004","ME","110013899308","321999",44.88551,-70.0931,,"POF","Privately Owned Facility"
"DOROTHEA DIX PSYCHIATRIC CENTER","ME0000002301900002","ME","110001839164","622210",44.81173,-68.7433,,"STF","State Government"
"DOUBLETREE HOTEL","ME00000023005CFC27","ME","110014436887","999999",43.65718,-70.28954,,"POF","Privately Owned Facility"
"DOUG GOTT & SONS, INC.","ME000ACIN000076","ME","110046118330","212321",44.25556,-68.33842,,"POF","Privately Owned Facility"
"DOUG GOTT & SONS, INC.","ME000ACIN000075","ME","110044213525","212321",44.47479,-68.33148,,"POF","Privately Owned Facility"
"DOUG GOTT & SONS, INC.","ME0000002300900686","ME","110007315627","212313",44.6858027,-68.3947977,,"POF","Privately Owned Facility"
"DOUG GOTT & SONS, INC.","ME000ACIN000025","ME","110046118330","212321",44.25556,-68.33842,,"POF","Privately Owned Facility"
"DOUG GOTT & SONS, INC.","ME000ACIN000024","ME","110046118330","212321",44.25556,-68.33842,,"POF","Privately Owned Facility"
"DOUGLAS DYNAMICS, L.L.C.","ME0000002301300727","ME","110002088507","333120",44.08924,-69.12486,135,"POF","Privately Owned Facility"
"DOWN EAST COMMUNITY HOSPITAL","ME0000002302900881","ME","110039665127","622110",44.7139,-67.47678,,"POF","Privately Owned Facility"
"DOWN EAST COMMUNITY HOSPITAL","ME0000002302900069","ME","110039665127","622110",44.7139,-67.47678,,"POF","Privately Owned Facility"
"DOWN EAST EMULSIONS","ME000AEPA000003","ME","110040073899","424710 424720",44.78966,-68.83511,,"POF","Privately Owned Facility"
"DOWN EAST EMULSIONS, LIMITED LIABILITY COMPANY","ME000A001140","ME","110040073899","424710 424720",44.78966,-68.83511,,"POF","Privately Owned Facility"
"DOWN MAINE VETERINARY CLINIC, P.A.","ME0000002303100077","ME","110007273556","812220",43.4119359,-70.7373256,,"POF","Privately Owned Facility"
"DOWNEAST MACHINE & ENGINEERING, INC.","ME000000A001101","ME","110057218345","332710",44.11053,-70.39312,,"POF","Privately Owned Facility"
"DOWNEAST MACHINE & ENGINEERING, INC.","ME0000002300101102","ME","110069217136","332312",44.23882,-70.08376,,"POF","Privately Owned Facility"
"DOWNEAST TEXTILES","ME00000023005E0002","ME","110046595555","999999",43.685756,-70.29055,,"POF","Privately Owned Facility"
"DOWNEAST WOODCRAFTERS","ME0000002302500031","ME","110001298382","999999",44.798418,-69.886003,,"POF","Privately Owned Facility"
"DRAGON PRODUCTS","ME0000002301700013","ME","110007273057","327320",44.479722,-70.325278,,"POF","Privately Owned Facility"
"DRAGON PRODUCTS CO","ME0000002301500008","ME","110038948002","327320",43.6954216,-70.2886521,,"POF","Privately Owned Facility"
"DRAGON PRODUCTS CO","ME0000002301500223","ME","110012172077","999999",44.3519104,-69.7476148,,"POF","Privately Owned Facility"
"DRAGON PRODUCTS CO","ME0000002301369004","ME","110038947986","999999",44.1280105,-69.2438847,,"POF","Privately Owned Facility"
"DRAGON PRODUCTS CO","ME0000002300100534","ME","110002057862","212321 324121 327310",44.06451,-70.19836,,"POF","Privately Owned Facility"
"DRAGON PRODUCTS COMPANY","ME0000002300300289","ME","110038930217","999999",46.9114948,-68.0291891,,"POF","Privately Owned Facility"
"DRAGON PRODUCTS COMPANY, LLC","ME0000002300900004","ME","110038944756","327320",44.6237979,-68.7497418,,"POF","Privately Owned Facility"
"DRAGON PRODUCTS COMPANY, LLC","ME0000002301500013","ME","110012172068","327320",44.4905874,-70.2945474,,"POF","Privately Owned Facility"
"DRAGON PRODUCTS COMPANY, LLC","ME0000002300500591","ME","110062690404","327320",43.5896271,-70.3661914,,"POF","Privately Owned Facility"
"DRAGON PRODUCTS COMPANY, LLC","ME000AGP164000002","ME","110070132965","327320",46.69658,-68.01993,,"POF","Privately Owned Facility"
"DRAGON PRODUCTS COMPANY, LLC","ME000ACIN000104","ME","110070144372","327320",44.107714,-69.1714252,,"POF","Privately Owned Facility"
"DRAGON PRODUCTS COMPANY, LLC","ME0000002303100740","ME","110001839672","327320",43.47845,-70.48172,,"POF","Privately Owned Facility"
"DRAGON PRODUCTS COMPANY, LLC","ME000AGP164000003","ME","110070132750","327320",47.2741176,-68.3982297,,"POF","Privately Owned Facility"
"DRAGON PRODUCTS COMPANY, LLC","ME000ACIN000105","ME","110070144372","327320",44.107714,-69.1714252,,"POF","Privately Owned Facility"
"DRAGON PRODUCTS COMPANY, LLC","ME0000002300500514","ME","110038944006","327320",43.9757686,-70.6392975,,"POF","Privately Owned Facility"
"DRAGON PRODUCTS COMPANY, LLC","ME0000002300300052","ME","110010391094","212321",46.688378,-67.9933262,,"POF","Privately Owned Facility"
"DRAGON PRODUCTS COMPANY, LLC","ME0000002300500011","ME","110001682910","327320",43.69784,-70.26018,,"POF","Privately Owned Facility"
"DRAGON PRODUCTS COMPANY, LLC","ME0000002302500300","ME","110007273315","327320",44.605556,-69.596111,,"POF","Privately Owned Facility"
"DRAGON PRODUCTS COMPANY, LLC","ME0000002300900018","ME","110038944774","327320",44.65487,-68.50384,,"POF","Privately Owned Facility"
"DRAGON PRODUCTS COMPANY, LLC","ME0000002300500090","ME","110007273770","327320",43.896431,-69.9734865,,"POF","Privately Owned Facility"
"DREAMKEEPERS INC. DBA DYERS BAY CREMATOR","ME0000002302901061","ME","110045949202","812220",44.54284,-68.42049,,"POF","Privately Owned Facility"
"DREAMKEEPERS, INC.","ME000AGP165000014","ME","110070132409","812220",44.43651,-67.9344,,"POF","Privately Owned Facility"
"DREAMKEEPERS, INC.","ME000AGP165000022","ME","110070132409","812220",44.43651,-67.9344,,"POF","Privately Owned Facility"
"DST ASSET MANAGER SOLUTIONS, INC.","ME0000002301300841","ME","110016756928","522210",44.0984,-69.10834,,"POF","Privately Owned Facility"
"DUAYNE MASCHINO & SON SAND & GRAVEL, LLC","ME000ACIN000095","ME","110070144367","212321",43.91025,-70.27593,,"POF","Privately Owned Facility"
"DURASTONE","ME0000002300500771","ME","110002057782","327331",43.61322,-70.30444,,"POF","Privately Owned Facility"
"DURATHERM WINDOW COMPANY, LLC","ME000A001133","ME","110015863528","321911",44.47262,-69.61697,,"POF","Privately Owned Facility"
"DURGIN SAND & GRAVEL, INC.","ME0000002300500833","ME","110015713753","212319",43.9049196,-70.367727,,"POF","Privately Owned Facility"
"DUVALTEX (US), INC.","ME0000002302100003","ME","110007401766","313210",45.16767,-69.38416,,"POF","Privately Owned Facility"
"DWIGHT R. MILLS, INC.","ME0000002303100497","ME","110012172228","212321",43.80328,-70.8631,,"POF","Privately Owned Facility"
"DWIGHT R. MILLS, INC.","ME000ACIN000037","ME","110070144352","212321",43.7333572,-70.8940422,,"POF","Privately Owned Facility"
"DWIGHT R. MILLS, INC.","ME000ACIN000038","ME","110070144352","212321",43.7333572,-70.8940422,,"POF","Privately Owned Facility"
"E. L. VINING & SON, INC.","ME000ACIN000097","ME","110070144369","212321",44.6597983,-70.1560683,,"POF","Privately Owned Facility"
"E. L. VINING & SON, INC.","ME000ACIN000098","ME","110070144369","212321",44.6597983,-70.1560683,,"POF","Privately Owned Facility"
"E.J. CARRIER, INC","ME0000002300300002","ME","110015591493","321113",46.6232,-68.41059,,"POF","Privately Owned Facility"
"EAGLE POINT ENERGY CENTER, LLC","ME0000002301900013","ME","110009913415","562213",44.738333,-68.825833,,"POF","Privately Owned Facility"
"EARL W. GERRISH & SONS","ME000ACIN000046","ME","110070144355","212321",45.4129088,-69.0898012,,"POF","Privately Owned Facility"
"EARL W. GERRISH & SONS","ME0000002302100785","ME","110015713726","212319",45.2868317,-68.8951088,,"POF","Privately Owned Facility"
"EARTH WASTE SYSTEMS OF MAINE INC","ME0000002303100010","ME","110007278347","332312",43.52064,-70.45442,,"POF","Privately Owned Facility"
"EASTERN BAG CONNECTION","ME0000002303100065","ME","110001839431","999999",43.49548,-70.45635,,"POF","Privately Owned Facility"
"EASTERN MAINE COMMUNITY COLLEGE","ME0000002301900025","ME","110007273379","611310",44.8271,-68.74052,,"POF","Privately Owned Facility"
"EASTERN MAINE HEALTHCARE SYSTEMS","ME0000002301900915","ME","110033139422","621610",44.77024,-68.72761,,"POF","Privately Owned Facility"
"EASTERN MAINE MEDICAL CENTER","ME0000002301900077","ME","110001839217","622110",44.808367,-68.750802,,"POF","Privately Owned Facility"
"EASTLAND WOOLEN MILLS INC","ME0000002301900007","ME","110007401702","313210",44.921667,-69.261111,,"POF","Privately Owned Facility"
"ECO MAINE","ME0000002300590006","ME","110012461004","562213",43.6557,-70.3341,,"POF","Privately Owned Facility"
"ECO MAINE D/B/A ECOMAINE","ME0000002300500697","ME","110007274074","562212",43.645986,-70.359644,,"POF","Privately Owned Facility"
"ED PELLETIER & SONS, CO.","ME0000002300300601","ME","110007371101","999999",47.34973,-68.2695,,"POF","Privately Owned Facility"
"ED PELLETIER & SONS, CO.","ME000CIN000211","ME","110070144364","212321",47.0356818,-68.1871331,,,
"ED PELLETIER & SONS, CO.","ME000ACIN000090","ME","110070144365","212321",47.3217083,-68.298213,,"POF","Privately Owned Facility"
"ED PELLETIER & SONS, CON.","ME000ACIN000089","ME","110070144364","212321",47.3217083,-68.298213,,"POF","Privately Owned Facility"
"EDWARDS MANUFACTURING CO., INC.","ME0000002301109014","ME","110007277936","313210",44.3211,-69.77317,,"POF","Privately Owned Facility"
"ELLSWORTH,CITY OF","ME0000002300900014","ME","110038944765","999999",44.6858027,-68.3947977,,"POF","Privately Owned Facility"
"ELM STREET DRY CLEANERS","ME0000002300563054","ME","110002356352","812320",43.65881,-70.26018,,"POF","Privately Owned Facility"
"ELM STREET DRY CLEANERS","ME0000002300500731","ME","110002356352","812320",43.65881,-70.26018,,"POF","Privately Owned Facility"
"ELMET TECHNOLOGIES LLC","ME0000002300100565","ME","110000314507","331491",44.071632,-70.171461,,"POF","Privately Owned Facility"
"EM BEE CLEANERS","ME0000002302763020","ME","110003556465","812320",44.425819,-69.007899,,"POF","Privately Owned Facility"
"EME BIOFUELS LLC","ME000A001189","ME","110071949085","324110",45.65063,-68.70761,,"POF","Privately Owned Facility"
"EMERA MAINE","ME0000002300900615","ME","110015713655","221112",44.381694,-68.286889,,"POF","Privately Owned Facility"
"EMERA MAINE","ME000A001137","ME","110070380083","221122",44.77846,-68.7959,,"POF","Privately Owned Facility"
"EMERA MAINE","ME0000002302900614","ME","110015713744","221112",44.913852,-67.003252,,"POF","Privately Owned Facility"
"EMERY LEE AND SONS INCORPORATED","ME0000002301900115","ME","110007273431","324121",45.63153,-68.59398,,"POF","Privately Owned Facility"
"ENGELHARD CORP.","ME0000002302900301","ME","110038937675","999999",44.9109392,-67.0091635,,"POF","Privately Owned Facility"
"ENSYN FUELS INC.","ME000A001162","ME","110071369170","325199",45.62501,-68.57297,,"POF","Privately Owned Facility"
"ENTERPRISE CASTING CORPORATION","ME0000002300100108","ME","110002026664","331511",44.07556,-70.20113,,"POF","Privately Owned Facility"
"ESTABROOK FARMS & GREENHOUSES, INC.","ME000A001165","ME","110071344649","111419",43.875484,-70.203205,,"POF","Privately Owned Facility"
"EUROVIA ATLANTIC COAST LLC","ME0000002300300033","ME","110037130075","212321 324121",46.735888,-67.961127,,"POF","Privately Owned Facility"
"EUROVIA ATLANTIC COAST LLC","ME0000002302900978","ME","110061082974","324121",44.9610605,-67.2206088,,"POF","Privately Owned Facility"
"EUROVIA ATLANTIC COAST LLC","ME000AGP164000025","ME","110070132743","327320",44.78055,-68.83646,,"POF","Privately Owned Facility"
"EUROVIA ATLANTIC COAST LLC","ME0000002301900488","ME","110040999113","212312 324121",44.78045,-68.84178,,"POF","Privately Owned Facility"
"EUROVIA ATLANTIC COAST LLC","ME000A001186","ME","110040999113","212312 324121",44.78045,-68.84178,,"POF","Privately Owned Facility"
"EUROVIA ATLANTIC COAST LLC","ME0000002301900089","ME","110012599713","212311 212321 324121 327320",44.7707,-68.7948,,"POF","Privately Owned Facility"
"EUROVIA ATLANTIC COAST LLC","ME000CIN000217","ME","110070924515","212321",44.78034,-68.82619,,"POF","Privately Owned Facility"
"EUROVIA ATLANTIC COAST LLC","ME0000002301910014","ME","110007315583","212311 212321 324121 327320",45.6408739,-68.5248347,,"POF","Privately Owned Facility"
"EUROVIA ATLANTIC COAST LLC","ME000CIN000198","ME","110070924515","212321",44.78034,-68.82619,,"POF","Privately Owned Facility"
"EUROVIA ATLANTIC COAST LLC","ME0000002302700002","ME","110007273510","327320",44.45667,-68.96145,,"POF","Privately Owned Facility"
"EUROVIA ATLANTIC COAST LLC","ME0000002301907077","ME","110010391334","212311 212321 324121 327320",44.776389,-68.862106,,"POF","Privately Owned Facility"
"EUROVIA ATLANTIC COAST LLC","ME0000002301900173","ME","110012599713","212311 212321 324121 327320",44.7707,-68.7948,,"POF","Privately Owned Facility"
"EUROVIA ATLANTIC COAST LLC","ME0000002302700004","ME","110042299465","324121",44.5245724,-68.2852501,,"POF","Privately Owned Facility"
"EUROVIA ATLANTIC COAST LLC","ME000CIN000197","ME","110070924515","212321",44.78034,-68.82619,,"POF","Privately Owned Facility"
"EUROVIA ATLANTIC COAST LLC","ME0000002301900037","ME","110012599713","212311 212321 324121 327320",44.7707,-68.7948,,"POF","Privately Owned Facility"
"EUROVIA ATLANTIC COAST LLC","ME0000002302900257","ME","110007273253","212321 324121",45.119444,-67.279722,,"POF","Privately Owned Facility"
"EUROVIA ATLANTIC COAST LLC","ME0000002300900017","ME","110020052002","324121",44.456231,-69.015624,,"POF","Privately Owned Facility"
"EUROVIA ATLANTIC COAST LLC","ME0000002301900860","ME","110040999113","212312 324121",44.78045,-68.84178,,"POF","Privately Owned Facility"
"EUROVIA ATLANTIC COAST LLC D/B/A COPIAM ASPHALT SOLUTIONS","ME000A001185","ME","110071876500","424710",44.780468,-68.842173,,"POF","Privately Owned Facility"
"EUROVIA ATLANTIC COAST LLC D/B/A DIRIGO MATERIALS","ME0000002301900590","ME","110010391334","212311 212321 324121 327320",44.776389,-68.862106,,"POF","Privately Owned Facility"
"EUROVIA ATLANTIC COAST, LLC D/B/A NORTHEAST PAVING","ME000A001153","ME","110040999113","212312 324121",44.78045,-68.84178,,"POF","Privately Owned Facility"
"EXCEL DOWELS","ME0000002302500020","ME","110038937531","999999",44.9072117159488,-70.0459116498021,,"POF","Privately Owned Facility"
"EXETER AGRI-ENERGY, LLC","ME0000002301901047","ME","110043436485","221119",44.95354,-69.11817,,"POF","Privately Owned Facility"
"F.E. WOOD - NATURAL ENERGY LLC","ME0000002300501106","ME","110063238795","321999",43.8107,-70.69526,,"POF","Privately Owned Facility"
"F.R. CARROLL, INC.","ME0000002303100479","ME","110012172219","212321",43.7671861,-70.808863,,"POF","Privately Owned Facility"
"FALLS ROAD VETERINARY CLINIC, LLC","ME0000002300701094","ME","110058407932","812220",44.648769,-70.119365,,"POF","Privately Owned Facility"
"FALMOUTH GULF","ME0000002300522180","ME","110007270979","999999",43.7404718,-70.2771725,,"POF","Privately Owned Facility"
"FALMOUTH VETERINARY HOSPITAL, INC.","ME0000002300500496","ME","110012166244","541940",43.7404718,-70.2771725,,"POF","Privately Owned Facility"
"FARMINGTON CHIPPING ENTERPRISE, INC.","ME0000002300700619","ME","110030570004","321999",44.68603,-70.17603,,"POF","Privately Owned Facility"
"FAYSCOTT, LLC","ME0000002301900026","ME","110000614149","333512",45.012435,-69.287155,,"POF","Privately Owned Facility"
"FERRAIOLO CONSTRUCTION, INC.","ME0000002301300325","ME","110013406634","212319 562111",44.089528,-69.140472,,"POF","Privately Owned Facility"
"FERRAIOLO CONSTRUCTION, INC.","ME0000002301300357","ME","110001681252","212319 327320",44.1340877,-69.1326291,,"POF","Privately Owned Facility"
"FERRAIOLO CONSTRUCTION, INC.","ME0000002301300758","ME","110001681252","212319 327320",44.1340877,-69.1326291,,"POF","Privately Owned Facility"
"FERRAIOLO CONSTRUCTION, INC.","ME0000002301180007","ME","110010392262","324121",44.234528,-69.772111,,"POF","Privately Owned Facility"
"FERRAIOLO CORP","ME0000002301100344","ME","110038945577","212319",44.1950908,-69.793771,,"POF","Privately Owned Facility"
"FERRAIOLO CORP","ME0000002301100266","ME","110010390308","999999",44.2335047,-70.0147235,,"POF","Privately Owned Facility"
"FERRAIOLO CORP","ME0000002302300021","ME","110038112663","327320",43.95128,-69.97125,,"POF","Privately Owned Facility"
"FERRAIOLO CORP","ME0000002301500006","ME","110010390692","212319",44.1950908,-69.793771,,"POF","Privately Owned Facility"
"FIBER EXTRUSION, INC.","ME0000002302900681","ME","110001102351","325222",44.927564,-67.024687,,"POF","Privately Owned Facility"
"FIBER MATERIALS INC.","ME0000002303100057","ME","110007273351","335991",43.47042,-70.49087,21,"POF","Privately Owned Facility"
"FIBERGLASS PLUS RECREATIONAL INDUSTRIES, INC.","ME0000002303100717","ME","110038930805","999999",43.3959471,-70.5702209,,"POF","Privately Owned Facility"
"FILL IT UP PLEASE","ME0000002303181580","ME","110007270988","999999",43.49613,-70.4571,,"POF","Privately Owned Facility"
"FILL-IT-UP PLEASE","ME0000002300533730","ME","110001825918","999999",43.63697,-70.33475,,"POF","Privately Owned Facility"
"FINAL GIFT USA, LLC","ME0000002300100887","ME","110021071686","541940 812220",44.21191,-70.2494,,"POF","Privately Owned Facility"
"FIRSTLIGHT FIBER, INC.","ME000A001168","ME","110071396867","518111",43.89627,-69.92347,,,
"FKM HOLDINGS, LLC","ME000AGP164000052","ME","110071374629","327320",46.122147,-67.848303,,"POF","Privately Owned Facility"
"FLC REALTY I CORPORATION","ME0000002300500178","ME","110001298266","333999",43.642194,-70.244869,,"POF","Privately Owned Facility"
"FLUKE'S AFTERCARE LLC","ME0000002301100877","ME","110020751881","812220",44.16071,-70.00417,,"POF","Privately Owned Facility"
"FOGLIO, INC.","ME0000002303100138","ME","110010391343","324121",43.5686097,-70.7442809,,"POF","Privately Owned Facility"
"FORESIDE UTILITY COMPANY LLC","ME000A001191","ME","110071992766","221112",43.66084,-70.24612,,,
"FOREST VIEW VETERINARY CL","ME0000002303100660","ME","110038930761","541940",43.39083,-70.87651,,"POF","Privately Owned Facility"
"FORSTER MFG CO","ME0000002300700020","ME","110003553510","999999",44.58025,-70.18278,,"POF","Privately Owned Facility"
"FORSTER MFG CO.    (EAST WILTON)","ME0000002300700021","ME","110003553510","999999",44.58025,-70.18278,,"POF","Privately Owned Facility"
"FORT KENT, TOWN OF","ME0000002300300049","ME","110038930146","999999",47.1607889,-68.7311185,,"POF","Privately Owned Facility"
"FOX ISLAND ELECTRIC COOPERATIVE, INC.","ME0000002301300898","ME","110033139397","221118",44.0688147,-68.8533143,,"POF","Privately Owned Facility"
"FOXCROFT VETERINARY SERVICES, P.A.","ME0000002302100023","ME","110007273486","812220",45.1862609,-69.1455325,,"POF","Privately Owned Facility"
"FPL ENERGY CAPE LLC","ME0000002300500118","ME","110001839404","221112",43.643632,-70.253746,,"POF","Privately Owned Facility"
"FPL ENERGY WYMAN LLC","ME0000002300500018","ME","110000581406","221112",43.75167,-70.15586,2,"POF","Privately Owned Facility"
"FRANKLIN MEMORIAL HOSPITAL","ME0000002300700359","ME","110001825972","622110",44.625003,-70.161048,,"POF","Privately Owned Facility"
"FRANKLIN SHOE/SHAER SHOE","ME0000002300700269","ME","110000314730","315999",44.65693,-70.13548,,"POF","Privately Owned Facility"
"FRASER BROTHERS, INC.","ME0000002301500950","ME","110031228295","212319",44.17856,-69.53886,,"POF","Privately Owned Facility"
"FRESH LOOK","ME0000002300563112","ME","110020579373","812320",43.63442,-70.25225,,"POF","Privately Owned Facility"
"FRONTIER FORGE, INC.","ME0000002300700006","ME","110001092727","321920",44.9572,-70.15829,,"POF","Privately Owned Facility"
"FROST MOUNTAIN SAND & GRAVEL, LLC","ME0000002301700733","ME","110012172022","212321",43.9307985,-70.9185838,,"POF","Privately Owned Facility"
"FSS, INC.","ME0000002302701078","ME","110044213240","336612",44.43044,-69.01012,,"POF","Privately Owned Facility"
"FULGHUM GRAANUL WOODLAND, LLC","ME000A001107","ME","110069219571","321219",45.1150831,-67.4775409,,,
"FUTUREGUARD BUILDING PRODUCTS, INC.","ME0000002300100579","ME","110001839725","332813",44.049493,-70.290888,,"POF","Privately Owned Facility"
"FUTUREGUARD BUILDING PRODUCTS, INC.","ME0000002300100207","ME","110037189869","314912",44.07006,-70.27829,,"POF","Privately Owned Facility"
"G E GODING & SON INC","ME0000002302900006","ME","110007273397","327320",45.1150831,-67.4775409,,"POF","Privately Owned Facility"
"G&K SERVICES","ME00000023005E0001","ME","110037236354","812332",43.73157,-70.29618,,"POF","Privately Owned Facility"
"G&K SERVICES","ME00000023019E0001","ME","110037236318","812332",44.78445,-68.80724,,"POF","Privately Owned Facility"
"G&K SERVICES","ME00000023019E0002","ME","110037236327","812332",44.791931,-68.838139,,"POF","Privately Owned Facility"
"G. E. GODING & SON, INC.","ME0000002301909073","ME","110007273404","327320",45.33594,-68.57739,,"POF","Privately Owned Facility"
"G.A. PETERSON","ME0000002300111115","ME","110038930039","999999",44.0845366,-70.2496493,,"POF","Privately Owned Facility"
"G.H. BASS & CO.","ME0000002301700039","ME","110007273066","316213",44.512531,-70.620082,,"POF","Privately Owned Facility"
"G.H. BASS CO.","ME0000002300700003","ME","110007315360","316213",44.615586,-70.262293,,"POF","Privately Owned Facility"
"GAGNE & SON CONCRETE BLOCKS, INC.","ME0000002301100757","ME","110001839770","327331",44.42527,-69.8315,,"POF","Privately Owned Facility"
"GAGNE PRECAST CONCRETE PRODUCTS, INC.","ME0000002301900618","ME","110001839627","327331",44.84146,-68.70494,,"POF","Privately Owned Facility"
"GALLOP POWER GREENVILLE","ME0000002302190014","ME","110010377519","221119",45.454497,-69.609531,,"POF","Privately Owned Facility"
"GARDINER PAPERBOARD","ME0000002301100005","ME","110001298293","322130",44.220302,-69.787106,,"POF","Privately Owned Facility"
"GARDNER CONSTRUCTION ENTERPRISES, LLC","ME000ACIN000186","ME","110070551460","212321",44.80763,-68.93166,,"POF","Privately Owned Facility"
"GARDNER CONSTRUCTION ENTERPRISES, LLC","ME000ACIN000187","ME","110070551460","212321",44.80763,-68.93166,,"POF","Privately Owned Facility"
"GARY SMITH","ME000AGP165000017","ME","110070132411","812220",43.67992,-70.89407,,"POF","Privately Owned Facility"
"GARY SMITH","ME000AGP165000001","ME","110070132411","812220",43.67992,-70.89407,,"POF","Privately Owned Facility"
"GE VERNOVA OPERATIONS LLC","ME0000002301900078","ME","110000744801","333611",44.81349,-68.82057,10,"POF","Privately Owned Facility"
"GENDRON & GENDRON, INC.","ME000ACIN000070","ME","110070144361","212321",44.0895941,-70.1721851,,"POF","Privately Owned Facility"
"GENDRON & GENDRON, INC.","ME000ACIN000154","ME","110070144361","212321",44.0895941,-70.1721851,,"POF","Privately Owned Facility"
"GENDRON & GENDRON, INC.","ME000ACIN000072","ME","110070144361","212321",44.0895941,-70.1721851,,"POF","Privately Owned Facility"
"GENDRON & GENDRON, INC.","ME000ACIN000071","ME","110070144361","212321",44.0895941,-70.1721851,,"POF","Privately Owned Facility"
"GENDRON & GENDRON, INC.","ME0000002300100809","ME","110039672878","212321",44.0895941,-70.1721851,,"POF","Privately Owned Facility"
"GENDRON & GENDRON, INC.","ME000ACIN000073","ME","110070144361","212321",44.0895941,-70.1721851,,"POF","Privately Owned Facility"
"GENE GOODINE D/B/A ASHES TO ASHES PET CREMATORY","ME000AGP165000008","ME","110070133049","812220",45.185429,-68.829345,,"POF","Privately Owned Facility"
"GENE GOODINE D/B/A ASHES TO ASHES PET CREMATORY","ME000AGP165000018","ME","110070133049","812220",45.185429,-68.829345,,"POF","Privately Owned Facility"
"GENERAL ALUM NEW ENGLAND CORP.","ME0000002302700005","ME","110000581549","325188",44.4684,-68.8844,8586,"POF","Privately Owned Facility"
"GENERAL CONTRACTOR VAUGHN D. THIBODEAU, II, INC.","ME0000002302701045","ME","110046385540","324121",44.5140187,-68.8390499,,"POF","Privately Owned Facility"
"GENERAL DYNAMICS-OTS, INC.","ME0000002303100006","ME","110000314268","332994",43.516484,-70.445545,,"POF","Privately Owned Facility"
"GENERAL ELECTRIC COMPANY","ME0000002302500055","ME","110003555796","999999",44.779809,-69.398294,,"POF","Privately Owned Facility"
"GENEST CONCRETE WORKS, INC.","ME0000002303100032","ME","110038930663","327320",43.26583,-70.86027,,"POF","Privately Owned Facility"
"GENEST CONCRETE WORKS, INC.","ME0000002303100185","ME","110002476785","327331",43.43951,-70.76216,,"POF","Privately Owned Facility"
"GEORGE C. HALL & SONS INC.","ME0000002301300683","ME","110010390317","212321",44.1340877,-69.1326291,,"POF","Privately Owned Facility"
"GEORGE NEWMAN COMPANY","ME0000002303100064","ME","110007273645","999999",43.49513,-70.45636,,"POF","Privately Owned Facility"
"GEORGIA PACIFIC - PRE 1992","ME0000002300300029","ME","110038930119","999999",45.15529,-67.40417,,"POF","Privately Owned Facility"
"GEORGIA STONE INDUSTRIES, INC.","ME0000002300900598","ME","110007273921","327991",44.1504635,-68.6453275,,"POF","Privately Owned Facility"
"GERALD L. WOOD & SON, LLC","ME000ACIN000040","ME","110070144353","212321",44.66427,-67.39073,,"POF","Privately Owned Facility"
"GERALD L. WOOD & SON, LLC","ME000A001130","ME","110070144353","212321",44.66427,-67.39073,,"POF","Privately Owned Facility"
"GERALD L. WOOD & SON, LLC","ME000ACIN000039","ME","110070144353","212321",44.66427,-67.39073,,"POF","Privately Owned Facility"
"GLEN DUBE EXCAVATION, INC.","ME0000002300101115","ME","110064832944","212319",44.068071,-70.113901,,"POF","Privately Owned Facility"
"GLENN MORRISON","ME000CIN000210","ME","110071374604","212321",44.41941,-69.42521,,,
"GLOBAL COMPANIES LLC","ME0000002300509022","ME","110032893670","424710",43.635196,-70.284761,287,"POF","Privately Owned Facility"
"GLOVER DEVELOPMENT CORPORATION","ME0000002301700550","ME","110012172095","531190",44.5655676,-70.9626611,,"POF","Privately Owned Facility"
"GNP EAST, INC.","ME0000002301900008","ME","110000581451","322121",45.62501,-68.57297,,"POF","Privately Owned Facility"
"GNP WEST, INC.","ME0000002301960003","ME","110000314589","322121",45.645669,-68.703048,,"POF","Privately Owned Facility"
"GODFREY FOREST ARIZONA, LLC","ME000A001181","ME","110071851391","321219",44.5083,-70.23685,,"POF","Privately Owned Facility"
"GODING CONCRETE","ME0000002302900021","ME","110010390978","327320",44.721389,-67.421667,,"POF","Privately Owned Facility"
"GOLD STAR CLEANERS (WILSON ST)","ME0000002301963024","ME","110003554948","812320",44.79259,-68.76256,,"POF","Privately Owned Facility"
"GORHAM ENERGY LTD PARTNERSHIP","ME0000002300500735","ME","110012171942","999999",43.7013527,-70.4629821,,"POF","Privately Owned Facility"
"GORHAM SAND & GRAVEL, INC.","ME0000002303100858","ME","110018857717","212321",43.69333,-70.52374,,"POF","Privately Owned Facility"
"GORHAM SAND & GRAVEL, INC.","ME000CIN000230","ME","110072000295","212321",43.753284,-70.511038,,,
"GORHAM SAND & GRAVEL, INC.","ME0000002303100696","ME","110038930798","212319",43.69333,-70.52374,,"POF","Privately Owned Facility"
"GORHAM SAND & GRAVEL, INC.","ME000CIN000231","ME","110072000296","212321",43.448939,-70.726315,,,
"GORHAM SAND & GRAVEL, INC.","ME000CIN000232","ME","110072000296","212321",43.448939,-70.726315,,,
"GOULD ACADEMY","ME0000002301700721","ME","110015786764","611110",44.40677,-70.79277,,"SDT","School District"
"GRACELAWN CREMATORY LLC","ME0000002300100093","ME","110001298426","812220",44.12441,-70.23084,,"POF","Privately Owned Facility"
"GRANITE STATE GAS TRANSMISSION, INC.","ME0000002303100662","ME","110038930770","486210",43.3314325,-70.6455874,,"POF","Privately Owned Facility"
"GRANITE STATE GAS TRANSMISSION, INC.","ME000A001159","ME","110071219920","486210",43.206114,-70.790386,,"POF","Privately Owned Facility"
"GRANITE STATE GAS TRANSMISSION, INC.","ME000A001145","ME","110070560644","486210",43.68617,-70.33105,,"POF","Privately Owned Facility"
"GREAT NORTHERN PAPER","ME0000002300300003","ME","110038930057","999999",46.796816,-69.0545214,,"POF","Privately Owned Facility"
"GREAT WORKS CREMATORY","ME000AGP165000006","ME","110040496629","812220",43.31805,-70.74411,,"POF","Privately Owned Facility"
"GREAT WORKS CREMATORY","ME000AGP165000007","ME","110040496629","812220",43.31805,-70.74411,,"POF","Privately Owned Facility"
"GREAT WORKS CREMATORY","ME0000002303101021","ME","110040496629","812220",43.31805,-70.74411,,"POF","Privately Owned Facility"
"GREAT WORKS CREMATORY","ME000AGP165000024","ME","110040496629","812220",43.31805,-70.74411,,"POF","Privately Owned Facility"
"GREATER ANDROSCOGGIN HUMANE SOCIETY","ME000AGP165000002","ME","110033139404","812220 813312",44.11829,-70.20861,,"POF","Privately Owned Facility"
"GREATER ANDROSCOGGIN HUMANE SOCIETY","ME0000002300100309","ME","110062690075","541940",44.02659,-70.29494,,"POF","Privately Owned Facility"
"GREATER ANDROSCOGGIN HUMANE SOCIETY","ME0000002300100958","ME","110033139404","812220 813312",44.11829,-70.20861,,"POF","Privately Owned Facility"
"GRIMMEL IND., INC.","ME0000002302300760","ME","110021131639","332312",43.96,-70.020827,,"POF","Privately Owned Facility"
"GRIMMEL INDUSTRIES","ME0000002300146754","ME","110039664315","425110",44.07158,-70.20019,,"POF","Privately Owned Facility"
"GRONDIN`S CERTIFIED CLEANERS","ME0000002302563086","ME","110020581084","812320",44.55829,-69.63267,,"POF","Privately Owned Facility"
"GULF OIL CO","ME0000002302909017","ME","110007273271","999999",44.9610605,-67.2206088,,"POF","Privately Owned Facility"
"GULF OIL CO","ME0000002301909016","ME","110038950971","999999",44.79522,-68.76513,,"POF","Privately Owned Facility"
"GULF OIL LIMITED PARTNERSHIP","ME0000002301900189","ME","110000865485","424710",44.778673,-68.783956,,"POF","Privately Owned Facility"
"H G WINTER & SONS INC","ME0000002300700058","ME","110038944738","999999",45.06245,-70.31004,,"POF","Privately Owned Facility"
"H. E. SARGENT","ME0000002300500332","ME","110038943971","324121",43.9575077,-70.2960108,,"POF","Privately Owned Facility"
"H.P. HOOD LLC","ME0000002301909041","ME","110001998321","311513",44.833461,-69.282317,,"POF","Privately Owned Facility"
"HAGAR ENTERPRISES, ICN.","ME000ACIN000177","ME","110070226357","212321",44.0364,-69.50644,,"POF","Privately Owned Facility"
"HAGAR ENTERPRISES, INC.","ME000ACIN000178","ME","110070226339","212321",44.0364,-69.50644,,"POF","Privately Owned Facility"
"HAGAR ENTERPRISES, INC.","ME000ACIN000193","ME","110070226339","212321",44.0364,-69.50644,,"POF","Privately Owned Facility"
"HAGAR ENTERPRISES, INC.","ME000CIN000221","ME","110071894258","212321",44.1366,-69.55561,,"POF","Privately Owned Facility"
"HAGAR ENTERPRISES, INC.","ME000000ACIN000172","ME","110070132901","212321",44.3154846,-69.571186,,"POF","Privately Owned Facility"
"HAGUE INTERNATIONAL","ME0000002303100545","ME","110007315529","999999",43.404834,-70.564198,,"POF","Privately Owned Facility"
"HALEY CONSTRUCTION INC","ME0000002302100641","ME","110010391236","327320",45.45581,-69.62397,,"POF","Privately Owned Facility"
"HALEY CONSTRUCTION INC.","ME0000002302509030","ME","110010391325","324121 327320",44.891667,-69.464722,,"POF","Privately Owned Facility"
"HALEY CONSTRUCTION, INC.","ME0000002302100011","ME","110007273413","327320",45.16815,-69.35971,,"POF","Privately Owned Facility"
"HALEY CONSTRUCTION, INC.","ME0000002302500301","ME","110010391325","324121 327320",44.891667,-69.464722,,"POF","Privately Owned Facility"
"HALEY'S INC.","ME000AGP164000047","ME","110064588343","327320",44.2335047,-70.0147235,,"POF","Privately Owned Facility"
"HANCOCK LUMBER COMPANY, INC.","ME0000002302500932","ME","110033139431","321113",44.769837,-69.4337529,,"POF","Privately Owned Facility"
"HANCOCK LUMBER COMPANY, INC.","ME0000002301700011","ME","110021176109","321113",44.41575,-70.73584,,"POF","Privately Owned Facility"
"HANCOCK LUMBER COMPANY, INC.","ME0000002300500629","ME","110039665172","321113",43.98488,-70.54547,,"POF","Privately Owned Facility"
"HANLEY CONSTRUCTION, INC.","ME000ACIN000121","ME","110039676794","212321",43.92058,-69.51708,,"POF","Privately Owned Facility"
"HANLEY CONSTRUCTION, INC.","ME0000002301500222","ME","110020049339","212319",44.198014,-69.6196894,,"POF","Privately Owned Facility"
"HARDWOOD PRODUCTS COMPANY LLC","ME0000002302100012","ME","110010391021","339999",45.169323,-69.394539,,"POF","Privately Owned Facility"
"HAROLD MACQUINN, INCORPORATED","ME0000002300909033","ME","110041113942","212321",44.52185,-68.36098,,"POF","Privately Owned Facility"
"HARTMANN ENTERPRISES","ME000ACIN000161","ME","110070144386","212321",43.1291,-70.70687,,"POF","Privately Owned Facility"
"HARTMANN ENTERPRISES","ME000ACIN000160","ME","110070144386","212321",43.1291,-70.70687,,"POF","Privately Owned Facility"
"HATHAWAY BUILDING","ME0000002301100045","ME","110001852424","999999",44.54654,-69.63057,,"POF","Privately Owned Facility"
"HC BANGOR, LLC","ME0000002301901006","ME","110039662790","721120",44.78922,-68.77763,,"POF","Privately Owned Facility"
"HEIDELBERG MATERIALS US CEMENT LLC","ME0000002301300004","ME","110000581521","327310",44.08401,-69.157238,0,"POF","Privately Owned Facility"
"HILL GRAVEL, INC.","ME000ACIN000043","ME","110070144354","212321",43.568,-70.59976,,"POF","Privately Owned Facility"
"HILL GRAVEL, INC.","ME000ACIN000045","ME","110070144354","212321",43.568,-70.59976,,"POF","Privately Owned Facility"
"HILL GRAVEL, INC.","ME0000002303100900","ME","110031471119","212319",43.4890685,-70.6619055,,"POF","Privately Owned Facility"
"HILL GRAVEL, INC.","ME000ACIN000044","ME","110070144354","212321",43.568,-70.59976,,"POF","Privately Owned Facility"
"HILL MILL, LLC","ME0000002300100518","ME","110001839743","531110",44.09674,-70.2181,,"POF","Privately Owned Facility"
"HILLANDALE FARMS CONN, LLC","ME0000002300100163","ME","110012311569","112310",44.309115,-70.252294,,"POF","Privately Owned Facility"
"HISSONG READY-MIX & AGGREGATES, LLC","ME0000002300501068","ME","110046102383","327320",43.6855,-70.33805,,"POF","Privately Owned Facility"
"HISSONG READY-MIX & AGGREGATES, LLC","ME000AGP164000038","ME","110070132814","327320",43.42962,-70.63428,,"POF","Privately Owned Facility"
"HISSONG READY-MIX & AGGREGATES, LLC","ME0000002303101025","ME","110040176449","327320",43.139052,-70.778673,,"POF","Privately Owned Facility"
"HISSONG READY-MIX & AGGREGATES, LLC","ME000AGP164000011","ME","110040176449","327320",43.139052,-70.778673,,"POF","Privately Owned Facility"
"HODGDON YACHTS INC","ME0000002301590893","ME","110043429073","999999",43.862252,-69.591338,,"POF","Privately Owned Facility"
"HODGDON YATCHS, INC.","ME0000002301500014","ME","110022815444","999999",43.86,-69.58,,"POF","Privately Owned Facility"
"HOLLY'S","ME0000002303102072","ME","110001839645","999999",43.49802,-70.45411,,"POF","Privately Owned Facility"
"HOLTRACHEM MFG CO LLC","ME0000002301980060","ME","110000314598","325181",44.74005,-68.82469,,"POF","Privately Owned Facility"
"HOULTON INTERNATIONAL CORPORATION","ME0000002300300227","ME","110038930182","999999",46.1910231,-67.8609676,,"POF","Privately Owned Facility"
"HOULTON REGIONAL HOSPITAL","ME0000002300300057","ME","110001682956","622110",46.13316,-67.84251,,"POF","Privately Owned Facility"
"HOWARD CORP","ME000A001193","ME","110072142036","324121",45.11635,-69.33953,,"POF","Privately Owned Facility"
"HUBER ENGINEERED WOODS LLC","ME0000002300360048","ME","110010786630","113310 321219",46.665557,-67.906918,36070,"POF","Privately Owned Facility"
"HUGHES BROS. INC.","ME000CIN000204","ME","110071328288","212321",44.66762,-68.868203,,"POF","Privately Owned Facility"
"HUGHES BROS. INC.","ME000AGP164000049","ME","110071091967","327320",44.539737,-68.484173,,"POF","Privately Owned Facility"
"HUGHES BROS. INC.","ME0000002301900052","ME","110012615385","327320",44.7025,-68.842222,,"POF","Privately Owned Facility"
"HUGHES BROS. INC.","ME0000002302700053","ME","110007273422","212321",44.6507514,-68.908918,,"POF","Privately Owned Facility"
"HUGHES BROS. INC.","ME000ACIN000185","ME","110039681403","212321 327320",44.77394,-68.79057,,"POF","Privately Owned Facility"
"HUGHES BROS. INC.","ME000AGP164000059","ME","110039681403","212321 327320",44.77394,-68.79057,,"POF","Privately Owned Facility"
"HUHTAMAKI, INC.","ME0000002301100010","ME","110000865751","322299",44.57682,-69.61109,,"POF","Privately Owned Facility"
"HUSSEY SEATING COMPANY","ME0000002303100374","ME","110071723736","337127",43.283056,-70.73,,"POF","Privately Owned Facility"
"HUSSON UNIVERSITY","ME0000002301900082","ME","110001839235","611310 611430",44.8257,-68.79166,,"POF","Privately Owned Facility"
"HYDE SCHOOL","ME0000002302301084","ME","110011766507","611110",43.90689,-69.82047,,"POF","Privately Owned Facility"
"HYPONEX CORPORATION","ME0000002301900682","ME","110024260191","321999",45.647847,-68.511691,,"POF","Privately Owned Facility"
"IDEXX LABORATORIES, INC.","ME0000002300500981","ME","110039662905","339112",43.648667,-70.355861,,"POF","Privately Owned Facility"
"IDEXX LABORATORIES, INC.","ME000A001169","ME","110071442492","339112",43.60811,-70.35184,,"POF","Privately Owned Facility"
"IDEXX LABORATORIES, INC.","ME0000002300500093","ME","110012461308","339112",43.66116,-70.3744,,"POF","Privately Owned Facility"
"INDEPENDENCE EXCAVATING, INC.","ME000ACIN000156","ME","110070144384","238910",44.57689,-68.80366,,"POF","Privately Owned Facility"
"INDUSTRIAL METAL RECYCLING","ME0000002301900022","ME","110038948182","541940",44.8485167,-68.8504049,,"POF","Privately Owned Facility"
"INGREDION INCORPORATED","ME0000002300300817","ME","110038066730","311211",46.770576,-67.860512,,"POF","Privately Owned Facility"
"INLAND HOSPITAL","ME0000002301100009","ME","110039675624","622110",44.54271,-69.66147,,"POF","Privately Owned Facility"
"INSULSAFE TEXTILES, INC.","ME000A001092","ME","110057086825","313210",44.09047,-70.2206,,,
"INTERMAT","ME0000002303100058","ME","110007273351","335991",43.47042,-70.49087,21,"POF","Privately Owned Facility"
"INTERNATIONAL PAPER COMPANY","ME0000002300100064","ME","110003555402","322211",44.0383,-70.26326,,"POF","Privately Owned Facility"
"INTERNATIONAL PAPER COMPANY","ME0000002301909001","ME","110038950944","999999",45.21394,-68.59575,,"POF","Privately Owned Facility"
"INTERNATIONAL WOOLEN COMPANY INC","ME0000002303100008","ME","110001854084","313210",43.43825,-70.76575,,"POF","Privately Owned Facility"
"INTERSTATE BRANDS CORPORATION","ME0000002300500404","ME","110038943980","311812",43.66531,-70.2521,,"POF","Privately Owned Facility"
"IRVING FOREST PRODUCTS, INC.","ME0000002301700001","ME","110007273011","321113 321912 321918 321999",44.535008,-70.451939,,"POF","Privately Owned Facility"
"IRVING FOREST PRODUCTS, INC.","ME0000002300360040","ME","110015590671","321113",46.530126,-68.359938,,"POF","Privately Owned Facility"
"IRVING FOREST PRODUCTS, INC. - ASHLAND SAWMILL","ME0000002300300019","ME","110064777148","321113 321999",46.691361,-68.476866,,"POF","Privately Owned Facility"
"IRVING OIL TERMINALS INC.","ME0000002302700014","ME","110025246847","424710 454311",44.454112,-68.899749,563,"POF","Privately Owned Facility"
"ISLAND FALLS INDUSTRIAL LLC","ME0000002300300062","ME","110039670790","311221",46.007778,-68.273056,,"POF","Privately Owned Facility"
"J & J CLEANERS","ME0000002300563113","ME","110003554181","812320",43.917,-69.96607,,"POF","Privately Owned Facility"
"J A THURSTON CO","ME0000002301700325","ME","110038948128","999999",44.5599203,-70.6252639,,"POF","Privately Owned Facility"
"J AND J CLEANERS  (BRUNSWICK) - EMMCO","ME0000002300563025","ME","110003554181","812320",43.917,-69.96607,,"POF","Privately Owned Facility"
"J M HUBER CORP","ME0000002301900030","ME","110038948191","321212",45.99372,-68.44288,,"POF","Privately Owned Facility"
"J&S SAND, GRAVEL & FILL, INC","ME0000002302700973","ME","110039662941","999999",44.56207,-69.25824,,"POF","Privately Owned Facility"
"J. MAXWELL TRUCKING","ME000ACIN000080","ME","110070144362","212321",43.9207,-70.35394,,"POF","Privately Owned Facility"
"J.B. BROWN AND SONS","ME0000002300500031","ME","110038930468","531120",43.68289,-70.28599,,"POF","Privately Owned Facility"
"J.D.H.S.ENTERPRISES","ME0000002300500148","ME","110001839100","311711",43.54374,-70.348266,,"POF","Privately Owned Facility"
"J.R. MAINS COMPANY","ME0000002301700078","ME","110010391085","999999",44.0475125,-70.743319,,"POF","Privately Owned Facility"
"J.R. VINAGRO COROPORATION","ME000CIN000229","ME","110071992787","212321",45.6879092,-69.308516,,,
"J.R. VINAGRO CORPORATION","ME000CIN000228","ME","110071992787","212321",45.6879092,-69.308516,,,
"JAKE BARBOUR, INC","ME0000002301300959","ME","110030749830","999999",44.06666,-69.09347,,"POF","Privately Owned Facility"
"JAKE BARBOUR, INC.","ME000ACIN000167","ME","110070144388","212321",44.1340877,-69.1326291,,"POF","Privately Owned Facility"
"JAKE BARBOUR, INC.","ME000ACIN000189","ME","110070604345","212321",43.9786046,-69.332584,,"POF","Privately Owned Facility"
"JAKE BORBOUR, INC.","ME000CIN000191","ME","110070604345","212321",43.9786046,-69.332584,,"POF","Privately Owned Facility"
"JAKE BORBOUR, INC.","ME000ACIN000168","ME","110070144389","212321",44.1340877,-69.1326291,,"POF","Privately Owned Facility"
"JASPER WYMAN & SON","ME0000002302900101","ME","110007273501","311411",44.61,-67.925556,,"POF","Privately Owned Facility"
"JASPER WYMAN & SON, INC.","ME0000002302900943","ME","110033135738","311411",44.95217,-67.66277,,"POF","Privately Owned Facility"
"JGT2 REDEVELOPMENT LLC","ME000A001177","ME","110008053587","321999 322120",44.5071,-70.23881,,"POF","Privately Owned Facility"
"JGT2 REDEVELOPMENT LLC","ME0000002300700004","ME","110008053587","321999 322120",44.5071,-70.23881,,"POF","Privately Owned Facility"
"JGT2 REDEVELOPMENT LLC","ME0000002300700718","ME","110063588844","221112",44.5047,-70.2403,,"POF","Privately Owned Facility"
"JIG AGGREGATES, LLC","ME000CIN000225","ME","110071909966","212321",44.10988,-70.09,,"POF","Privately Owned Facility"
"JIG AGGREGATES, LLC","ME000CIN000224","ME","110071909965","212321",44.06377,-70.18871,,"POF","Privately Owned Facility"
"JIG AGGREGATES, LLC","ME000CIN000223","ME","110071909965","212321",44.06377,-70.18871,,"POF","Privately Owned Facility"
"JIG AGGREGATES, LLC","ME000CIN000222","ME","110071909965","212321",44.06377,-70.18871,,"POF","Privately Owned Facility"
"JIG AGGREGATES, LLC","ME000CIN000226","ME","110071909966","212321",44.10988,-70.09,,"POF","Privately Owned Facility"
"JIM'S CITGO","ME0000002300548320","ME","110007270933","999999",43.9757686,-70.6392975,,"POF","Privately Owned Facility"
"JIM`S DRY CLEANERS","ME0000002301963047","ME","110020580520","812320",45.65427,-68.708,,"POF","Privately Owned Facility"
"JOHN W GOODWIN JR","ME0000002300900730","ME","110007273976","212319",44.2797001,-68.3182428,,"POF","Privately Owned Facility"
"JOHNS DRY CLEANING","ME0000002300163144","ME","110003556928","812320",44.10291,-70.2128,,"POF","Privately Owned Facility"
"JOHNS MANVILLE","ME0000002303100655","ME","110000314259","332322",43.52273,-70.45344,,"POF","Privately Owned Facility"
"JOHNS MANVILLE","ME0000002300100607","ME","110000314491","332322",44.07858,-70.17049,,"POF","Privately Owned Facility"
"JOHNSON OUTDOORS WATERCRAFT, INC.","ME0000002301900085","ME","110064186483","336612",44.94211,-68.66736,,"POF","Privately Owned Facility"
"JONESY'S SERVICE CENTER INCORPORATED","ME0000002300355300","ME","110002025718","999999",43.59652,-70.22863,,"POF","Privately Owned Facility"
"JORDAN BROTHERS LLC","ME0000002300700296","ME","110030569962","327320",44.70138,-70.17198,,"POF","Privately Owned Facility"
"JOTUL USA, INC","ME0000002300500782","ME","110001681172","999999",43.68279,-70.3977,,"POF","Privately Owned Facility"
"JSI STORE FIXTURES INCORPORATED","ME0000002302101065","ME","110044213570","337215",45.26434,-68.99201,,"POF","Privately Owned Facility"
"JUDY HALLOWELL","ME000ACIN000091","ME","110070144366","212321",44.52073,-69.80461,,"POF","Privately Owned Facility"
"JUDY HALLOWELL","ME000ACIN000092","ME","110070144366","212321",44.52073,-69.80461,,"POF","Privately Owned Facility"
"JUNIPER RIDGE ENERGY LLC","ME0000002301901116","ME","110038020049","221119 562111 562212",44.980464,-68.724728,,"POF","Privately Owned Facility"
"K & K EXCAVATION, INC.","ME0000002300100692","ME","110015743837","212319",44.071894,-70.265682,,"POF","Privately Owned Facility"
"KAGAN LOWN / DIV. OF PENOBSCOT SHOE","ME0000002301900169","ME","110038948949","316219",45.0283442,-68.7192486,,"POF","Privately Owned Facility"
"KARDEXREMSTAR, INC.","ME0000002300500742","ME","110038944603","337214",43.6954216,-70.2886521,,"POF","Privately Owned Facility"
"KATAHDIN FOREST PRODUCTS CO.","ME0000002300300939","ME","110039677436","321113 321992",46.114948,-68.162552,,"POF","Privately Owned Facility"
"KATAHDIN RAILCAR SERVICES LLC","ME000A001131","ME","110070236521","488210",45.231182,-68.969499,,"POF","Privately Owned Facility"
"KATE'S HOMEMADE BUTTER, INC.","ME000A001156","ME","110070888246","311512",43.476024,-70.543422,,"POF","Privately Owned Facility"
"KENNEBEC LUMBER, CO.","ME0000002302500812","ME","110040496665","321113",44.9393802,-69.8081422,,"POF","Privately Owned Facility"
"KENNEBEC METAL RECYCLING","ME0000012300002166","ME","110069221103","562920",44.78449,-69.7198,,,
"KENNEBEC RIVER DEVELOPMENT PARK","ME0000002301100800","ME","110039678587","531120",44.549442,-69.624618,,"POF","Privately Owned Facility"
"KENNEBEC SANITARY TREATMENT DISTRICT","ME0000002301100273","ME","110000732994","221320",44.52704,-69.653771,,"MWD","Municipal or Water District"
"KENNEBEC VALLEY ANIMAL CLINIC, P.A.","ME0000002301100516","ME","110038945586","812220",44.244353,-69.7708,,"POF","Privately Owned Facility"
"KENNEBEC VALLEY COMMUNITY COLLEGE","ME0000002302500865","ME","110062747292","611210",44.59352,-69.61294,,"POF","Privately Owned Facility"
"KENNEBEC VALLEY HUMANE SOCIETY","ME0000002301100254","ME","110039667875","541940",44.31347,-69.79971,,"POF","Privately Owned Facility"
"KENNEBUNK LIGHT & POWER DIST","ME0000002303100082","ME","110001839413","999999",43.38306,-70.5398,,"CTG","Municipality"
"KENNEBUNKPORT,TOWN","ME0000002303100028","ME","110010392529","999999",43.4298215,-70.4741422,,"POF","Privately Owned Facility"
"KENNETH ROCKWOOD, D.V.M., P.A.","ME0000002300700546","ME","110037597437","541940",44.661856,-70.1031041,,"POF","Privately Owned Facility"
"KENTS HILL SCHOOL","ME0000002301100786","ME","110022657962","611110",44.407722,-70.018857,,"SDT","School District"
"KERRY INC.","ME0000002300500901","ME","110020579480","311920",43.68372,-70.286859,,"POF","Privately Owned Facility"
"KIMBERLY-CLARK TISSUE COMPANY","ME0000002301100014","ME","110000763139","322121",44.547594,-69.625354,,"POF","Privately Owned Facility"
"KING BROTHERS, INC.","ME0000002301900761","ME","110038950926","999999",45.2781429,-68.5356274,,"POF","Privately Owned Facility"
"KINGFISH MAINE INC.","ME000A001157","ME","110071084093","112511",44.555039,-67.579208,,"POF","Privately Owned Facility"
"KNAPP SHOES INC.","ME0000002300100059","ME","110000744794","316213",44.10095,-70.21734,,"POF","Privately Owned Facility"
"KOCH MATERIALS CO","ME0000002300500121","ME","110000761131","999999",43.638706,-70.289667,,"POF","Privately Owned Facility"
"KYOCERA AVX COMPONENTS (BIDDEFORD) CORPORATION","ME0000002303100664","ME","110012516269","334414",43.46708,-70.47809,0,"POF","Privately Owned Facility"
"L & W CONCRETE","ME000AGP164000027","ME","110015713735","327320",44.7142638,-69.8635389,,"POF","Privately Owned Facility"
"L & W CONCRETE","ME0000002302500597","ME","110015713735","327320",44.7142638,-69.8635389,,"POF","Privately Owned Facility"
"L. L. BEAN, INC.","ME0000002300500764","ME","110013869545","455219",43.8570507,-70.1025926,,"POF","Privately Owned Facility"
"L. L. BEAN, INC.","ME0000002300510059","ME","110001093067","455219",43.84864,-70.1101,,"POF","Privately Owned Facility"
"L. L.BEAN, INC.","ME0000002300501036","ME","110043178352","541513",43.82693,-70.1314,,"POF","Privately Owned Facility"
"LABREE'S","ME0000002301900783","ME","110002356370","311812",44.943505,-68.674072,,"POF","Privately Owned Facility"
"LAKELAND SAND & GRAVEL CO","ME0000002300500138","ME","110038930583","324121",43.87927,-70.46325,,"POF","Privately Owned Facility"
"LANDSTONE & MATERIALS","ME0000002301900706","ME","110038950917","324121",44.7852824,-69.2362765,,"POF","Privately Owned Facility"
"LANE CONSTRUCTION","ME0000002301990093","ME","110038937407","324121",45.3626771,-68.5017302,,"POF","Privately Owned Facility"
"LANE CONSTRUCTION","ME0000002300300040","ME","110007225341","324121",46.9325,-67.935833,,"POF","Privately Owned Facility"
"LANE INDUSTRIES","01000000E000000006","ME","110070361498","324121",44.7707,-68.7948,,,
"LARRABEE CONSTRUCTION, INC.","ME0000002300100688","ME","110038930020","212319",43.9560209,-70.1324175,,"POF","Privately Owned Facility"
"LAUREL HILL CEMETERY ASSOCIATION","ME0000002303100056","ME","110001298408","812220",43.49621,-70.4288,,"POF","Privately Owned Facility"
"LEBANON SAND & GRAVEL, INC.","ME0000002303100563","ME","110038930743","999999",43.3999085,-70.9127855,,"POF","Privately Owned Facility"
"LEBLANC CLEANERS","ME0000002300163042","ME","110006685818","812320",44.10153,-70.19682,,"POF","Privately Owned Facility"
"LEBRUN TRUCKING","ME0000002303100759","ME","110062747336","999999",43.36171,-70.66849,,"POF","Privately Owned Facility"
"LEES STUDIO AND FORMAL WEAR","ME0000002303163058","ME","110020580842","812320",43.48903,-70.46162,,"POF","Privately Owned Facility"
"LEIGHTON EXCAVATION, LLC","ME0000002303100884","ME","110018857762","212319",43.4890685,-70.6619055,,"POF","Privately Owned Facility"
"LEIGHTON'S MOBIL","ME0000002300109671","ME","110001839663","999999",44.08102,-70.26973,,"POF","Privately Owned Facility"
"LENDELL QUINT D/B/A NORTHEAST REDI MIX LLC","ME000AGP164000015","ME","110064433340","327320",43.270039,-70.768932,,"POF","Privately Owned Facility"
"LEPAGE BAKERIES CEDAR STREET, LLC","ME0000002300180002","ME","110016687806","311812",44.09141,-70.21831,,"POF","Privately Owned Facility"
"LEPAGE BAKERIES PARK STREET LLC","ME0000002300100968","ME","110031195766","311812",44.0895941,-70.1721851,,"POF","Privately Owned Facility"
"LESLEY LEIGHTON","ME000ACIN000030","ME","110070144350","212321",43.5686097,-70.7442809,,"POF","Privately Owned Facility"
"LEWISTON LIBERTY, LLC","ME0000002300100874","ME","110001838977","524128 531312",44.066933,-70.161957,,"POF","Privately Owned Facility"
"LEWISTON MILL REDEVELOPMENT CORPORATION","ME0000002300100147","ME","110002088419","459999",44.09699,-70.21815,,"POF","Privately Owned Facility"
"LEWISTON PUBLIC SCHOOLS","ME0000002300100058","ME","110022022522","611110",44.09493,-70.19919,,"SDT","School District"
"LEWISTON, TOWN OF","ME0000002300100026","ME","110038929336","999999",44.0895127,-70.172095,,"POF","Privately Owned Facility"
"LEWISTON-AUBURN WATER POLLUTION CONTROL AUTHORITY","ME000A000000001054","ME","110009913068","221320",44.075556,-70.204444,,"MWD","Municipal or Water District"
"LIBERTY MUTUAL GROUP INC.","ME0000002300100056","ME","110001838977","524128 531312",44.066933,-70.161957,,"POF","Privately Owned Facility"
"LIGHTHOUSE CREMATORY","ME0000002300501040","ME","110044302787","812220",43.87328,-70.10704,,"POF","Privately Owned Facility"
"LIGHTHOUSE CREMATORY AND REMEMBRANCE","ME000AGP165000009","ME","110070133062","812220",43.87328,-70.10704,,"POF","Privately Owned Facility"
"LIGNETICS OF MAINE, LLC","ME0000002300700100","ME","110067024678","321219",44.8064,-70.2186,,"POF","Privately Owned Facility"
"LILIANA`S LAUNDROMAT","ME0000002300563115","ME","110020579408","812320",43.666192,-70.247512,,"POF","Privately Owned Facility"
"LIMERICK, TOWN OF","ME0000002303100850","ME","110010392501","999999",43.6921187327942,-70.7845948683578,,"POF","Privately Owned Facility"
"LIMESTONE WATER & SEWER DISTRICT","ME0000002300301043","ME","110045949177","221320",46.91899,-67.8281,,"POF","Privately Owned Facility"
"LINCOLN AND SAGADAHOC MULTICOUNTY JAIL AUTHORITY - TWO BRIDGES REGIONAL JAIL","ME0000002301500913","ME","110030490831","922140",43.9819,-69.70104,,"CNG","County Government"
"LINCOLN DUMP","ME0000002301900068","ME","110038948235","999999",45.4455258,-68.5344538,,"POF","Privately Owned Facility"
"LINCOLN PAPER AND TISSUE, LLC","ME0000002301900010","ME","110000314570","322110",45.368014,-68.510179,,"POF","Privately Owned Facility"
"LINCOLN SQUARE","ME0000002300500531","ME","110012166262","531190",43.6626067,-70.257949,,"POF","Privately Owned Facility"
"LINDE ADVANCED MATERIAL TECHNOLOGIES INC.","ME0000002303100643","ME","110000865699","332812",43.4651,-70.48327,,"POF","Privately Owned Facility"
"LISBON ROAD ANIMAL HOSPITAL, P.A.","ME0000002300100510","ME","110039672725","541940",44.058673,-70.144252,,"POF","Privately Owned Facility"
"LITTLE RIVER VETERINARY CLINIC","ME0000002302700539","ME","110010427083","812220",44.4635016,-69.0375706,,"POF","Privately Owned Facility"
"LIUDAS NORMANTAS","ME0000002300500143","ME","110038930609","999999",43.848997,-70.8307642,,"POF","Privately Owned Facility"
"LIVERMORE FALLS,TOWN (HISTORIC INFORMATION)","ME0000002300100029","ME","110038929345","999999",44.47234,-70.18956,,"CTG","Municipality"
"LMJ ENTERPRISES, LLC","ME0000002301901023","ME","110043324417","321999",45.38871,-68.49583,,"POF","Privately Owned Facility"
"LOHMAN ANIMAL HEALTH","ME0000002301100986","ME","110044797716","112310",44.4294,-69.50771,,"POF","Privately Owned Facility"
"LOHMAN ANIMAL HEALTH INTERNATIONAL, INC.","ME0000002301100859","ME","110008434836","325414",44.53821,-69.62858,,"POF","Privately Owned Facility"
"LOHMANN ANIMAL HEALTH INTERNATIONAL, INC.","ME000AGP165000005","ME","110039681626","812220",44.42862,-69.50788,,"POF","Privately Owned Facility"
"LORING BIOENERGY LLC","ME0000002302700912","ME","110039672538","221119",44.662365,-68.860783,,"POF","Privately Owned Facility"
"LORING DEVELOPMENT AUTHORITY OF MAINE","ME0000002300300649","ME","110008433356","221320 925120",46.9325,-67.896389,,"DIS","District"
"LORING HOLDINGS, LLC","ME0000002300300880","ME","110040496656","999999",46.932881,-67.893732,,"POF","Privately Owned Facility"
"LORING JOB CORPS CENTER","ME0000002300300843","ME","110070834927","611519",46.93499,-67.90222,,"FDF","Federal Facility (U.S. Government)"
"LOU SILVER, INC.","ME0000002301900750","ME","110012166100","212313",44.685789,-69.017722,,"POF","Privately Owned Facility"
"LOUISIANA-PACIFIC CORPORATION","ME0000002300300071","ME","110000607969","321219",46.109606,-67.954136,8277,"POF","Privately Owned Facility"
"LOVELL LUMBER COMPANY","ME0000002300500676","ME","110012166342","321113",44.12274,-70.892097,,"POF","Privately Owned Facility"
"LUBEC PACKING CO","ME0000002302900027","ME","110038937648","311711",44.8597,-66.9907,,"POF","Privately Owned Facility"
"LUCERNE FARMS","ME0000002300300445","ME","110010406578","111940",46.6333043,-67.8476235,,"POF","Privately Owned Facility"
"LYNCH VETERINARY SERVICES, P.A. D/B/A SOUTHERN MAINE VETERINARY CARE","ME0000002303100777","ME","110015308371","812220",43.47952,-70.60068,,"POF","Privately Owned Facility"
"M & H LOGGING, LLC","ME000ACIN000107","ME","110070144373","212321",44.96803,-70.67625,,"POF","Privately Owned Facility"
"M & H LOGGING, LLC","ME000ACIN000106","ME","110070144373","212321",44.96803,-70.67625,,"POF","Privately Owned Facility"
"M & P AUTO","ME0000002300163175","ME","110024823930","423110",44.072,-70.28162,,"POF","Privately Owned Facility"
"MACHIAS CLEANERS AND LAUNDRY INC.","ME0000002302963045","ME","110020581155","812320",44.71886,-67.451942,,"POF","Privately Owned Facility"
"MACHIAS MEMORIAL CREMATORIUM","ME000AGP165000015","ME","110070133050","812220",44.71557,-67.487307,,"POF","Privately Owned Facility"
"MADISON ELECTRIC WORKS","ME0000002302501100","ME","110015815705","221118",44.7928,-69.872237,,"CTG","Municipality"
"MAIETTA ENTERPRISES., INC","ME0000002300500040","ME","110007315495","999999",43.8393208,-70.744838,,"POF","Privately Owned Facility"
"MAINE AIR NATIONAL GUARD","ME0000002301900627","ME","110025247800","488190 928110",44.814905,-68.824558,,"FDF","Federal Facility (U.S. Government)"
"MAINE ARMY NATIONAL GUARD","ME0000002301100802","ME","110015815616","928110",44.31757,-69.7915,,"FDF","Federal Facility (U.S. Government)"
"MAINE ARMY NATIONAL GUARD","ME0000002301900755","ME","110000865617","928110",44.80944,-68.80738,,"STF","State Government"
"MAINE BIOLOGICAL LABORATORIES","ME0000002301100810","ME","110008434836","325414",44.53821,-69.62858,,"POF","Privately Owned Facility"
"MAINE BIOMEDICAL SERVICE_COMPANY","ME0000002303100075","ME","110038930707","999999",43.4119359,-70.7373256,,"POF","Privately Owned Facility"
"MAINE CENTRAL RAILROAD COMPANY","ME0000002300100033","ME","110000835384","482111",44.56086,-69.62684,,"POF","Privately Owned Facility"
"MAINE COAST REGIONAL HEALTH FACILITIES D/B/A MAINE COAST MEMORIAL HOSPITAL","ME0000002300900002","ME","110007370834","622110",44.54732,-68.41518,,"POF","Privately Owned Facility"
"MAINE COFFEE ROASTERS","ME0000002300500099","ME","110007274010","722410",43.788137,-70.156478,,"POF","Privately Owned Facility"
"MAINE DEPARTMENT OF CORRECTIONS","ME0000002301900267","ME","110013137550","922140",45.09336,-69.09224,,"STF","State Government"
"MAINE DEPARTMENT OF CORRECTIONS","ME0000002300500149","ME","110001839119","922140",43.72901,-70.41586,,"STF","State Government"
"MAINE DEPARTMENT OF CORRECTIONS","ME0000002300500321","ME","110001839752","922140",43.63959,-70.31115,,"STF","State Government"
"MAINE DEPARTMENT OF CORRECTIONS, MAINE STATE PRISON","ME0000002301300808","ME","110021175565","922140",44.06349,-69.22221,,"STF","State Government"
"MAINE DEPARTMENT OF TRANSPORTATION","ME000A001179","ME","110071722227","921190",43.64852,-70.25912,,"STF","State Government"
"MAINE DEPARTMENT OF TRANSPORTATION","ME000001176","ME","110071706344","921190",44.35634,-69.80404,,"STF","State Government"
"MAINE DEPARTMENT OF TRANSPORTATION","ME0000002301100933","ME","110042016779","999999",44.30846,-69.78521,,"STF","State Government"
"MAINE DOWEL CORP","ME0000002300700051","ME","110038944729","999999",44.661856,-70.1031041,,"POF","Privately Owned Facility"
"MAINE ELECTRONICS, INC.","ME0000002300100048","ME","110038929997","999999",44.0221792,-70.1173875,,"POF","Privately Owned Facility"
"MAINE ENERGY RECOVERY COMPANY, LIMITED PARTNERSHIP","ME0000002303100012","ME","110001854093","562213",43.495556,-70.453333,,"POF","Privately Owned Facility"
"MAINE FROZEN FOODS, INC.","ME0000002300300004","ME","110000314669","311411",46.85293,-68.00844,,"POF","Privately Owned Facility"
"MAINE FROZEN FOODS, INC.","ME0000002300301362","ME","110000314669","311411",46.85293,-68.00844,,"POF","Privately Owned Facility"
"MAINE GRATE CO. INC.","ME0000002300500086","ME","110001839468","331511",43.700202,-70.259826,,"POF","Privately Owned Facility"
"MAINE HEALTH & ENVIRONMENTAL TESTING LABORATORY","ME0000002301100708","ME","110001839654","812220",44.306639,-69.782222,,"STF","State Government"
"MAINE HEAVY EQUIPMENT RENTAL, INC.","ME000ACIN000102","ME","110070144370","212321",44.10427,-70.1797,,"POF","Privately Owned Facility"
"MAINE INDUSTRIAL PLASTICS AND RUBBER CORPORATION","ME000AEPA000001","ME","110070236506","326291",44.036574,-69.539604,,"POF","Privately Owned Facility"
"MAINE INDUSTRIAL TIRE, INC.","ME0000002300500059","ME","110037186461","326211",43.68201,-70.38644,,"POF","Privately Owned Facility"
"MAINE INVESTMENT PROP,LLC","ME0000002301300839","ME","110013388191","999999",44.2096,-69.06842,,"POF","Privately Owned Facility"
"MAINE LIFE CARE RETIREMENT COMMUNITY, INC. D/B/A PIPER SHORES","ME0000002300500738","ME","110012171951","623311",43.559278,-70.284833,,"POF","Privately Owned Facility"
"MAINE LIQUID METHANE FUELS, LLC","ME0000002301901038","ME","110058905305","221210",44.76344,-68.77601,,"POF","Privately Owned Facility"
"MAINE LUMBER, LLC","ME0000002302100842","ME","110038937443","999999",45.45461,-69.61023,,"POF","Privately Owned Facility"
"MAINE MARITIME ACADEMY","ME0000002300900078","ME","110008433052","611310",44.38696,-68.79813,,"POF","Privately Owned Facility"
"MAINE MEDICAL CENTER (LINEN PROCESSING FACILITY)","ME0000002300500945","ME","110044955821","812331",43.647717,-70.361447,,"POF","Privately Owned Facility"
"MAINE PLYWOOD USA LLC","ME000A001183","ME","110071956342","321219",45.054502,-69.885891,,"POF","Privately Owned Facility"
"MAINE POLY ACQUISITION CORP","ME0000002300100072","ME","110062690066","999999",44.1897541,-70.1450885,,"POF","Privately Owned Facility"
"MAINE POTATO GROWERS","ME0000002300313167","ME","110001826016","999999",46.12068,-67.84834,,"POF","Privately Owned Facility"
"MAINE PUBLIC SERVICE","ME0000002300300285","ME","110007315592","999999",46.1910231,-67.8609676,,"POF","Privately Owned Facility"
"MAINE STANDARD BIOFUEL","ME00000023005E0003","ME","110069220738","325199",43.69142,-70.32809,,,
"MAINE STAT PRISON","ME0000002301300058","ME","110038947931","922140",44.107714,-69.1714252,,"STF","State Government"
"MAINE STATE HOUSING AUTHORITY","ME000A001144","ME","110070560639","921190",44.31612,-69.8174,,"STF","State Government"
"MAINE TURBO DIESELS","ME000AEPA000017","ME","110071334940","423120",43.440869,-70.50455,,"POF","Privately Owned Facility"
"MAINE TURNPIKE AUTHORITY","ME0000002303100832","ME","110021035583","324199",43.3959471,-70.5702209,,"STF","State Government"
"MAINE TURNPIKE AUTHORITY","ME0000002300501010","ME","110055593923","999999",43.9049196,-70.367727,,"POF","Privately Owned Facility"
"MAINE TURNPIKE AUTHORITY","ME0000002300501009","ME","110055595538","999999",43.9049196,-70.367727,,"STF","State Government"
"MAINE TURNPIKE AUTHORITY","ME0000002301101008","ME","110040756143","999999",44.1950908,-69.793771,,"STF","State Government"
"MAINE TURNPIKE AUTHORITY","ME0000002303101011","ME","110055593941","999999",43.3959471,-70.5702209,,"STF","State Government"
"MAINE WOODS COMPANY LLC","ME0000002300300736","ME","110010391352","321912",46.753409,-68.502623,,"POF","Privately Owned Facility"
"MAINE WOODS PELLET COMPANY, LLC","ME0000002302500989","ME","110039679808","321219",44.945824,-69.660309,,"POF","Privately Owned Facility"
"MAINE YANKEE ATOMIC POWER COMPANY","ME0000002301500005","ME","110001093192","221113",43.9571,-69.69108,,"POF","Privately Owned Facility"
"MAINEGENERAL MEDICAL CENTER","ME0000002301100935","ME","110038040777","622110",44.3621,-69.78652,,"POF","Privately Owned Facility"
"MAINEGENERAL MEDICAL CENTER","ME0000002301100070","ME","110001298373","622110",44.5517,-69.65821,,"POF","Privately Owned Facility"
"MAINEGENERAL MEDICAL CENTER","ME0000002301100908","ME","110022482810","622110",44.22135,-69.76996,,"POF","Privately Owned Facility"
"MAINEGENERAL MEDICAL CENTER","ME0000002301100012","ME","110001852399","622110",44.565237,-69.646389,,"POF","Privately Owned Facility"
"MAINEHEALTH","ME0000002300500A57","ME","110040176047","622110",43.66546,-70.29166,,"POF","Privately Owned Facility"
"MAINEHEALTH","ME000A001182","ME","110071861753","622110",43.58837,-70.3459,,"POF","Privately Owned Facility"
"MAINEHEALTH","ME0000002300500009","ME","110000847086","622110",43.65289,-70.275308,,"POF","Privately Owned Facility"
"MAINEHEALTH","ME0000002300500974","ME","110039665886","622110",43.65367,-70.33828,,"POF","Privately Owned Facility"
"MAINEHEALTH D/B/A MAINE MEDICAL CENTER","ME0000002300500934","ME","110043977131","622110",43.60101,-70.3189,,"POF","Privately Owned Facility"
"MAINEHEALTH D/B/A MID COAST HOSPITAL","ME0000002302300763","ME","110012172157","622110",43.9061,-69.89165,,"POF","Privately Owned Facility"
"MAINEHEALTH D/B/A SPRING HARBOR HOSPITAL","ME0000002300500828","ME","110031158761","622210",43.65272,-70.341973,,"POF","Privately Owned Facility"
"MANAFORT BROTHERS, INCORPORATED","ME0000002301500784","ME","110063987306","212319",43.9571,-69.69108,,"POF","Privately Owned Facility"
"MAPLECREST SAND & GRAVEL","ME0000002302500815","ME","110012166093","999999",44.92424,-69.86806,,"POF","Privately Owned Facility"
"MARCAL PAPER MILLS, INC.","ME0000002300100013","ME","110038929327","322121",44.105123,-70.21272,,"POF","Privately Owned Facility"
"MARCOU CONSTRUCTION COMPNAY, INC.","ME0000002300500895","ME","110020049311","212321",43.65577,-70.36017,,"POF","Privately Owned Facility"
"MARITIMES & NORTHEAST PIPELINE, L.L.C.","ME0000002302900744","ME","110021176207","486210",45.204568,-67.453737,,"POF","Privately Owned Facility"
"MARITIMES & NORTHEAST PIPELINE, L.L.C.","ME0000002303100855","ME","110040756152","486210",43.142466,-70.786054,,"POF","Privately Owned Facility"
"MARITIMES & NORTHEAST PIPELINE, L.L.C.","ME0000002300900955","ME","110040100244","486210",44.989444,-68.086944,,"POF","Privately Owned Facility"
"MARITIMES & NORTHEAST PIPELINE, L.L.C.","ME0000002301100745","ME","110020045208","486210",44.1256,-69.8117,,"POF","Privately Owned Facility"
"MARITIMES & NORTHEAST PIPELINE, L.L.C.","ME0000002302700857","ME","110039133951","486210",44.391841,-69.229643,,"POF","Privately Owned Facility"
"MARITIMES & NORTHEAST PIPELINE, L.L.C.","ME0000002301900854","ME","110038457014","486210",44.79919,-68.71444,,"POF","Privately Owned Facility"
"MARITIMES & NORTHEAST PIPELINE, L.L.C.","ME0000002300500957","ME","110039665813","486210",43.731258,-70.364247,,"POF","Privately Owned Facility"
"MARK RIPOSTA","ME000AGP165000013","ME","110070132442","812220",44.46412,-68.95158,,"POF","Privately Owned Facility"
"MARK RIPOSTA","ME000GP165000023","ME","110039673859","812220",44.46412,-68.95158,,,
"MARK RIPOSTA","ME000AGP165000012","ME","110070132442","812220",44.46412,-68.95158,,"POF","Privately Owned Facility"
"MARK RIPOSTA D/B/A MAINE COAST CREMATORY","ME0000002302701007","ME","110039673859","812220",44.46412,-68.95158,,"POF","Privately Owned Facility"
"MARRINERS, INC.","ME0000002301300063","ME","110038947940","324121",44.2384055,-69.0640391,,"POF","Privately Owned Facility"
"MARS HILL,TOWN OF","ME0000002300300055","ME","110038930155","999999",46.5592719,-67.8532254,,"POF","Privately Owned Facility"
"MASON STATION LLC","ME0000002301500001","ME","110038947995","221112",43.980014,-69.686979,,"POF","Privately Owned Facility"
"MATTINGLY PRODUCTS COMPANY, INC.","ME0000002302500123","ME","110006910842","324121",44.86174,-69.88304,,"POF","Privately Owned Facility"
"MAURICE S. COHEN","ME0000002303100522","ME","110007315501","999999",43.6310191,-70.614369,,"POF","Privately Owned Facility"
"MAYNARD BROS. GENERAL CONTRACTING CORPORATION","ME0000002300300593","ME","110007273841","999999",46.751671,-68.080891,,"POF","Privately Owned Facility"
"MB BARK, LLC","ME0000002300100831","ME","110039670148","999999",44.05679,-70.29429,,"POF","Privately Owned Facility"
"MCCAIN FOODS USA, INC.","ME0000002300300027","ME","110007272806","311411",46.82959,-68.18394,,"POF","Privately Owned Facility"
