"AIRName","SourceID","AIRState","RegistryID","AIRNAICS","FacLat","FacLong","FacTRIAIRReleases","AIRFacilityTypeCode","AIRFacilityTypeDesc"
"3M COMPANY","SD0000004601100001","SD","110000427565","322222",44.296035,-96.764546,39501,"POF","Privately Owned Facility"
"3M COMPANY - ABERDEEN","SD0000004601300005","SD","110006120152","999999",45.445067,-98.522177,,"POF","Privately Owned Facility"
"A & A AUTO SALVAGE","0800000046103X0001","SD","110040631386","423140",44.11115,-103.18625,,"POF","Privately Owned Facility"
"A & S JACK RABBIT TIRE","080000004601100006","SD","110001676525","441310",44.30343,-96.80014,,"POF","Privately Owned Facility"
"A PLUS RECYCLING","0800000046103X0005","SD","110040631411","562920",44.111139,-103.181176,,"POF","Privately Owned Facility"
"ABC AUTOMOTIVE REPAIR","0800000046103X0004","SD","110033157544","811111",44.11113,-103.178068,,"POF","Privately Owned Facility"
"ABERDEEN ASPHALT, INC.","SD0000004677700040","SD","110038801721","324121",45.4646777,-98.468104,,"POF","Privately Owned Facility"
"ABERDEEN ENERGY, LLC","SD0000004604500003","SD","110038367228","325193",45.442417,-98.787139,27885,"POF","Privately Owned Facility"
"ACCO-NUTTING DIVISION","SD0000004602900021","SD","110062747522","332999",44.924174,-97.159488,,"POF","Privately Owned Facility"
"ACE READY MIX INC","SD0000004609900029","SD","110001676561","327320 327390 999999",43.56803,-96.68419,,"POF","Privately Owned Facility"
"ACE READY MIX INC","SD0000004677700439","SD","110001676561","327320 327390 999999",43.56803,-96.68419,,"POF","Privately Owned Facility"
"ACE READY MIX, INC.","SD0000004608300006","SD","110001676561","327320 327390 999999",43.56803,-96.68419,,"POF","Privately Owned Facility"
"ACE STEEL & RECYCLING","080000004610300053","SD","110012710600","423930",44.09708,-103.1688,,"POF","Privately Owned Facility"
"ACE STEEL & RECYCLING, INC","0800000046065X0002","SD","110046594994","423930",44.356,-100.31419,,"POF","Privately Owned Facility"
"ADVANCED ENVIRONMENTAL SERVICES INC","SD0000004677780002","SD","110062714861","999999",42.0654154,-91.5608529,,"POF","Privately Owned Facility"
"AERO SHEET METAL","080000004610300028","SD","110054087395","333415",43.95983,-103.2778,,"POF","Privately Owned Facility"
"AG PROCESSING INC.","SD0000004601301011","SD","110070675425","311222 311224",45.47352,-98.414865,326221,,
"AGGREGATE CONSTRUCTION, INC","SD0000004677700548","SD","110038783493","212321",44.4467957,-100.2381762,,"POF","Privately Owned Facility"
"AGGREGATE CONSTRUCTION, INC.","SD0000004677700716","SD","110062714497","212321",44.5276324,-100.3091229,,"POF","Privately Owned Facility"
"AGGREGATE CONSTRUCTION, INC.","SD0000004677700532","SD","110038783493","212321",44.4467957,-100.2381762,,"POF","Privately Owned Facility"
"AGGREGATE CONSTRUCTION, INC.","SD0000004677700579","SD","110062708217","212321",44.5276324,-100.3091229,,"POF","Privately Owned Facility"
"AGGREGATE CONSTRUCTION, INC.","SD0000004677700690","SD","110062744874","212321",44.5276324,-100.3091229,,"POF","Privately Owned Facility"
"AGGREGATE CONSTRUCTION, INC.","SD0000004677700533","SD","110038783493","212321",44.4467957,-100.2381762,,"POF","Privately Owned Facility"
"AGGREGATE CONSTRUCTION, INC.","SD0000004677700535","SD","110038783493","212321",44.4467957,-100.2381762,,"POF","Privately Owned Facility"
"AGGRESSIVE AUTO SALVAGE","0800000046103X0003","SD","110040631402","423140",44.11114,-103.182096,,"POF","Privately Owned Facility"
"AGRICARE ANIMAL NUTRITION","SD00000046140001","SD","110064846378","311111",43.56617,-96.71145,,"POF","Privately Owned Facility"
"AGROPUR INC., LAKE NORDEN FACILITY","SD0000004605700001","SD","110010952380","311513",44.579444,-97.210556,0,,
"AGTEGRA COOPERATIVE - CRAVEN","SD0000004604501016","SD","110070102317","493130",45.445511,-98.921645,,,
"AGTEGRA COOPERATIVE - WEST BOWDLE","SD0000000004500004","SD","110056339948","493130",45.26572,-99.40461,,,
"AL'S D & I REPAIR","080000004610300049","SD","110001676598","811111",44.08495,-103.27779,,"POF","Privately Owned Facility"
"ALAMO GROUP (SMC), INC","SD0000004609900034","SD","110000828294","333111",43.60405,-96.72206,,"POF","Privately Owned Facility"
"ALAN'S AUTO RECYCLING INC","0800000046103X0006","SD","110040631420","423140",44.11114,-103.1846,,"POF","Privately Owned Facility"
"ALDRICH","080000004610300024","SD","110062738284","238220",44.060537,-103.19188,,"POF","Privately Owned Facility"
"ALEXANDRIA GRAVEL PRODUCTS","SD0000004677700554","SD","110038783974","212321",45.88078,-95.38073,,"POF","Privately Owned Facility"
"ALFALFA FEEDS, INC.","SD0000004607700014","SD","110062726803","424510",44.375816,-97.582277,,"POF","Privately Owned Facility"
"AMERICAN COLLOID","SD0000004601900003","SD","110044797146","212325",44.683667,-103.85741,,,
"ANDERSON HEATING & A/C SERVICES","080000004610300029","SD","110062738355","238220",44.05185,-103.19353,,"POF","Privately Owned Facility"
"ANDERSON HEATING & COOLING","080000004607500001","SD","110013329479","999999",43.88916,-100.71471,,"POF","Privately Owned Facility"
"ANDERSON WESTERN, INC","SD0000004677700274","SD","110046461351","324121",44.4467957,-100.2381762,,"POF","Privately Owned Facility"
"ARCTIC CAT, INC.","SD0000004607900001","SD","110000427636","336999",43.99055,-97.104266,,"POF","Privately Owned Facility"
"ASPHALT PAVING & MATERIALS","SD0000004677700712","SD","110044796968","324121",44.3924671,-98.2019337,,"POF","Privately Owned Facility"
"ASPHALT PAVING & MATERIALS","SD0000004677700499","SD","110044796968","324121",44.3924671,-98.2019337,,"POF","Privately Owned Facility"
"ASSOCIATED MILK PRODUCERS INC - HOVEN","SD0000004610700001","SD","110045433544","311513",45.245169,-99.777769,,"POF","Privately Owned Facility"
"ATTEBERRY CONSTRUCTION INC","SD0000004677700571","SD","110038784054","212321",43.1772115,-99.7603461,,"POF","Privately Owned Facility"
"AUGUSTANA COLLEGE","SD0000004609900018","SD","110007173735","611310",43.5245515,-96.7386103,,"POF","Privately Owned Facility"
"AULICK LEASING","SD0000004677700575","SD","110062708128","212321",44.5276324,-100.3091229,,"POF","Privately Owned Facility"
"AVERA MCKENNAN HOSPITAL","SD0000004609900047","SD","110038045004","622110",43.53759,-96.71631,,"POF","Privately Owned Facility"
"AVERA ST LUKES HOSPITAL","SD0000004601300004","SD","110001676259","622110",45.46164,-98.47932,,"POF","Privately Owned Facility"
"B & B CONCRETE, INC.","SD0000004677700020","SD","110001994129","324121",44.32307,-96.80857,0,"POF","Privately Owned Facility"
"B&B EQUIPMENT","SD0000004677700564","SD","110038784009","212321",44.420522,-100.350184,,"POF","Privately Owned Facility"
"B.I.I. SALEM","SD0000004608700001","SD","110044316451","333111",43.72082,-97.39472,,"POF","Privately Owned Facility"
"BAKER RANCH DBA BADLANDS SAND & GRAVEL","SD0000004677700619","SD","110062718215","212321",43.81048,-103.01944,,"POF","Privately Owned Facility"
"BAKER RANCH DBA BADLANDS SAND & GRAVEL","SD0000004677700618","SD","110062718215","212321",43.81048,-103.01944,,"POF","Privately Owned Facility"
"BALDWIN FILTERS","SD0000004613500008","SD","110004946319","336399",42.88715,-97.34591,,"POF","Privately Owned Facility"
"BARNES HAY & FEED COMPANY","SD0000004613500004","SD","110062725476","311119",42.8755236,-97.1858592,,"POF","Privately Owned Facility"
"BASIN ELECTRIC - DEER CREEK STATION","SD0000004601100011","SD","110054890267","221112",44.2476726,-96.4959219,,"POF","Privately Owned Facility"
"BASIN ELECTRIC POWER COOPERATIVE","SD0000004677770001","SD","110062714834","999999",46.8149315,-100.6981957,,"POF","Privately Owned Facility"
"BASIN ELECTRIC POWER COOPERATIVE","SD0000004677770002","SD","110062714834","999999",46.8149315,-100.6981957,,"POF","Privately Owned Facility"
"BASIN ELECTRIC POWER COOPERATIVE GROTON GENERATING","SD0000004601300008","SD","110039622361","221112",45.4655374,-98.1149671,,,
"BASIN ELECTRIC POWER COOPERATIVE SPIRIT MOUND STAT","SD0000004602700001","SD","110007186106","221112",42.8446191,-96.9863877,,,
"BDM RURAL WATER SYSTEM","SD0000004609100020","SD","110070520628","221310",45.79231,-97.74906,,"MWD","Municipal or Water District"
"BENCHMARK FOAM, INC.","SD0000004602900013","SD","110021345301","326140",44.88962,-97.063,,"POF","Privately Owned Facility"
"BERNARD MAHRER CONSTRUCTION COMPANY","SD0000004677700708","SD","110062745472","212321",44.5276324,-100.3091229,,"POF","Privately Owned Facility"
"BERNARD MAHRER CONSTRUCTION COMPANY","SD0000004677700276","SD","110038788960","212321",44.5276324,-100.3091229,,"POF","Privately Owned Facility"
"BIMBO BAKERIES ","SD0000004609900011","SD","110011676864","311812",43.54809,-96.68979,,"POF","Privately Owned Facility"
"BIRDSALL SAND & GRAVEL (CENTRAL MIX)","SD0000004610300047","SD","110059272772","327320",44.08526,-103.26798,,"POF","Privately Owned Facility"
"BITUMINOUS PAVING, INC.","SD0000004677700673","SD","110063989769","324121",44.5276324,-100.3091229,,"POF","Privately Owned Facility"
"BITUMINOUS PAVING, INC.","SD0000004677700448","SD","110063988528","324121",44.5276324,-100.3091229,,"POF","Privately Owned Facility"
"BITUMINOUS PAVING, INC.","SD0000004677700089","SD","110063988519","324121",44.5276324,-100.3091229,,"POF","Privately Owned Facility"
"BLACK HILLS HEALTH CARE SYSTEM","SD0000004604700087","SD","110043418487","923140",43.435424,-103.474214,,"FDF","Federal Facility (U.S. Government)"
"BLACK HILLS POWER AND LIGHT COMPANY","SD0000004608100007","SD","110062726812","221112",44.3290117,-103.6890344,,"POF","Privately Owned Facility"
"BLACK HILLS POWER, INC. (LANGE)","SD0000004610300034","SD","110028229030","221112",44.11181,-103.2676,,"POF","Privately Owned Facility"
"BLACK HILLS POWER, INC. - BEN FRENCH ","SD0000004610300001","SD","110012375599","999999",44.089222,-103.265194,,,
"BLACK HILLS TRANSLOAD","SD0000004610300059","SD","110054884489","212321",44.2312008,-102.9943767,,"POF","Privately Owned Facility"
"BLACK TOP PAVING COMPANY","SD0000004677700021","SD","110062717788","324121",43.5383351,-96.7319985,,"POF","Privately Owned Facility"
"BLACKTOP PAVING OF MINNESOTA","SD0000004677700456","SD","110038805424","324121",45.1760894,-93.1842951,,"POF","Privately Owned Facility"
"BONESTEEL OIL COMPANY, INC.","080000004605300001","SD","110038800811","424720",43.143555,-98.9664474,,"POF","Privately Owned Facility"
"BORDER STATES PAVING, INC.","SD0000004677700077","SD","110010367129","324121",44.5276324,-100.3091229,,"POF","Privately Owned Facility"
"BORDER STATES PAVING, INC.","SD0000004677700093","SD","110010367129","324121",44.5276324,-100.3091229,,"POF","Privately Owned Facility"
"BOWES CONSTRUCTION INC","SD0000004677700700","SD","110044796977","212321 324121",44.272204,-96.768239,,"POF","Privately Owned Facility"
"BOWES CONSTRUCTION INC","SD0000004677700625","SD","110044796977","212321 324121",44.272204,-96.768239,,"POF","Privately Owned Facility"
"BOWES CONSTRUCTION INC","SD0000004677700699","SD","110044796977","212321 324121",44.272204,-96.768239,,"POF","Privately Owned Facility"
"BOWES CONSTRUCTION INC","SD0000004677700367","SD","110044796977","212321 324121",44.272204,-96.768239,,"POF","Privately Owned Facility"
"BOWES CONSTRUCTION INC","SD0000004677700623","SD","110044796977","212321 324121",44.272204,-96.768239,,"POF","Privately Owned Facility"
"BOWES CONSTRUCTION INC","SD0000004677700627","SD","110044796977","212321 324121",44.272204,-96.768239,,"POF","Privately Owned Facility"
"BOWES CONSTRUCTION INC","SD0000004677700622","SD","110044796977","212321 324121",44.272204,-96.768239,,"POF","Privately Owned Facility"
"BOWES CONSTRUCTION INC","SD0000004677700621","SD","110044796977","212321 324121",44.272204,-96.768239,,"POF","Privately Owned Facility"
"BOWES CONSTRUCTION INC","SD0000004677700624","SD","110044796977","212321 324121",44.272204,-96.768239,,"POF","Privately Owned Facility"
"BOWES CONSTRUCTION INC","SD0000004677700626","SD","110044796977","212321 324121",44.272204,-96.768239,,"POF","Privately Owned Facility"
"BOX ELDER AUTO PARTS & SERVICE","080000004610300043","SD","110007743549","811198",44.114257,-103.081144,,"POF","Privately Owned Facility"
"BRANDON MATERIALS COMPANY","SD0000004677740001","SD","110058906572","999999",43.5383351,-96.7319985,,"POF","Privately Owned Facility"
"BRANDON MATERIALS CORSON READY MIX PLANT","SD0000004609900035","SD","110044800374","327320",43.62549,-96.57169,,"POF","Privately Owned Facility"
"BRANDON MATERIALS HARRISBURG PLANT","SD0000004608300008","SD","110044800383","327112",43.44166,-96.69947,,"POF","Privately Owned Facility"
"BREKKUS HONDA","080000004610300018","SD","110062747755","811111",44.08193,-103.21854,,"POF","Privately Owned Facility"
"BRENTWOOD HUTTERIAN BRETHRENS, INC.","SD0000004604901004","SD","110070162188","493130",45.152204,-99.308622,,"POF","Privately Owned Facility"
"BRIELMAIER AGGREGATES, INC.","SD0000004677700479","SD","110062707995","212321",44.4467957,-100.2381762,,"POF","Privately Owned Facility"
"BRIELMAIER AGGREGATES, INC.","SD0000004677700478","SD","110062707986","212321",44.4467957,-100.2381762,,"POF","Privately Owned Facility"
"BRIELMAIER AGGREGATES, INC.","SD0000004677700477","SD","110062707977","212321",44.4467957,-100.2381762,,"POF","Privately Owned Facility"
"BROHM MINING CORPORATION","SD0000004608100011","SD","110038801552","212221",44.3290117,-103.6890344,,"POF","Privately Owned Facility"
"BROOKINGS REGIONAL LANDFILL","SD0000004601101023","SD","110007841256","562212",44.301056,-96.790687,,,
"BROWN COUNTY SOLID WASTE LANDFILL","SD0000004601300010","SD","110045434455","562212",45.47116,-98.61904,,"CNG","County Government"
"BROWNLEE CONSTRUCTION","SD0000004677700640","SD","110062730576","212321",44.8808,-97.10894,,"POF","Privately Owned Facility"
"BROWNLEE CONSTRUCTION","SD0000004677700639","SD","110062730576","212321",44.8808,-97.10894,,"POF","Privately Owned Facility"
"BUFFALO RIDGE ENERGY, LLC","SD0000004609900046","SD","110040485542","325193",43.5936541,-96.5870131,,"POF","Privately Owned Facility"
"BUTLER MACHINERY","SD00046","SD","110007839937","332710",44.12029,-103.27193,,,
"C & W ENTERPRISES","SD0000004677700566","SD","110038784027","999999",43.5987413,-96.8169582,,"POF","Privately Owned Facility"
"C&W ENTERPRISES INC.","SD0000004677700505","SD","110038805488","212321",43.5383351,-96.7319985,,"POF","Privately Owned Facility"
"C&W ENTERPRISES INC.","SD0000004677700506","SD","110010367762","999999",43.64535,-96.77432,,"POF","Privately Owned Facility"
"CAMAS MINNDAK, INC.","SD0000004677700095","SD","110038788942","324121",44.4467957,-100.2381762,,"POF","Privately Owned Facility"
"CAMROSE COLONY","SD0000004611501005","SD","110071064341","111998",44.93239,-98.22758,,"POF","Privately Owned Facility"
"CARLSON, JOHN A. INC.","SD0000004677700290","SD","110038805433","212321 324121",43.289423,-100.0901885,,"POF","Privately Owned Facility"
"CARLSON, JOHN A. INC.","SD0000004677700032","SD","110038801703","324121",43.3774687,-99.8549094,,"POF","Privately Owned Facility"
"CARLSON, JOHN A. INC.","SD0000004677700457","SD","110038805433","212321 324121",43.289423,-100.0901885,,"POF","Privately Owned Facility"
"CCL LABEL","SD0000004609900039","SD","110000820130","323112",43.56153,-96.74261,,,
"CENTENNIAL HOMES, INC.","080000004609900014","SD","110062747620","237310",43.47917,-96.79644,,"POF","Privately Owned Facility"
"CENTRAL BI-PRODUCTS","SD0000004600500007","SD","110062739746","311111",44.36257,-98.17425,,"POF","Privately Owned Facility"
"CENTRAL SPECIALTIES INC","SD0000004677700597","SD","110063979422","212312 324121 999999",44.5276324,-100.3091229,,"POF","Privately Owned Facility"
"CENTRAL SPECIALTIES INC","SD0000004677700613","SD","110063979422","212312 324121 999999",44.5276324,-100.3091229,,"POF","Privately Owned Facility"
"CENTRAL SPECIALTIES INC","SD0000004677700501","SD","110063979422","212312 324121 999999",44.5276324,-100.3091229,,"POF","Privately Owned Facility"
"CENTRAL SPECIALTIES INC","SD0000004677700487","SD","110063979422","212312 324121 999999",44.5276324,-100.3091229,,"POF","Privately Owned Facility"
"CENTURY COMPANIES, INC.","SD0000004677700518","SD","110038805665","324121",44.5276324,-100.3091229,,"POF","Privately Owned Facility"
"CHANCELLOR READY MIX PLANT","SD0000004612500004","SD","110044800392","327390",43.4251847,-96.9736103,,"POF","Privately Owned Facility"
"CHEMRING ENERGETIC DEVICES","SD0000004603900002","SD","110000427903","325920",44.777639,-96.664444,0,"POF","Privately Owned Facility"
"CHEYENNE EAGLE BUTTE SCHOOL","080000004604100001","SD","110071294740","611110",45,-101.23722,,"COR","Corporation"
"CHICAGO RAWHIDE MANUFACTURING COMPANY","080000004600900002","SD","110041992957","339991",42.859732,-97.892485,,"POF","Privately Owned Facility"
"CITY OF PIERRE SOLID WASTE FACILITY","0800000046065X0003","SD","110046594985","423930",44.5276324,-100.3091229,,"CTG","Municipality"
"CITY OF RAPID CITY SOLID WASTE DIVISION","SD0000004610300054","SD","110044316629","562212",44.08285,-103.22643,,,
"CITY OF SIOUX FALLS","0800000046099X0001","SD","110035779495","924110",43.674576,-96.791,,"POF","Privately Owned Facility"
"CITY OF VERMILLION LANDFILL","SD0000004602701009","SD","110061012229","562212",42.877191,-96.987078,,,
"CITY/SCHOOL COMMON ENERGY PLANT","SD0000004610301185","SD","110070235992","221330",44.082379,-103.230501,,,
"CITY/SCHOOL COMMON ENERGY PLANT - DO NOT USE","SD00028.0103-02","SD","110064589128","221330",44.08762,-103.22837,,,
"CLASSIC CLEANERS","080000004609900024","SD","110004946417","812320",43.50996,-96.75106,,"POF","Privately Owned Facility"
"CLAY RURAL WATER SYSTEM INC. - WAKONDA","SD0000004609900026","SD","110009445617","221310",43.5715,-96.73044,,"CTG","Municipality"
"COCA-COLA BOTTLING CO.","0800000046103X0002","SD","110059272905","454210",44.10645,-103.26015,,"POF","Privately Owned Facility"
"COMMERCIAL ASPHALT","SD0000004677700614","SD","110006911164","324121 324122",43.723616,-97.948261,,"POF","Privately Owned Facility"
"COMMERCIAL ASPHALT","SD0000004677700581","SD","110006911164","324121 324122",43.723616,-97.948261,,"POF","Privately Owned Facility"
"COMMERCIAL ASPHALT","SD0000004677700705","SD","110006911164","324121 324122",43.723616,-97.948261,,"POF","Privately Owned Facility"
"COMMERCIAL ASPHALT","SD0000004677700428","SD","110006911164","324121 324122",43.723616,-97.948261,,"POF","Privately Owned Facility"
"COMMERCIAL ASPHALT","SD0000004677700495","SD","110006911164","324121 324122",43.723616,-97.948261,,"POF","Privately Owned Facility"
"CONCRETE CONTRACTORS INC","SD0000004677700644","SD","110062728516","212321",44.3162167,-96.7943596,,"POF","Privately Owned Facility"
"CONCRETE CONTRACTORS INC","SD0000004677700631","SD","110062728516","212321",44.3162167,-96.7943596,,"POF","Privately Owned Facility"
"CONCRETE DAKOTA REDI MIX INC.","SD0000004602900023","SD","110044800409","327390",44.888831,-97.110648,,"POF","Privately Owned Facility"
"CONCRETE MATERIALS","SD0000004609900032","SD","110010367183","212321 324121 327320",43.572906,-96.674428,0,"POF","Privately Owned Facility"
"CONCRETE MATERIALS COMPANY","SD0000004677700057","SD","110044796995","333120",43.5383351,-96.7319985,,"POF","Privately Owned Facility"
"CONCRETE MATERIALS COMPANY","SD0000004677700543","SD","110010367183","212321 324121 327320",43.572906,-96.674428,0,"POF","Privately Owned Facility"
"CONCRETE MATERIALS COMPANY","SD0000004677700617","SD","110010367183","212321 324121 327320",43.572906,-96.674428,0,"POF","Privately Owned Facility"
"CONCRETE MATERIALS COMPANY","SD0000004677700298","SD","110062712809","212321",43.5383351,-96.7319985,,"POF","Privately Owned Facility"
"CONCRETE MATERIALS COMPANY","SD0000004609900110","SD","110007186124","999999",43.5584,-96.76885,,"POF","Privately Owned Facility"
"CONCRETE MATERIALS COMPANY","SD0000004677700294","SD","110062712765","212321",43.5383351,-96.7319985,,"POF","Privately Owned Facility"
"CONCRETE MATERIALS COMPANY","SD0000004677700734","SD","110062714647","212311 999999",43.562972,-96.771023,1,"POF","Privately Owned Facility"
"CONCRETE MATERIALS COMPANY","SD0000004677700296","SD","110062712783","212321",43.5383351,-96.7319985,,"POF","Privately Owned Facility"
"CONCRETE MATERIALS COMPANY","SD0000004677700109","SD","110062714647","212311 999999",43.562972,-96.771023,1,"POF","Privately Owned Facility"
"CONCRETE MATERIALS COMPANY","SD0000004677700297","SD","110062712792","212321",43.5383351,-96.7319985,,"POF","Privately Owned Facility"
"CONCRETE MATERIALS COMPANY","SD0000004677700300","SD","110010367183","212321 324121 327320",43.572906,-96.674428,0,"POF","Privately Owned Facility"
"CONCRETE MATERIALS COMPANY","SD0000004613500062","SD","110012710398","327320",42.887101,-97.355848,0,"POF","Privately Owned Facility"
"CONCRETE MATERIALS COMPANY","SD0000004677700466","SD","110010367183","212321 324121 327320",43.572906,-96.674428,0,"POF","Privately Owned Facility"
"CONCRETE MATERIALS COMPANY","SD0000004677700295","SD","110062712774","212321",43.5383351,-96.7319985,,"POF","Privately Owned Facility"
"CONSOLIDATED READY MIX, INC.","SD0000004609900037","SD","110012710389","327320",43.51672,-96.7449,,"POF","Privately Owned Facility"
"CONTINENTAL RESOURCES - BUFFALO (CTB#1)","SD0000004606300004","SD","110033141981","211111",45.5371676,-103.5860674,,,
"CONTINENTAL RESOURCES - SOUTH BUFFALO (CTB#11)","SD0000004606300005","SD","110033141981","211111",45.5371676,-103.5860674,,,
"CONTINENTAL RESOURCES - SOUTH BUFFALO (CTB#3)","SD0000004606300006","SD","110033141981","211111",45.5371676,-103.5860674,,,
"CONTINENTAL RESOURCES - WEST BUFFALO (CTB25)","SD0000004606300003","SD","110033141981","211111",45.5371676,-103.5860674,,,
"CONTINENTAL RESOURCES, INC.","SD0000004606300001","SD","110033141981","211111",45.5371676,-103.5860674,,"POF","Privately Owned Facility"
"CONTINENTAL RESOURCES, INC.","SD0000004606300002","SD","110033141981","211111",45.5371676,-103.5860674,,"POF","Privately Owned Facility"
"CRAZY HORSE CONSTRUCTION CO.","SD0000004677700565","SD","110038784018","212321",43.0269373,-102.5523915,,"POF","Privately Owned Facility"
"CRAZY HORSE SCHOOL (A06-23-B1, B2, AND B3 BOILERS)","080000004607100001","SD","110071294739","238220",43.572972,-101.66921,,"COR","Corporation"
"CRETE READY FOAM LLC","SD000000028.990140","SD","110066859171","112990 326140 493130",44.042672,-98.887273,,"POF","Privately Owned Facility"
"CROELL INC.","SD0000004677700576","SD","110062708137","212321",44.5276324,-100.3091229,,"POF","Privately Owned Facility"
"CROELL INC.","SD0000004677700652","SD","110062730709","212321",44.5276324,-100.3091229,,"POF","Privately Owned Facility"
"CROELL INC.","SD0000004677700653","SD","110062730718","212321",44.5276324,-100.3091229,,"POF","Privately Owned Facility"
"CROELL REDI MIX","SD0000004608100014","SD","110062747586","327320",42.8380354,-92.1153259,,"POF","Privately Owned Facility"
"CROELL REDI-MIX","SD0000004677780005","SD","110062724182","327320",44.3711821,-104.3598235,,"POF","Privately Owned Facility"
"CUNDY ASPHALT PAVING CONSTRUCTION, INC.","SD0000004677700447","SD","110038805399","324121",44.4467957,-100.2381762,,"POF","Privately Owned Facility"
"DACOTAH CEMENT","SD0000004610300011","SD","110070834910","327310",44.0896,-103.271663,6671,"STF","State Government"
"DAIRICONCEPTS, LP","SD0000004602100001","SD","110000602063","311513",45.898599,-100.286358,0,"POF","Privately Owned Facility"
"DAKOTA BLOCK COMPANY","SD0000004610300008","SD","110004947764","327331",44.09671,-103.27093,,"POF","Privately Owned Facility"
"DAKOTA CONNECTION CONCRETE BATCH PLANT","080000004610900109","SD","110071294550","327320",45.6687034,-97.0736383,,"COR","Corporation"
"DAKOTA ETHANOL LLC","SD0000004607900003","SD","110006692070","325193",43.976389,-96.95333,33420,"POF","Privately Owned Facility"
"DAKOTA FOUNDRY, INC.","SD0000004603700003","SD","110033141972","331511",45.342958,-97.520199,,"POF","Privately Owned Facility"
"DAKOTA KITCHEN AND BATH INC","SD0000004609900030","SD","110004950544","337110",43.59093,-96.69453,,"POF","Privately Owned Facility"
"DAKOTA MOBILE HYDRAULICS","SD0000004601100087","SD","110001676446","332813",44.305739,-96.75171,,"POF","Privately Owned Facility"
"DAKOTA ROAD BUILDERS, INC.","SD0000004677700497","SD","110038805460","212312",44.4467957,-100.2381762,,"POF","Privately Owned Facility"
"DAKOTA TUBE COMPANY INC.","SD0000004602900017","SD","110000427832","333995",44.92695,-97.15547,0,"POF","Privately Owned Facility"
"DAKOTA VALUE CAPTURE COOPERATIVE","SD0000004611900002","SD","110038801650","325998",44.576762,-100.380958,,"POF","Privately Owned Facility"
"DAKTRONICS INC. - BROOKINGS","SD0000004601100007","SD","110000427556","339950",44.30841,-96.75172,0,,
"DAPRO LLC","SD0000004600500009","SD","110054890221","311613",44.356118,-98.154047,,"POF","Privately Owned Facility"
"DARREL'S ROCK, SAND & GRAVEL, INC.","SD0000004677700560","SD","110038783992","212321",44.055549,-98.6796595,,"POF","Privately Owned Facility"
"DAVE'S AUTO REPAIR","080000004610300051","SD","110001676614","811111",44.06751,-103.19808,,"POF","Privately Owned Facility"
"DELHUR INDUSTRIES, INC.","SD0000004677700539","SD","110038783448","212321",48.0302607,-123.3293762,,"POF","Privately Owned Facility"
"DEPENDABLE SANITATION INC.","SD0000004601300002","SD","110062739773","999999",45.4823353,-98.53254,,"POF","Privately Owned Facility"
"DESIGN TANKS (BELLE FOURCHE)","SD0000004601901017","SD","110070049425","325211 326199",44.9338787,-103.8957453,,,
"DESIGN TANKS - BELLE FOURCHE - DO NOT USE","SD00028.3301-15","SD","110070049425","325211 326199",44.9338787,-103.8957453,,"POF","Privately Owned Facility"
"DESIGN TANKS, INC.","SD0000004609900025","SD","110025317182","326199",43.56646,-96.7354,61725,,
"DIESEL MACHINERY INC","SD0000004677700713","SD","110056283926","212321",43.59369,-96.71133,,"POF","Privately Owned Facility"
"DIESEL MACHINERY INC","SD0000004677700714","SD","110056283926","212321",43.59369,-96.71133,,"POF","Privately Owned Facility"
"DIESEL MACHINERY INC","SD0000004677700719","SD","110056283926","212321",43.59369,-96.71133,,"POF","Privately Owned Facility"
"DIESEL MACHINERY INC.","SD0000004677700635","SD","110062730558","212321",43.5383351,-96.7319985,,"POF","Privately Owned Facility"
"DIESEL MACHINERY INC.","SD0000004677700691","SD","110062744883","212321",43.5383351,-96.7319985,,"POF","Privately Owned Facility"
"DOLAND DE-HY, INC.","SD0000004611500002","SD","110038801632","311119",45.3346502,-98.1000655,,"POF","Privately Owned Facility"
"DOW RUMMEL VILLAGE","SD0000004609901117","SD","110070106665","623110",43.560075,-96.745554,,"POF","Privately Owned Facility"
"DUININCK BROS INC","SD0000004677790010","SD","110010367110","324121",44.9483232,-95.1648108,,"POF","Privately Owned Facility"
"DUININCK BROS INC","SD0000004677700682","SD","110062744847","212321",44.9483232,-95.1648108,,"POF","Privately Owned Facility"
"DUININCK BROS INC","SD0000004677700594","SD","110062708253","212321",44.9483232,-95.1648108,,"POF","Privately Owned Facility"
"DUININCK BROS INC","SD0000004677700595","SD","110062718055","324121",44.9483232,-95.1648108,,"POF","Privately Owned Facility"
"DUININCK BROS INC","SD0000004677700555","SD","110010367110","324121",44.9483232,-95.1648108,,"POF","Privately Owned Facility"
"DUININCK BROS. INC.","SD0000004677700494","SD","110010367110","324121",44.9483232,-95.1648108,,"POF","Privately Owned Facility"
"DUSTCOATING INC","SD0000004677780003","SD","110062715012","999999",44.96937,-93.699051,,"POF","Privately Owned Facility"
"DUSTCOATING INC","SD0000004677780004","SD","110062715012","999999",44.96937,-93.699051,,"POF","Privately Owned Facility"
"DUSTCOATING INC","SD0000004677700201","SD","110062712738","999999",47.6687356,-122.0150956,,"POF","Privately Owned Facility"
"EAST DAKOTAS RENEWABLE ENERGY, LLC","SD0000004608300075","SD","110071399478","221210",43.178445,-96.84553,,"MXO","Mixed Ownership (e.g., Public/Private)"
"EAST MAN FEEDS USA","SD0000004609900118","SD","110062747700","311119",43.56617,-96.71145,,"POF","Privately Owned Facility"
"EASTWAY LAUNDRY","080000004609900022","SD","110062747657","812320",43.54669,-96.68247,,"POF","Privately Owned Facility"
"EDDIE'S TRUCK CENTER","080000004610300021","SD","110007186286","811111",44.0814,-103.19448,,"POF","Privately Owned Facility"
"EGGER STEEL COMPANY","SD0000004609900119","SD","110000427743","332312",43.53789,-96.71631,,"POF","Privately Owned Facility"
"EKE INC DBA JOHNER & SONS","SD0000004677700642","SD","110062730594","212321",44.48442,-103.80306,,"POF","Privately Owned Facility"
"EKE INC DBA JOHNER & SONS","SD0000004677700709","SD","110062730594","212321",44.48442,-103.80306,,"POF","Privately Owned Facility"
"ELLSWORTH AIR FORCE BASE","SD0000004610300040","SD","110044359217","928110",44.1587892,-103.1018685,,"FDF","Federal Facility (U.S. Government)"
"EMULSIFIED ASPHALT, INC. OF WYOMING","SD0000004677700454","SD","110062726536","324121",42.8428845,-106.3739058,,"POF","Privately Owned Facility"
"EVANS POST AND POLE","SD0000004603300004","SD","110037592922","321113",43.5944344,-103.5924748,,"POF","Privately Owned Facility"
"EVERGREEN HUTTERIAN BRETHREN INC.","SD0004604901006","SD","110070144501","112210",45.128991,-99.044084,,,
"EVERIST, L.G. INC.","SD0000004677700314","SD","110021037554","212319 212321",43.5312429,-96.7549707,,"POF","Privately Owned Facility"
"EVERIST, L.G. INC.","SD0000004677700309","SD","110009792322","212321",43.544052,-96.728295,,"POF","Privately Owned Facility"
"EVERIST, L.G. INC.","SD0000004677700311","SD","110009792322","212321",43.544052,-96.728295,,"POF","Privately Owned Facility"
"EVERIST, L.G. INC.","SD0000004677700480","SD","110010367423","999999",43.5444,-96.7268,,"POF","Privately Owned Facility"
"EVERIST, L.G. INC.","SD0000004677700312","SD","110009792322","212321",43.544052,-96.728295,,"POF","Privately Owned Facility"
"EVERIST, L.G. INC.","SD0000004677700483","SD","110062708011","212321",43.5312429,-96.7549707,,"POF","Privately Owned Facility"
"EVERIST, L.G. INC.","SD0000004677700310","SD","110009792322","212321",43.544052,-96.728295,,"POF","Privately Owned Facility"
"EVERIST, L.G. INC.","SD0000004677700130","SD","110062738541","212311",43.5312429,-96.7549707,,"POF","Privately Owned Facility"
"FEDERAL BEEF PROCESSORS SOUTH","080000004610300044","SD","110001676516","311611",44.086053,-103.240519,,"POF","Privately Owned Facility"
"FIRST RATE EXCAVATE INC","SD0000004677700686","SD","110062714683","212321 999999",43.58378,-96.70706,,"POF","Privately Owned Facility"
"FIRST RATE EXCAVATE INC","SD0000004677700735","SD","110062714683","212321 999999",43.58378,-96.70706,,"POF","Privately Owned Facility"
"FIRST RATE EXCAVATE INC","SD0000004677700693","SD","110062714683","212321 999999",43.58378,-96.70706,,"POF","Privately Owned Facility"
"FISHER SAND & GRAVEL","SD0000004677700732","SD","110062714638","212321",44.4467957,-100.2381762,,"POF","Privately Owned Facility"
"FISHER SAND & GRAVEL","SD0000004677700733","SD","110055615204","212321",44.4467957,-100.2381762,,"POF","Privately Owned Facility"
"FISHER SAND & GRAVEL","SD0000004677700736","SD","110062714692","999999",46.7269147,-111.9082646,,"POF","Privately Owned Facility"
"FISHER SAND & GRAVEL COMPANY","SD0000004677700551","SD","110038783484","212311 212319 212321",44.4467957,-100.2381762,,"POF","Privately Owned Facility"
"FISHER SAND & GRAVEL COMPANY","SD0000004677700507","SD","110038783484","212311 212319 212321",44.4467957,-100.2381762,,"POF","Privately Owned Facility"
"FISHER SAND & GRAVEL COMPANY","SD0000004677700316","SD","110038783484","212311 212319 212321",44.4467957,-100.2381762,,"POF","Privately Owned Facility"
"FISHER SAND & GRAVEL COMPANY","SD0000004677700326","SD","110038783484","212311 212319 212321",44.4467957,-100.2381762,,"POF","Privately Owned Facility"
"FISHER SAND & GRAVEL COMPANY","SD0000004677700650","SD","110062730683","212321",44.4467957,-100.2381762,,"POF","Privately Owned Facility"
"FISHER SAND & GRAVEL COMPANY","SD0000004677700671","SD","110062744785","212321",44.4467957,-100.2381762,,"POF","Privately Owned Facility"
"FISHER SAND & GRAVEL COMPANY","SD0000004677700459","SD","110038783484","212311 212319 212321",44.4467957,-100.2381762,,"POF","Privately Owned Facility"
"FISHER SAND & GRAVEL COMPANY","SD0000004677700342","SD","110038783484","212311 212319 212321",44.4467957,-100.2381762,,"POF","Privately Owned Facility"
"FISHER SAND & GRAVEL COMPANY","SD0000004677700561","SD","110038783983","212321",44.4563391,-103.9252659,,"POF","Privately Owned Facility"
"FISHER SAND & GRAVEL COMPANY","SD0000004677700717","SD","110038783484","212311 212319 212321",44.4467957,-100.2381762,,"POF","Privately Owned Facility"
"FISHER SAND & GRAVEL COMPANY","SD0000004677700606","SD","110062718162","212321",44.4467957,-100.2381762,,"POF","Privately Owned Facility"
"FISHER SAND & GRAVEL COMPANY","SD0000004677700323","SD","110038783484","212311 212319 212321",44.4467957,-100.2381762,,"POF","Privately Owned Facility"
"FISHER SAND & GRAVEL COMPANY","SD0000004677700557","SD","110038783983","212321",44.4563391,-103.9252659,,"POF","Privately Owned Facility"
"FISHER SAND & GRAVEL COMPANY","SD0000004677700267","SD","110038783484","212311 212319 212321",44.4467957,-100.2381762,,"POF","Privately Owned Facility"
"FISHER SAND & GRAVEL COMPANY","SD0000004677700317","SD","110038783484","212311 212319 212321",44.4467957,-100.2381762,,"POF","Privately Owned Facility"
"FISHER SAND & GRAVEL COMPANY","SD0000004677700522","SD","110038783484","212311 212319 212321",44.4467957,-100.2381762,,"POF","Privately Owned Facility"
"FISHER SAND & GRAVEL COMPANY","SD0000004677700334","SD","110038783484","212311 212319 212321",44.4467957,-100.2381762,,"POF","Privately Owned Facility"
"FISHER SAND & GRAVEL COMPANY","SD0000004677700706","SD","110062745463","212321",44.4467957,-100.2381762,,"POF","Privately Owned Facility"
"FISHER SAND & GRAVEL COMPANY","SD0000004677700330","SD","110038783484","212311 212319 212321",44.4467957,-100.2381762,,"POF","Privately Owned Facility"
"FISHER SAND & GRAVEL COMPANY","SD0000004677700328","SD","110038783484","212311 212319 212321",44.4467957,-100.2381762,,"POF","Privately Owned Facility"
"FISHER SAND & GRAVEL COMPANY","SD0000004677700318","SD","110062712818","212321",44.4467957,-100.2381762,,"POF","Privately Owned Facility"
"FISHER SAND & GRAVEL COMPANY","SD0000004677700630","SD","110062728507","212321",44.4467957,-100.2381762,,"POF","Privately Owned Facility"
"FISHER SAND & GRAVEL COMPANY","SD0000004677700663","SD","110062730781","212321",44.4467957,-100.2381762,,"POF","Privately Owned Facility"
"FISHER SAND & GRAVEL COMPANY","SD0000004677700629","SD","110062728491","212321",44.4467957,-100.2381762,,"POF","Privately Owned Facility"
"FISHER SAND & GRAVEL COMPANY","SD0000004677700322","SD","110038783484","212311 212319 212321",44.4467957,-100.2381762,,"POF","Privately Owned Facility"
"FISHER SAND & GRAVEL COMPANY","SD0000004677700324","SD","110038783484","212311 212319 212321",44.4467957,-100.2381762,,"POF","Privately Owned Facility"
"FISHER SAND & GRAVEL COMPANY","SD0000004677700344","SD","110038783484","212311 212319 212321",44.4467957,-100.2381762,,"POF","Privately Owned Facility"
"FISHER SAND & GRAVEL COMPANY","SD0000004677700461","SD","110038783484","212311 212319 212321",44.4467957,-100.2381762,,"POF","Privately Owned Facility"
"FISHER SAND & GRAVEL COMPANY","SD0000004677700336","SD","110038783484","212311 212319 212321",44.4467957,-100.2381762,,"POF","Privately Owned Facility"
"FISHER SAND & GRAVEL COMPANY","SD0000004610300032","SD","110001994165","212321",44.4563391,-103.9252659,,"POF","Privately Owned Facility"
"FISHER SAND & GRAVEL COMPANY","SD0000004677700341","SD","110062712845","212321",44.4467957,-100.2381762,,"POF","Privately Owned Facility"
"FISHER SAND & GRAVEL COMPANY","SD0000004610300045","SD","110063979921","212312",44.0710712,-103.2179242,,"POF","Privately Owned Facility"
"FISHER SAND & GRAVEL COMPANY","SD0000004677700550","SD","110038783484","212311 212319 212321",44.4467957,-100.2381762,,"POF","Privately Owned Facility"
"FISHER SAND & GRAVEL COMPANY","SD0000004677700333","SD","110038783484","212311 212319 212321",44.4467957,-100.2381762,,"POF","Privately Owned Facility"
"FISHER SAND & GRAVEL COMPANY","SD0000004677700552","SD","110038783484","212311 212319 212321",44.4467957,-100.2381762,,"POF","Privately Owned Facility"
"FISHER SAND & GRAVEL COMPANY","SD0000004677700332","SD","110038783484","212311 212319 212321",44.4467957,-100.2381762,,"POF","Privately Owned Facility"
"FISHER SAND & GRAVEL COMPANY","SD0000004677700513","SD","110038783484","212311 212319 212321",44.4467957,-100.2381762,,"POF","Privately Owned Facility"
"FISHER SAND & GRAVEL COMPANY","SD0000004677700514","SD","110038783484","212311 212319 212321",44.4467957,-100.2381762,,"POF","Privately Owned Facility"
"FISHER SAND & GRAVEL COMPANY","SD0000004677700609","SD","110062718206","212321",44.4467957,-100.2381762,,"POF","Privately Owned Facility"
"FISHER SAND & GRAVEL COMPANY","SD0000004677700343","SD","110038783484","212311 212319 212321",44.4467957,-100.2381762,,"POF","Privately Owned Facility"
"FISHER SAND & GRAVEL COMPANY","SD0000004677700546","SD","110038783484","212311 212319 212321",44.4467957,-100.2381762,,"POF","Privately Owned Facility"
"FISHER SAND & GRAVEL COMPANY","SD0000004677700321","SD","110038783484","212311 212319 212321",44.4467957,-100.2381762,,"POF","Privately Owned Facility"
"FISHER SAND & GRAVEL COMPANY","SD0000004677700335","SD","110062712827","212321",44.4467957,-100.2381762,,"POF","Privately Owned Facility"
"FISHER SAND & GRAVEL COMPANY","SD0000004677700111","SD","110038783484","212311 212319 212321",44.4467957,-100.2381762,,"POF","Privately Owned Facility"
"FISHER SAND & GRAVEL COMPANY","SD0000004677700503","SD","110038783484","212311 212319 212321",44.4467957,-100.2381762,,"POF","Privately Owned Facility"
"FISHER SAND & GRAVEL COMPANY","SD0000004677700607","SD","110062718180","212321",44.4467957,-100.2381762,,"POF","Privately Owned Facility"
"FISHER SAND & GRAVEL COMPANY","SD0000004677700608","SD","110062718199","212321",44.4467957,-100.2381762,,"POF","Privately Owned Facility"
"FISHER SAND & GRAVEL COMPANY","SD0000004677700592","SD","110062708235","212321",44.4467957,-100.2381762,,"POF","Privately Owned Facility"
"FISHER SAND & GRAVEL COMPANY","SD0000004677700320","SD","110038783484","212311 212319 212321",44.4467957,-100.2381762,,"POF","Privately Owned Facility"
"FISHER SAND & GRAVEL COMPANY","SD0000004677700562","SD","110038783983","212321",44.4563391,-103.9252659,,"POF","Privately Owned Facility"
"FISHER SAND & GRAVEL COMPANY","SD0000004677700661","SD","110046465482","212321",44.4467957,-100.2381762,,"POF","Privately Owned Facility"
"FISHER SAND & GRAVEL COMPANY","SD0000004677700504","SD","110038783484","212311 212319 212321",44.4467957,-100.2381762,,"POF","Privately Owned Facility"
"FISHER SAND & GRAVEL COMPANY","SD0000004677700515","SD","110038783484","212311 212319 212321",44.4467957,-100.2381762,,"POF","Privately Owned Facility"
"FISHER SAND & GRAVEL COMPANY","SD0000004677700270","SD","110038783484","212311 212319 212321",44.4467957,-100.2381762,,"POF","Privately Owned Facility"
"FISHER SAND & GRAVEL COMPANY","SD0000004677700319","SD","110038783484","212311 212319 212321",44.4467957,-100.2381762,,"POF","Privately Owned Facility"
"FISHER SAND & GRAVEL COMPANY","SD0000004677700346","SD","110062726340","212321",44.4467957,-100.2381762,,"POF","Privately Owned Facility"
"FISHER SAND & GRAVEL COMPANY","SD0000004677700651","SD","110062730692","212321",44.4467957,-100.2381762,,"POF","Privately Owned Facility"
"FISHER SAND & GRAVEL COMPANY","SD0000004677700339","SD","110062712836","212321",44.4467957,-100.2381762,,"POF","Privately Owned Facility"
"FISHER SAND & GRAVEL COMPANY","SD0000004677700347","SD","110038783484","212311 212319 212321",44.4467957,-100.2381762,,"POF","Privately Owned Facility"
"FISHER SAND & GRAVEL COMPANY","SD0000004677700563","SD","110038783484","212311 212319 212321",44.4467957,-100.2381762,,"POF","Privately Owned Facility"
"FISHER SAND & GRAVEL COMPANY","SD0000004677700460","SD","110038783484","212311 212319 212321",44.4467957,-100.2381762,,"POF","Privately Owned Facility"
"FISHER SAND & GRAVEL COMPANY","SD0000004677700659","SD","110062730772","212321",44.4467957,-100.2381762,,"POF","Privately Owned Facility"
"FISHER SAND & GRAVEL COMPANY","SD0000004677700266","SD","110038783484","212311 212319 212321",44.4467957,-100.2381762,,"POF","Privately Owned Facility"
"FISHER SAND & GRAVEL COMPANY","SD0000004677700327","SD","110038783484","212311 212319 212321",44.4467957,-100.2381762,,"POF","Privately Owned Facility"
"FISHER SAND & GRAVEL COMPANY","SD0000004677700271","SD","110038783484","212311 212319 212321",44.4467957,-100.2381762,,"POF","Privately Owned Facility"
"FISHER SAND & GRAVEL COMPANY","SD0000004677700345","SD","110038783484","212311 212319 212321",44.4467957,-100.2381762,,"POF","Privately Owned Facility"
"FISHER SAND & GRAVEL COMPANY","SD0000004677700572","SD","110038783484","212311 212319 212321",44.4467957,-100.2381762,,"POF","Privately Owned Facility"
"FISHER SAND & GRAVEL COMPANY","SD0000004677700516","SD","110038783484","212311 212319 212321",44.4467957,-100.2381762,,"POF","Privately Owned Facility"
"FISHER SAND & GRAVEL COMPANY","SD0000004677700502","SD","110038783484","212311 212319 212321",44.4467957,-100.2381762,,"POF","Privately Owned Facility"
"FISHER SAND & GRAVEL COMPANY","SD0000004677700670","SD","110062744776","212321",44.4467957,-100.2381762,,"POF","Privately Owned Facility"
"FISHER SAND & GRAVEL COMPANY","SD0000004677700660","SD","110038783484","212311 212319 212321",44.4467957,-100.2381762,,"POF","Privately Owned Facility"
"FISHER SAND & GRAVEL COMPANY","SD0000004677700331","SD","110038783484","212311 212319 212321",44.4467957,-100.2381762,,"POF","Privately Owned Facility"
"FISHER SAND & GRAVEL COMPANY","SD0000004677700558","SD","110038783983","212321",44.4563391,-103.9252659,,"POF","Privately Owned Facility"
"FISHER SAND & GRAVEL COMPANY","SD0000004677700340","SD","110038783484","212311 212319 212321",44.4467957,-100.2381762,,"POF","Privately Owned Facility"
"FISHER SAND & GRAVEL COMPANY","SD0000004677700547","SD","110038783484","212311 212319 212321",44.4467957,-100.2381762,,"POF","Privately Owned Facility"
"FISHER SAND & GRAVEL COMPANY","SD0000004677700662","SD","110038783484","212311 212319 212321",44.4467957,-100.2381762,,"POF","Privately Owned Facility"
"FISHER SAND & GRAVEL COMPANY","SD0000004677700128","SD","110038783484","212311 212319 212321",44.4467957,-100.2381762,,"POF","Privately Owned Facility"
"FISHER SAND & GRAVEL COMPANY","SD0000004677700338","SD","110038783484","212311 212319 212321",44.4467957,-100.2381762,,"POF","Privately Owned Facility"
"FISHER SAND & GRAVEL COMPANY","SD0000004677700325","SD","110038783484","212311 212319 212321",44.4467957,-100.2381762,,"POF","Privately Owned Facility"
"FISHER SAND& GRAVEL COMPANY","SD0000004677700569","SD","110038783484","212311 212319 212321",44.4467957,-100.2381762,,"POF","Privately Owned Facility"
"FORMATOP COMPANY INC","SD0000004609900117","SD","110038047618","423320",43.54767,-96.71704,,,
"FORT PIERRE POWER AND LIGHT PLANT","SD0000004611700002","SD","110038106581","221112",44.36797,-100.38058,,"CTG","Municipality"
"FRISBEE DESIGNER BATH SHOWROOM","0800000046099X0002","SD","110042260781","444190",43.50669,-96.73119,,"POF","Privately Owned Facility"
"FUELS REDUCTION SERVICES, LLC","SD0000004610300057","SD","110045434231","113110",43.989937,-103.269781,,"POF","Privately Owned Facility"
"GAGE BROTHERS CONCRETE PRODUCTS","SD0000004609900049","SD","110002124068","327390",43.54387,-96.77866,,"POF","Privately Owned Facility"
"GCC CONSOLIDATED READY MIX, INC.","SD0000004600500006","SD","110010367842","327320",44.36324,-98.177078,,"POF","Privately Owned Facility"
"GCC DACOTAH","SD0000004610300052","SD","110070834910","327310",44.0896,-103.271663,6671,"POF","Privately Owned Facility"
"GCC DACOTAH","SD0000004601100009","SD","110038106714","423320",44.3162167,-96.7943596,,"POF","Privately Owned Facility"
"GCC DACOTAH","SD0000004609900008","SD","110001676277","423320",43.54803,-96.78843,,"STF","State Government"
"GCC DACOTAH CEMENT","SD0000004602900012","SD","110001676437","327310",44.900416,-97.09655,,"POF","Privately Owned Facility"
"GEHL COMPANY","SD0000004607900004","SD","110062747577","333111",43.9713192,-97.1440983,,"POF","Privately Owned Facility"
"GENERAL EQUIPMENT & SUPPLIES INC","SD0000004677700723","SD","110046462467","212321",46.87616,-96.85481,,"POF","Privately Owned Facility"
"GENERAL EQUIPMENT & SUPPLIES INC","SD0000004677700721","SD","110046462467","212321",46.87616,-96.85481,,"POF","Privately Owned Facility"
"GENERAL EQUIPMENT & SUPPLIES INC","SD0000004677700722","SD","110046462467","212321",46.87616,-96.85481,,"POF","Privately Owned Facility"
"GILBERT/PARSONS","SD0000004677780017","SD","110062702892","327320",43.54672,-96.688696,,"POF","Privately Owned Facility"
"GLACIAL LAKES ENERGY LLC","SD0000004602900018","SD","110013292515","325193",44.8762,-97.1148,32998,,
"GOLD KEY OLDSMOBILE CADILLAC","080000004610300015","SD","110062747737","811111",44.07607,-103.19168,,"POF","Privately Owned Facility"
"GOLDEN REWARD MINING COMPANY","SD0000004608100012","SD","110038801561","212221",44.2554342,-103.8875686,,"POF","Privately Owned Facility"
"GRACO INCORPORATED","SD0000004609900112","SD","110000427752","333911",43.58459,-96.72139,4,"POF","Privately Owned Facility"
"GRAPHIC PACKAGING CORPORATION","SD0000004603500007","SD","110001676570","322212",43.706916,-98.048365,,"POF","Privately Owned Facility"
"GUERNSEY STONE & CONSTRUCTION COMPANY","SD0000004677700453","SD","110038805415","324121",39.6160105,-105.0694488,,"POF","Privately Owned Facility"
"H & I GRAIN COMPANY","SD0000004607700002","SD","110062717751","424510",44.3772294,-97.2346703,,"POF","Privately Owned Facility"
"H & S SAND & GRAVEL","SD0000004677700578","SD","110062708208","212321",44.27707,-103.75889,,"POF","Privately Owned Facility"
"H F JACOBS & SONS CONSTRUCTION INC","SD0000004677700637","SD","110062730567","212321",45.48225,-98.50351,,"POF","Privately Owned Facility"
"HALLETT MATERIALS","SD0000004677700523","SD","110038805683","212321 324121",43.4039858,-94.8036529,,"POF","Privately Owned Facility"
"HANLON BROTHERS","SD0000004677700720","SD","110046462476","212321",45.24404,-98.09912,,"POF","Privately Owned Facility"
"HARVARD INTERGRATIONS (LECTRUS)","SD0000004608300009","SD","110044937067","332311",43.45197,-96.80717,,"POF","Privately Owned Facility"
"HEAVY CONSTRUCTORS INC","SD0000004677780006","SD","110062724191","327320",44.0710712,-103.2179242,,"POF","Privately Owned Facility"
"HENDRICKSON TRAILER SUSPENSION SYSTEMS","080000004603500005","SD","110000427958","336330",43.768827,-98.043246,7,"POF","Privately Owned Facility"
"HENKEL US OPERATIONS CORPORATION","SD0000004609900042","SD","110030493222","334419",43.614486,-96.582767,1027,,
"HI ROLLER CONVEYOR","SD0000004609900041","SD","110008058939","333922",43.5439,-96.78827,,"POF","Privately Owned Facility"
"HIGH PLAINS PROCESSING, LLC, A DELAWARE LIMITED LIABILITY ","SD0000004603500063","SD","110071999886","311224",43.658623,-98.002663,,"MXO","Mixed Ownership (e.g., Public/Private)"
"HIGMAN SAND & GRAVEL INC","SD0000004677700685","SD","110062744865","212321",42.8405441,-96.5461242,,"POF","Privately Owned Facility"
"HIGMAN SAND & GRAVEL INC","SD0000004677700684","SD","110062744856","212321",42.8405441,-96.5461242,,"POF","Privately Owned Facility"
"HIGMAN SAND & GRAVEL INC","SD0000004677700357","SD","110038789013","212321",42.8405441,-96.5461242,,"POF","Privately Owned Facility"
"HILLS MATERIALS COMANY","SD0000004677700525","SD","110062708093","212321",44.0710712,-103.2179242,,"POF","Privately Owned Facility"
"HILLS MATERIALS COMPANY","SD0000004677700666","SD","110062744730","212321",44.0710712,-103.2179242,,"POF","Privately Owned Facility"
"HILLS MATERIALS COMPANY","SD0000004677700136","SD","110006911119","212311 212312 212319 212321 324121",44.0896,-103.2819,,"POF","Privately Owned Facility"
"HILLS MATERIALS COMPANY","SD0000004677700672","SD","110062744794","324121",44.0710712,-103.2179242,,"POF","Privately Owned Facility"
"HILLS MATERIALS COMPANY","SD0000004677780013","SD","110062702730","327320",44.0710712,-103.2179242,,"POF","Privately Owned Facility"
"HILLS MATERIALS COMPANY","SD0000004677700262","SD","110056280046","324121",44.0710712,-103.2179242,,"POF","Privately Owned Facility"
"HILLS MATERIALS COMPANY","SD0000004677700472","SD","110004946257","212321",44.090298,-103.19841,,"POF","Privately Owned Facility"
"HILLS MATERIALS COMPANY","SD0000004677700496","SD","110006911119","212311 212312 212319 212321 324121",44.0896,-103.2819,,"POF","Privately Owned Facility"
"HILLS MATERIALS COMPANY","SD0000004677700465","SD","110006911119","212311 212312 212319 212321 324121",44.0896,-103.2819,,"POF","Privately Owned Facility"
"HILLS MATERIALS COMPANY","SD0000004677700471","SD","110004946257","212321",44.090298,-103.19841,,"POF","Privately Owned Facility"
"HILLS MATERIALS COMPANY","SD0000004677700668","SD","110062744758","212321",44.0710712,-103.2179242,,"POF","Privately Owned Facility"
"HILLS MATERIALS COMPANY","SD0000004677700526","SD","110004946257","212321",44.090298,-103.19841,,"POF","Privately Owned Facility"
"HILLS MATERIALS COMPANY","SD0000004677700469","SD","110062707959","212321",44.0710712,-103.2179242,,"POF","Privately Owned Facility"
"HILLS MATERIALS COMPANY","SD0000004677780014","SD","110062702758","327320",44.0710712,-103.2179242,,"POF","Privately Owned Facility"
"HILLS MATERIALS COMPANY","SD0000004677700017","SD","110038801687","324121",44.1217768,-103.201222,,"POF","Privately Owned Facility"
"HILLS MATERIALS COMPANY","SD0000004677700598","SD","110006911119","212311 212312 212319 212321 324121",44.0896,-103.2819,,"POF","Privately Owned Facility"
"HILLS MATERIALS COMPANY","SD0000004610300112","SD","110006911119","212311 212312 212319 212321 324121",44.0896,-103.2819,,"POF","Privately Owned Facility"
"HILLS MATERIALS COMPANY","SD0000004610300058","SD","110044800418","327390",44.07837,-103.19321,,"POF","Privately Owned Facility"
"HILLS MATERIALS COMPANY","SD0000004677700361","SD","110062726368","212321",44.0710712,-103.2179242,,"POF","Privately Owned Facility"
"HILLS MATERIALS COMPANY","SD0000004677700360","SD","110062726359","212321",44.0710712,-103.2179242,,"POF","Privately Owned Facility"
"HILLS MATERIALS COMPANY","SD0000004677700265","SD","110056280046","324121",44.0710712,-103.2179242,,"POF","Privately Owned Facility"
"HILLS MATERIALS COMPANY","SD0000004677700358","SD","110006911119","212311 212312 212319 212321 324121",44.0896,-103.2819,,"POF","Privately Owned Facility"
"HILLS MATERIALS COMPANY","SD0000004677700359","SD","110006911119","212311 212312 212319 212321 324121",44.0896,-103.2819,,"POF","Privately Owned Facility"
"HILLS MATERIALS COMPANY","SD0000004677700667","SD","110062744749","212321",44.0710712,-103.2179242,,"POF","Privately Owned Facility"
"HILLS MATERIALS: RAPID CITY RED-E-MIX","SD0000004677700049","SD","110062738480","999999",44.1096,-103.15798,,"POF","Privately Owned Facility"
"HILLS PRODUCTS GROUP","SD0000004608100008","SD","110031001644","321114",44.46781,-103.63817,,"POF","Privately Owned Facility"
"HILLSIDE HUTTERITE BRETHREN","SD0000004611501015","SD","110070604484","111998",44.73707,-98.04849,,"POF","Privately Owned Facility"
"HOMESTAKE MINING COMPANY","SD0000004608100112","SD","110000428127","212221",44.35152,-103.75162,,"POF","Privately Owned Facility"
"HOMESTAKE MINING COMPANY","SD0000004608100013","SD","110000428127","212221",44.35152,-103.75162,,"POF","Privately Owned Facility"
"HORIZONTAL MACHINING & MANUFACTURING, INC.","SD0000004600501031","SD","110070156271","333999",44.372204,-98.229404,,"POF","Privately Owned Facility"
"HORTON INC.","SD0000004609100001","SD","110000594946","336399",45.804147,-97.75038,35,,
"HOWE HEATING AND PLUMBING INC.","0800000046099X0003","SD","110042260790","238220",43.55514,-96.71769,,"POF","Privately Owned Facility"
"HUB CITY ENERGY, LLC","SD0000004601300003","SD","110001676240","325199",45.4586,-98.5429,,,
"HURON ENERGY LLC, DBA GLACIAL LAKES ENERGY LLC","SD0000004600500005","SD","110021345711","325193",44.363342,-98.213554,,,
"HURON STEEL STRUCTURES INC","SD0000004677780007","SD","110062724217","327320",44.3924671,-98.2019337,,"POF","Privately Owned Facility"
"HUTCHINSON COUNTY HIGHWAY DEPARTMENT","SD0000004677700028","SD","110038801696","324121",43.240774,-97.67724,,"POF","Privately Owned Facility"
"HYDRO EXTRUSIONS (SAPA EXTRUSIONS INC)","SD0000004613500003","SD","110000427716","331316",42.891944,-97.350556,28209,"POF","Privately Owned Facility"
"INDUSTRIAL ENERGY APPLICATIONS, INC.","SD0000004609900017","SD","110001676419","221112",43.53071,-96.6714,,"POF","Privately Owned Facility"
"INDUSTRIAL ENERGY APPLICATIONS, INC.","SD0000004609900016","SD","110007186302","221112",43.50854,-96.77104,,"POF","Privately Owned Facility"
"INTERMOUNTAIN CONSTRUCTION & MATERIALS","SD0000004677700545","SD","110038783475","324121",44.4467957,-100.2381762,,"POF","Privately Owned Facility"
"INTEX CORPORATION","SD0000004677700725","SD","110062714549","212321",45.2443635,-93.6611679,,"POF","Privately Owned Facility"
"INTEX CORPORATION","SD0000004677700703","SD","110062745445","212321",45.2443635,-93.6611679,,"POF","Privately Owned Facility"
"INTEX CORPORATION","SD0000004677700680","SD","110062744838","212321",45.2443635,-93.6611679,,"POF","Privately Owned Facility"
"INTEX CORPORATION","SD0000004677700728","SD","110062714585","212321",45.2443635,-93.6611679,,"POF","Privately Owned Facility"
"INTEX CORPORATION","SD0000004677700726","SD","110062714558","212321",45.2443635,-93.6611679,,"POF","Privately Owned Facility"
"INTEX CORPORATION","SD0000004677700724","SD","110062714530","212321",45.2443635,-93.6611679,,"POF","Privately Owned Facility"
"INTEX CORPORATION","SD0000004677700678","SD","110062744810","212321",45.2443635,-93.6611679,,"POF","Privately Owned Facility"
"INTEX CORPORATION","SD0000004677700727","SD","110062714576","212321",45.2443635,-93.6611679,,"POF","Privately Owned Facility"
"INTEX CORPORATION","SD0000004677700729","SD","110062714594","212321",45.2443635,-93.6611679,,"POF","Privately Owned Facility"
"INTEX CORPORATION","SD0000004677700679","SD","110062744829","212321",45.2443635,-93.6611679,,"POF","Privately Owned Facility"
"INTEX CORPORATION","SD0000004677700704","SD","110062745454","212321",45.2443635,-93.6611679,,"POF","Privately Owned Facility"
"INTEX CORPORATION","SD0000004677700677","SD","110062744801","212321",45.2443635,-93.6611679,,"POF","Privately Owned Facility"
"IRVING F JENSEN COMPANY","SD0000004677780010","SD","110062702687","327320",42.5078667,-96.3663379,,"POF","Privately Owned Facility"
"IRVING F JENSEN COMPANY","SD0000004677780009","SD","110062724235","327320",42.5078667,-96.3663379,,"POF","Privately Owned Facility"
"IRVING F JENSEN COMPANY","SD0000004677700443","SD","110062726518","999999",44.4467957,-100.2381762,,"POF","Privately Owned Facility"
"IRVING F JENSEN COMPANY","SD0000004677700442","SD","110062726509","999999",44.4467957,-100.2381762,,"POF","Privately Owned Facility"
"IRVING F JENSEN COMPANY","SD0000004677780008","SD","110062724226","327320",42.5078667,-96.3663379,,"POF","Privately Owned Facility"
"J&J ASPHALT COMPANY","SD0000004677700508","SD","110038805497","324122",44.0710712,-103.2179242,,"POF","Privately Owned Facility"
"J&J ASPHALT COMPANY","SD0000004677700087","SD","110062703828","999999",44.4467957,-100.2381762,,"POF","Privately Owned Facility"
"JACK LINK'S BEEF JERKY","SD0000004607300010","SD","110057481078","311612",44.184343,-98.375643,,"MXO","Mixed Ownership (e.g., Public/Private)"
"JACOBS MOTOR COMPANY","080000004610300020","SD","110062738220","811111",44.08056,-103.19169,,"POF","Privately Owned Facility"
"JAMES CAPE AND SONS COMPANY","SD0000004677780011","SD","110062702712","327320",44.4467957,-100.2381762,,"POF","Privately Owned Facility"
"JAMES MOTORS","080000004610300019","SD","110062747764","811111",44.0814,-103.19267,,"POF","Privately Owned Facility"
"JD CONCRETE PRODUCTS","SD0000004603500003","SD","110062747531","327390",43.7109119,-98.0404493,,"POF","Privately Owned Facility"
"JEBRO INCORPORATED","SD0000004609900048","SD","110031001626","324121",43.615484,-96.578279,,"POF","Privately Owned Facility"
"JELD WEN","SD0000004609900040","SD","110038106527","423310",43.59469,-96.70233,,"POF","Privately Owned Facility"
"JENSEN ROCK & SAND INC.","SD0000004601300012","SD","110044800427","327390",45.45612,-98.49678,,"POF","Privately Owned Facility"
"JENSEN ROCK & SAND, INC.","SD0000004677700449","SD","110038805406","212321 324121",45.3389759,-100.3647334,,"POF","Privately Owned Facility"
"JENSEN ROCK & SAND, INC.","SD0000004677700538","SD","110038805406","212321 324121",45.3389759,-100.3647334,,"POF","Privately Owned Facility"
"JERRY'S ELECTRIC, INC","SD0000004610101013","SD","110070156124","335311",44.02851,-96.78876,,"POF","Privately Owned Facility"
"K & K SCRAP","SD0000004612900002","SD","110044801097","323116",45.534341,-100.414704,,"POF","Privately Owned Facility"
"K & K SHEET METAL","080000004610300026","SD","110062738319","238220",44.11258,-103.22173,,"POF","Privately Owned Facility"
"KARL'S TV","0800000046065X0001","SD","110046595001","811412",44.36901,-100.35768,,"POF","Privately Owned Facility"
"KIDD PLUMBING HEATING AND AC","0800000046099X0005","SD","110042260816","238220",43.521,-96.76331,,"POF","Privately Owned Facility"
"KNIFE RIVER","SD0000004603700005","SD","110054884764","327320",43.39271,-97.98464,,"POF","Privately Owned Facility"
"KNIFE RIVER MIDWEST LLC","SD0000004677700044","SD","110038788979","324121",44.4467957,-100.2381762,,"POF","Privately Owned Facility"
"KNIFE RIVER MIDWEST LLC","SD0000004677700281","SD","110038788979","324121",44.4467957,-100.2381762,,"POF","Privately Owned Facility"
"KNIFE RIVER MIDWEST, LLC","SD0000004677700441","SD","110062726493","999999",42.6816614,-96.680114,,"POF","Privately Owned Facility"
"KNTC LLC DBA SIOUX MARBLE INC.","SD0000004609900116","SD","110038106563","326191",43.60281,-96.57226,,,
"KOLBERG-PIONEER INC","SD0000004613500005","SD","110000427725","333922",42.89069,-97.40418,103,"POF","Privately Owned Facility"
"KOR ETHANOL","SD0000004601100088","SD","110017764427","325193",44.47267,-96.72688,,"POF","Privately Owned Facility"
"KOTA MATERIALS INC","SD0000004677700715","SD","110062714488","212321",44.4467957,-100.2381762,,"POF","Privately Owned Facility"
"KOYKER MANUFACTURING COMPANY","SD0000004608300001","SD","110000427618","333111",43.357488,-96.90479,,"POF","Privately Owned Facility"
"KRAEMER TRUCKING & EXCAVATING INC","SD0000004677700698","SD","110062744918","212321",44.5276324,-100.3091229,,"POF","Privately Owned Facility"
"KRUSE PAVING, INC.","SD0000004677700369","SD","110038789022","324121",43.6282179,-95.1971589,,"POF","Privately Owned Facility"
"KRUSE PAVING, INC.","SD0000004677700446","SD","110038789022","324121",43.6282179,-95.1971589,,"POF","Privately Owned Facility"
"KUGLER COMPANY","SD0000004610300046","SD","110044796913","325311",44.042546,-103.190271,,"POF","Privately Owned Facility"
"L G EVERIST","SD0000004677700599","SD","110021037554","212319 212321",43.531243,-96.754971,,"POF","Privately Owned Facility"
"L G EVERIST","SD0000004677700587","SD","110021037554","212319 212321",43.531243,-96.754971,,"POF","Privately Owned Facility"
"L G EVERIST","SD0000004677700583","SD","110021037554","212319 212321",43.5312429,-96.7549707,,"POF","Privately Owned Facility"
"L G EVERIST","SD0000004677700584","SD","110021037554","212319 212321",43.5312429,-96.7549707,,"POF","Privately Owned Facility"
"L G EVERIST","SD0000004677700574","SD","110021037554","212319 212321",43.5312429,-96.7549707,,"POF","Privately Owned Facility"
"L G EVERIST","SD0000004677700585","SD","110021037554","212319 212321",43.5312429,-96.7549707,,"POF","Privately Owned Facility"
"L G EVERIST","SD0000004677700589","SD","110027375070","212319",43.476634,-96.704312,,"POF","Privately Owned Facility"
"L G EVERIST","SD0000004677700586","SD","110027375070","212319",43.476634,-96.704312,,"POF","Privately Owned Facility"
"L G EVERIST","SD0000004677700588","SD","110021037554","212319 212321",43.531243,-96.754971,,"POF","Privately Owned Facility"
"L G EVERIST","SD0000004677700573","SD","110021037554","212319 212321",43.531243,-96.754971,,"POF","Privately Owned Facility"
"LAC MINERALS (USA), INC.","SD0000004677700411","SD","110062726457","212221 212321",44.3519,-103.76998,,"POF","Privately Owned Facility"
"LAC MINERALS (USA), INC.","SD0000004608100010","SD","110062726457","212221 212321",44.3519,-103.76998,,"POF","Privately Owned Facility"
"LAKE SAND AND GRAVEL, INC.","SD0000004677700114","SD","110062712701","212311",46.0525052,-97.1805402,,"POF","Privately Owned Facility"
"LAKE SAND AND GRAVEL, INC.","SD0000004677700131","SD","110062712701","212311",46.0525052,-97.1805402,,"POF","Privately Owned Facility"
"LAKE VERMILLION ETHANOL","SD0000004609900043","SD","110062747675","325193",43.740533,-96.811285,,"POF","Privately Owned Facility"
"LAKE VIEW HUTTERITE BRETHREN","SD0004602300001","SD","110066859536","493130",43.220443,-98.466199,,"POF","Privately Owned Facility"
"LAND O'LAKES, INC.","SD0000004601100002","SD","110000427672","311514",44.32434,-96.92663,,"POF","Privately Owned Facility"
"LIBERTY MOTORS","080000004610300017","SD","110004945258","811111",44.07677,-103.19168,,"POF","Privately Owned Facility"
"LIEN TRANSPORTATION","SD0000004677700115","SD","110006120367","212311 212321 324121",45.445505,-98.604311,,"POF","Privately Owned Facility"
"LIEN TRANSPORTATION COMPANY","SD0000004677700485","SD","110038805442","212312 324121",45.4823353,-98.53254,,"POF","Privately Owned Facility"
"LIEN TRANSPORTATION COMPANY","SD0000004677700370","SD","110006120367","212311 212321 324121",45.445505,-98.604311,,"POF","Privately Owned Facility"
"LIEN TRANSPORTATION COMPANY","SD0000004677700486","SD","110062708066","999999",45.4823353,-98.53254,,"POF","Privately Owned Facility"
"LIEN TRANSPORTATION COMPANY","SD0000004677700596","SD","110038805442","212312 324121",45.4823353,-98.53254,,"POF","Privately Owned Facility"
"LIEN TRANSPORTATION COMPANY","SD0000004677700043","SD","110006120367","212311 212321 324121",45.445505,-98.604311,,"POF","Privately Owned Facility"
"LIEN, TOM CONSTRUCTION","SD0000004677700005","SD","110062725911","324121",44.4563391,-103.9252659,,"POF","Privately Owned Facility"
"LIND-EXCO INC","SD0000004677700649","SD","110062730674","212321",44.095911,-103.264333,,"POF","Privately Owned Facility"
"LIND-EXCO INC","SD0000004677700692","SD","110062730674","212321",44.095911,-103.264333,,"POF","Privately Owned Facility"
"LOAD KING TRAILERS","SD0000004612700002","SD","110001137065","336212",42.686785,-96.675138,,"POF","Privately Owned Facility"
"LONNY'S HEATING & SERVICE","080000004602900001","SD","110062739826","811412",44.9021,-97.12276,,"POF","Privately Owned Facility"
"MADISON GENERATION PLANT","SD0000004607900005","SD","110000735759","221112",44.005068,-97.114224,,"CTG","Municipality"
"MAGELLAN PIPELINE COMPANY LP - SIOUX FALLS TERMINAL","SD0000004609900015","SD","110004944179","424710",43.545281,-96.795869,,,
"MAGELLAN PIPELINE COMPANY LP - WATERTOWN TERMINAL","SD0000004602900011","SD","110001676375","486910",44.892205,-97.078128,,,
"MAGELLAN PIPELINE COMPANY, LP","SD0000004610300042","SD","110009790574","486910",44.09722,-103.16221,,"POF","Privately Owned Facility"
"MAHRER, BERNARD CONSTRUCTION COMPANY","SD0000004677700277","SD","110062712756","324121",46.0728777,-97.4986898,,"POF","Privately Owned Facility"
"MARINER CONSTRUCTION, INC.","SD0000004677700521","SD","110038805674","324121",46.78485,-100.718341,,"POF","Privately Owned Facility"
"MARMEN ENERGY COMPANY","SD0000004609900051","SD","110044949642","999999",43.615247,-96.58715,24401,,
"MARTIN RECYCLING","080000004610300056","SD","110030900443","423930",44.12801,-103.13863,,"POF","Privately Owned Facility"
"MARTY INDIAN SCHOOL","080000004602300001","SD","110071294510","611110",43.1452255,-98.5131884,,"TRB","Tribal Government"
"MASTERBRAND CABINETS LLC","SD0000004609900036","SD","110000427789","337110",43.589358,-96.718782,59021,,
"MCLAUGHLIN & SCHULZ, INC.","SD0000004677700493","SD","110002051779","212321 324121 324122",44.4366057,-95.7463164,,"POF","Privately Owned Facility"
"MCLAUGHLIN & SCHULZ, INC.","SD0000004677700117","SD","110062726377","212311 212321",44.9367222,-97.0927573,,"POF","Privately Owned Facility"
"MCLAUGHLIN & SCHULZ, INC.","SD0000004677700042","SD","110002051779","212321 324121 324122",47.4963866,-101.3713655,,"POF","Privately Owned Facility"
"MCLAUGHLIN & SCHULZ, INC.","SD0000004677700373","SD","110062726377","212311 212321",44.9367222,-97.0927573,,"POF","Privately Owned Facility"
"MCLAUGHLIN & SCHULZ, INC.","SD0000004602900005","SD","110038800795","324121",44.4366057,-95.7463164,,"POF","Privately Owned Facility"
"MCLAUGHLIN & SCHULZ, INC.","SD0000004677700013","SD","110002051779","212321 324121 324122",44.4366057,-95.7463164,,"POF","Privately Owned Facility"
"MCLAUGHLIN & SCHULZ, INC.","SD0000004677700374","SD","110002051779","212321 324121 324122",44.4366057,-95.7463164,,"POF","Privately Owned Facility"
"MEL DAHLE TIRE CO.","080000004602900010","SD","110062739862","811111",44.90206,-97.11573,,"POF","Privately Owned Facility"
"MEREEN-JOHNSON MACHINE COMPANY","SD0000004603700001","SD","110007186204","331511",45.342918,-97.52506,,"POF","Privately Owned Facility"
"METTLER FERTILIZER INC","SD0000004677700605","SD","110038784063","212321",43.2385865,-97.5780878,,"POF","Privately Owned Facility"
"MICHAEL JOHNSON CONSTRUCTION INC","SD0000004677700645","SD","110062730610","212321",43.9713192,-97.1440983,,"POF","Privately Owned Facility"
"MIDSTATES CRUSHING & RECYCLE, LLC","SD0000004677700694","SD","110044302073","212321",43.0757746,-96.792476,,"POF","Privately Owned Facility"
"MIDWEST MANUFACTURING DBA DAKOTA PANEL","SD0000004610300010","SD","110010367021","321219",44.0419,-103.1844,1452,"POF","Privately Owned Facility"
"MIDWEST RAILCAR REPAIR INC","SD0000004609900031","SD","110004950839","488210",43.621614,-96.571787,,,
"MIDWEST READY MIX","SD0000004602700006","SD","110038106741","327320",42.8446191,-96.9863877,,"POF","Privately Owned Facility"
"MILLBROOK HUTTERITE BRETHREN","SD0000000006100001","SD","110061079416","493130",43.673548,-97.879757,,"POF","Privately Owned Facility"
"MILLERDALE HUTTERITE BRETHREN","SD00000028.080133","SD","110064845440","111998",44.399573,-99.111792,,"POF","Privately Owned Facility"
"MINNESOTA RUBBER COMPANY","SD0000004602900015","SD","110011680449","326191",44.89344,-97.13963,,"POF","Privately Owned Facility"
"MISSOURI VALLEY ENERGY, LLC","SD0000004602700002","SD","110040511498","325193 999999",42.8446191,-96.9863877,,"POF","Privately Owned Facility"
"MISSOURI VALLEY ENERGY, LLC","SD0000004602700007","SD","110040511498","325193 999999",42.8446191,-96.9863877,,"POF","Privately Owned Facility"
"MITCHELL CONCRETE INC.","SD0000004603500008","SD","110044316558","327320",43.71133,-98.04317,,"POF","Privately Owned Facility"
"MITCHELL CONCRETE INC.","SD0000004603500011","SD","110044800436","327390",43.711326,-98.043262,,"POF","Privately Owned Facility"
"MITCHELL REGIONAL LANDFILL","SD0000004603500009","SD","110034177520","562212",43.65882,-97.97089,,"CTG","Municipality"
"MOFFATT INC.","SD0000004602900098","SD","110004949174","335121",44.92805,-97.15928,,"POF","Privately Owned Facility"
"MOLDED FIBER GLASS COMPANIES","SD0000004601300011","SD","110039622398","326199",45.46865,-98.41499,,,
"MON-DAKOTA UTILITIES","SD0000004612900001","SD","110062726901","327320",45.5364,-100.43386,,"POF","Privately Owned Facility"
"MONUMENT HEALTH","SD0000004610300005","SD","110001676366","623110",44.058292,-103.223575,,"POF","Privately Owned Facility"
"MORGAN SAWMILL","SD0000004603300006","SD","110038046860","321113",43.60674,-103.59527,,,
"MORRIS INC","SD0000004677700488","SD","110038788951","324121",44.5276324,-100.3091229,,"POF","Privately Owned Facility"
"MORRIS INC","SD0000004677700738","SD","110056294362","324121",44.5276324,-100.3091229,,"POF","Privately Owned Facility"
"MORRIS INC","SD0000004677700656","SD","110062730745","212321",44.5276324,-100.3091229,,"POF","Privately Owned Facility"
"MORRIS INC","SD0000004677700657","SD","110062730754","212321",44.5276324,-100.3091229,,"POF","Privately Owned Facility"
"MORRIS INC","SD0000004677700655","SD","110062730736","212321",44.5276324,-100.3091229,,"POF","Privately Owned Facility"
"MORRIS INC","SD0000004677700654","SD","110062730727","212321",44.5276324,-100.3091229,,"POF","Privately Owned Facility"
"MORRIS INC","SD0000004677700669","SD","110062744767","212321",44.5276324,-100.3091229,,"POF","Privately Owned Facility"
"MORRIS INC","SD0000004677700658","SD","110062730763","212321",44.5276324,-100.3091229,,"POF","Privately Owned Facility"
"MORRIS, INC.","SD0000004677700263","SD","110038788951","324121",44.364929,-100.5656044,,"POF","Privately Owned Facility"
"MYRL & ROY'S PAVING, INC.","SD0000004677700610","SD","110001994147","212311 212312 212321 324121 999999",43.56581,-96.6833,,"POF","Privately Owned Facility"
"MYRL & ROY'S PAVING, INC.","SD0000004677700387","SD","110001994147","212311 212312 212321 324121 999999",43.56581,-96.6833,,"POF","Privately Owned Facility"
"MYRL & ROY'S PAVING, INC.","SD0000004677700385","SD","110001994147","212311 212312 212321 324121 999999",43.56581,-96.6833,,"POF","Privately Owned Facility"
"MYRL & ROY'S PAVING, INC.","SD0000004677700384","SD","110001994147","212311 212312 212321 324121 999999",43.56581,-96.6833,,"POF","Privately Owned Facility"
"MYRL & ROY'S PAVING, INC.","SD0000004677700037","SD","110038801712","324121",43.5383351,-96.7319985,,"POF","Privately Owned Facility"
"MYRL & ROY'S PAVING, INC.","SD0000004677700389","SD","110001994147","212311 212312 212321 324121 999999",43.56581,-96.6833,,"POF","Privately Owned Facility"
"MYRL & ROY'S PAVING, INC.","SD0000004677700481","SD","110001994147","212311 212312 212321 324121 999999",43.56581,-96.6833,,"POF","Privately Owned Facility"
"MYRL & ROY'S PAVING, INC.","SD0000004677700120","SD","110001994147","212311 212312 212321 324121 999999",43.56581,-96.6833,,"POF","Privately Owned Facility"
"MYRL & ROY'S PAVING, INC.","SD0000004677700498","SD","110001994147","212311 212312 212321 324121 999999",43.56581,-96.6833,,"POF","Privately Owned Facility"
"MYRL & ROY'S PAVING, INC.","SD0000004677700386","SD","110001994147","212311 212312 212321 324121 999999",43.56581,-96.6833,,"POF","Privately Owned Facility"
"MYRL & ROY'S PAVING, INC.","SD0000004677700537","SD","110001994147","212311 212312 212321 324121 999999",43.56581,-96.6833,,"POF","Privately Owned Facility"
"MYRL & ROY'S PAVING, INC.","SD0000004677700611","SD","110001994147","212311 212312 212321 324121 999999",43.56581,-96.6833,,"POF","Privately Owned Facility"
"MYRL & ROY'S PAVING, INC.","SD0000004677700388","SD","110001994147","212311 212312 212321 324121 999999",43.56581,-96.6833,,"POF","Privately Owned Facility"
"MYRL & ROY'S PAVING, INC.","SD0000004677700035","SD","110001994147","212311 212312 212321 324121 999999",43.56581,-96.6833,,"POF","Privately Owned Facility"
"MYRL & ROY'S PAVING, INC.","SD0000004677700038","SD","110038801712","324121",43.5383351,-96.7319985,,"POF","Privately Owned Facility"
"MYRL & ROYS PAVING INC","SD0000004677700756","SD","110001994147","212311 212312 212321 324121 999999",43.56581,-96.6833,,"POF","Privately Owned Facility"
"MYRL AND ROY'S PAVING, INC.","SD0000004677700078","SD","110038801712","324121",43.5383351,-96.7319985,,"POF","Privately Owned Facility"
"N. A. CORPORATION","SD0000004677700458","SD","110062726545","212321",44.3711821,-104.3598235,,"POF","Privately Owned Facility"
"NAPA AUTO CARE CENTER","080000004610300055","SD","110017714151","441310",43.99213,-102.23869,,"POF","Privately Owned Facility"
"NEIMAN ENTERPRISES INC. D.B.A RUSHMORE FOREST PRODUCTS INC","SD0000004610300030","SD","110006120385","321999 999999",43.94693,-103.52365,,,
"NEWBERG LUMBER COMPANY, INC.","SD0000004603300005","SD","110037592931","321113",43.7265763,-103.6485986,,,
"NOBLE HEATING & AIR CONDITIONING","080000004610300027","SD","110062738337","238220",44.08327,-103.29379,,"POF","Privately Owned Facility"
"NORTH CENTRAL FOAM","SD0000004600501042","SD","110070864990","326140",44.366953,-98.248764,,,
"NORTH CENTRAL RENTAL & LEASING","SD0000004677700647","SD","110062730638","212321",44.4467957,-100.2381762,,"POF","Privately Owned Facility"
"NORTH CENTRAL RENTAL & LEASING","SD0000004677700646","SD","110062730629","212321",44.4467957,-100.2381762,,"POF","Privately Owned Facility"
"NORTHERN BORDER PIPELINE COMPANY - CLARK COMPRESSOR","SD0000004602500001","SD","110043800599","486210",45.06741,-97.797409,,"POF","Privately Owned Facility"
"NORTHERN BORDER PIPELINE COMPANY - ESTELLINE COMPRESSOR","SD0000004603900001","SD","110010367584","486210",44.6102852,-96.8942908,,"POF","Privately Owned Facility"
"NORTHERN BORDER PIPELINE COMPANY - WETONKA COMPRESSOR","SD0000004604500002","SD","110006435107","486210",45.534079,-98.784111,,"POF","Privately Owned Facility"
"NORTHERN IMPROVEMENT COMPANY","SD0000004677700628","SD","110062728482","324121",46.9272104,-96.8348187,,"POF","Privately Owned Facility"
"NORTHERN IMPROVEMENT COMPANY","SD0000004677700567","SD","110038784036","999999",44.4467957,-100.2381762,,"POF","Privately Owned Facility"
"NORTHERN STATES POWER COMPANY","SD0000004609900002","SD","110025317173","221122",43.59663,-96.63756,,"POF","Privately Owned Facility"
"NORTHWESTERN ENERGY (HIGHMORE)","SD0000004606900001","SD","110017786680","221112 999999",44.522578,-99.441604,,"POF","Privately Owned Facility"
"NORTHWESTERN ENERGY (PORTABLE #3)","SD0000004677700010","SD","110062738471","221112",44.364252,-98.20517,,"POF","Privately Owned Facility"
"NORTHWESTERN ENERGY (REDFIELD)","SD0000004611500001","SD","110007186222","999999",44.8573836,-98.5717779,,"POF","Privately Owned Facility"
"NORTHWESTERN ENERGY PUBLIC SERVICE CORPORATION - ABERDEEN","SD0000004601302060","SD","110007186099","999999",45.4823353,-98.53254,,,
"NORTHWESTERN ENERGY PUBLIC SERVICE CORPORATION - CLARK","SD0000004602500002","SD","110017786528","221112",44.87277,-97.72993,,,
"NORTHWESTERN ENERGY PUBLIC SERVICE CORPORATION - FAULKTON","SD0000004604900001","SD","110017786519","221112",45.0654764,-99.1535637,,"POF","Privately Owned Facility"
"NORTHWESTERN ENERGY PUBLIC SERVICE CORPORATION - HURON","SD0000004600500002","SD","110017786500","221112",44.36964,-98.21414,,,
"NORTHWESTERN ENERGY PUBLIC SERVICE CORPORATION - YANKTON","SD0000004613500060","SD","110007186151","221112",42.9156485,-97.4466893,,,
"NORTHWESTERN PUBLIC SERVICE COMPANY","SD0000004606900002","SD","110017786680","221112 999999",44.522578,-99.441604,,"POF","Privately Owned Facility"
"NORTHWESTERN PUBLIC SERVICE COMPANY","SD0000004603700002","SD","110004944188","221112",45.3305,-97.515534,,"POF","Privately Owned Facility"
"NOVITA AURORA, LLC","SD0000004601101058","SD","110070156194","311225",44.296911,-96.709204,459000,"POF","Privately Owned Facility"
"NUGEN ENERGY LLC","SD0000004612500002","SD","110070240675","325193",43.432639,-97.26088,17409,,
"NUSTAR PIPE LINE OPERATING PARTNERSHIP","SD0000004609900013","SD","110004944106","486910",43.510696,-96.743444,,"POF","Privately Owned Facility"
"NUSTAR PIPE LINE OPERATING PARTNERSHIP","SD0000004613500006","SD","110007756892","486910",43.7438785,-97.4019111,,"POF","Privately Owned Facility"
"NUSTAR PIPELINE OPERATING PARTNERSHIP LP - ABERDEEN","SD0000004601300006","SD","110001676473","486910",45.52471,-98.51572,,"POF","Privately Owned Facility"
"NUSTAR PIPELINE OPERATING PARTNERSHIP LP - MITCHELL","SD0000004603500004","SD","110013332955","486910",43.703407,-97.926618,,,
"NUSTAR PIPELINE OPERATING PARTNERSHIP LP - WOLSEY","SD0000004600500003","SD","110007186366","486910",44.464864,-98.498961,,,
"OAKLANE HUTTERITE BRETHREN","SD000000028.080134","SD","110061079826","112330",43.509953,-97.746159,,"POF","Privately Owned Facility"
"OMNI ENGINEERING, INC","SD0000004677700530","SD","110038805709","324121",41.17622,-96.13214,,"POF","Privately Owned Facility"
"ONE HOUR MARTINIZING","080000004609900020","SD","110001676464","812320",43.53669,-96.73989,,"POF","Privately Owned Facility"
"ONYX CONSTRUCTION INC.","SD0000004677700544","SD","110038783466","212321",46.8109,-100.80616,,"POF","Privately Owned Facility"
"OPPERMAN INC","SD0000004677700707","SD","110062728534","212321",43.24126,-99.423067,,"POF","Privately Owned Facility"
"OPPERMAN INC","SD0000004677700634","SD","110062728534","212321",43.24126,-99.423067,,"POF","Privately Owned Facility"
"OPPERMAN INC","SD0000004677700665","SD","110062728534","212321",43.24126,-99.423067,,"POF","Privately Owned Facility"
"OTTER TAIL POWER COMPANY","SD0000004607700010","SD","110044358806","221112",44.3833979,-97.3705024,,"POF","Privately Owned Facility"
"OTTER TAIL POWER COMPANY","SD0000004605101001","SD","110011493437","221112 325193",45.304236,-96.511354,15017,"POF","Privately Owned Facility"
"OTTER TAIL POWER COMPANY - ASTORIA STATION","SD0000004603900017","SD","110070945671","221111 221118",44.570532,-96.56154,,,
"OTTO'S SERVICE CENTER","080000004610300022","SD","110062738257","811111",44.0814,-103.195057,,"POF","Privately Owned Facility"
"OVERBUILT","SD0000004600500008","SD","110043179253","333120",44.373642,-98.254738,,"POF","Privately Owned Facility"
"P & M STEEL COMPANY","SD0000004609900120","SD","110062747719","332312",43.59552,-96.76117,,"POF","Privately Owned Facility"
"PACER CORPORATION","SD0000004677700615","SD","110038784090","212321",43.7667317,-103.599636,,"POF","Privately Owned Facility"
"PACER CORPORATION - FELDSPAR","SD0000004677700394","SD","110062726395","212311 212319",43.7265763,-103.6485986,,"POF","Privately Owned Facility"
"PACER CORPORATION - FELDSPAR","SD0000004677700122","SD","110062726395","212311 212319",43.7265763,-103.6485986,,"POF","Privately Owned Facility"
"PACER CORPORATION - MICA","SD0000004677700398","SD","110038805380","212319",43.765311,-103.603246,,"POF","Privately Owned Facility"
"PACER CORPORATION - TIN MOUNTAIN MINE","SD0000004677700132","SD","110062712729","212319",43.7265763,-103.6485986,,"POF","Privately Owned Facility"
"PACER CORPORATION - WHITE BEAR MICA PLANT","SD0000004603300003","SD","110033180108","212319",43.6849428,-103.46225,,,
"PAM OIL INC","080000004609900028","SD","110001676534","999999",43.54635,-96.78436,,"POF","Privately Owned Facility"
"PEMBROOK HUTTERITE BRETHREN","SD00000028.080303","SD","110064844762","112990",45.375219,-98.999876,,"POF","Privately Owned Facility"
"PERSONA SIGNS, LLC","SD0000004602900022","SD","110000768483","339950",44.89405,-97.1472,,,
"PETE LIEN & SONS","SD0000004610390014","SD","110062738408","324121",44.0710712,-103.2179242,,"POF","Privately Owned Facility"
"PETE LIEN & SONS, INC.","SD0000004677700489","SD","110004948647","212312 327410",44.116343,-103.281142,30407,"POF","Privately Owned Facility"
"PETE LIEN & SONS, INC.","SD0000004677700491","SD","110004948647","212312 327410",44.116343,-103.281142,30407,"POF","Privately Owned Facility"
"PETE LIEN & SONS, INC.","SD0000004677700492","SD","110004948647","212312 327410",44.116343,-103.281142,30407,"POF","Privately Owned Facility"
"PETE LIEN & SONS, INC.","SD0000004677700490","SD","110004948647","212312 327410",44.116343,-103.281142,30407,"POF","Privately Owned Facility"
"PETE LIEN & SONS, INC.","SD0000004677700509","SD","110004948647","212312 327410",44.116343,-103.281142,30407,"POF","Privately Owned Facility"
"PETE LIEN & SONS, INC. MAIN PLANT","SD0000004610300014","SD","110004948647","212312 327410",44.116343,-103.281142,30407,"POF","Privately Owned Facility"
"PIERRE REGIONAL LANDFILL","SD0000004606500003","SD","110034170581","562212",44.373214,-100.123832,,"CTG","Municipality"
"PLATTE HUTTERITE BRETHREN","SD0000004602300002","SD","110061079452","493130",43.470951,-99.121021,,"POF","Privately Owned Facility"
"POET BIOPROCESSING - CHANCELLOR, LLC","SD0000004612500001","SD","110014338582","325193",43.370231,-96.958069,13476,,
"POET BIOREFINING - BIG STONE, LLC","SD0000004605100004","SD","110011493437","221112 325193",45.304236,-96.511354,15017,,
"POET BIOREFINING - GROTON","SD0000004601300007","SD","110015598147","312140",45.453963,-98.137741,21070,,
"POET BIOREFINING - HUDSON, LLC","SD0000004608300004","SD","110017775433","325193",43.096842,-96.477478,8469,,
"POET BIOREFINING - MITCHELL LLC","SD0000004603500010","SD","110033218854","325193",43.80342,-98.10491,6688,"POF","Privately Owned Facility"
"POET RESEARCH CENTER - SCOTLAND","SD0000004600900001","SD","110010367334","325193",43.1468,-97.7264,2090,,
"POLARIS INDUSTRIES INC.","SD0000004608101029","SD","110067421098","336991",44.47759,-103.80299,,,
"PRAIRIE AQUATECH MANUFACTURING, LLC DBA HOUDEK MANUFACTURING","SD0000004601100071","SD","110070517465","311119",44.329849,-96.908457,,,
"PREMIER AGGREGATES INC.","SD0000004677700529","SD","110038805692","212321",47.525986,-92.560065,,"POF","Privately Owned Facility"
"PROECO ENERGY COMPANY","SD0000004601900005","SD","110062739782","325193",44.671416,-103.850739,,"POF","Privately Owned Facility"
"PROGRESSIVE CONTRACTORS INC","SD0000004677700445","SD","110062726527","327320",45.1273655,-93.4492002,,"POF","Privately Owned Facility"
"PROGRESSIVE CONTRACTORS INC","SD0000004677780012","SD","110062702721","327320",45.2103249,-93.6828245,,"POF","Privately Owned Facility"
"QUINN CONSTRUCTION, INC.","SD0000004677700542","SD","110038783457","212321",44.125774,-103.293248,,"POF","Privately Owned Facility"
"QUINN CONSTRUCTION, INC.","SD0000004677700519","SD","110038783457","212321",44.125774,-103.293248,,"POF","Privately Owned Facility"
"R. J. RIES VALET DRYCLEANERS","080000004609900019","SD","110062747639","812320",43.519326,-96.731255,,"POF","Privately Owned Facility"
"RAPID IMPORTS, INC.","080000004610300048","SD","110001676589","423930",44.1054,-103.17148,,"POF","Privately Owned Facility"
"RAY'S HEATING AND AIR CONDITIONING","080000004610300016","SD","110062747746","238220",44.05774,-103.14947,,"POF","Privately Owned Facility"
"RDU, LLC DBA BOYDS' GUNSTOCK INDUSTRIES","SD0000004603501014","SD","110004950241","321912",43.7057,-98.14655,,,
"RECYCLED AGGREGATE PRODUCTS","SD0000004677700474","SD","110062707968","212321",42.5078667,-96.3663379,,"POF","Privately Owned Facility"
"RED RIVER ENERGY, LLC","SD0000004610900003","SD","110012173263","325193",45.872608,-96.725109,14892,"POF","Privately Owned Facility"
"RED'S TRANSIT MIX","SD0000004611700001","SD","110038801641","327320",44.4467957,-100.2381762,,"POF","Privately Owned Facility"
"REDFIELD ENERGY LLC","SD0000004611500005","SD","110033218881","325193",44.91167,-98.50145,21469,,
"REMUDA ENERGY","SD000063-00008","SD","110064844968","211111",45.6071078,-108.3415172,,"POF","Privately Owned Facility"
"RING NECK ENERGY & FEED LLC","SD0000004611901009","SD","110070543313","311222",44.69334,-100.062568,23178,"MXO","Mixed Ownership (e.g., Public/Private)"
"ROCKPORT HUTTERITE BRETHERN","SD0004606101012","SD","110070520843","115116",43.6505115,-97.764648,,,
"ROCKWALL, INC","SD0000004677700568","SD","110038784045","212321",47.6387285,-117.5858257,,"POF","Privately Owned Facility"
"ROHLIN CONSTRUCTION COMPANY, INC.","SD0000004677700524","SD","110038805683","212321 324121",43.4039858,-94.8036529,,"POF","Privately Owned Facility"
"ROSCO MANUFACTURING","SD0000004607900002","SD","110007839170","333120",44.003176,-97.127215,,"POF","Privately Owned Facility"
"ROSEDALE HUTTERITE BRETHREN","SD0000004603501044","SD","110030487952","493130",43.618838,-97.86721,,"POF","Privately Owned Facility"
"ROSENBAUER AMERICA","SD0000004609900345","SD","110070949404","336120",43.722718,-96.870485,,,
"ROYAL C JOHNSON VETERAN MEMORIAL HOSPITA","SD0000004609900038","SD","110004944026","622110",43.53304,-96.75645,,"POF","Privately Owned Facility"
"ROYAL JOHNSON VETERANS MEDICAL HOSPITAL","SD0000004609900001","SD","110062747611","622110",43.53304,-96.75645,,"POF","Privately Owned Facility"
"RUNGE ENTERPRISES INC","SD0000004677700689","SD","110046462458","212321",43.5383351,-96.7319985,,"POF","Privately Owned Facility"
"RUSHMORE FOREST PRODUCTS","SD0000004610300003","SD","110006120385","321999 999999",43.94693,-103.52365,,"POF","Privately Owned Facility"
"SACRED HEART MONASTERY","SD0000004613500063","SD","110038106590","611310",42.87621,-97.409031,,"POF","Privately Owned Facility"
"SACRISON PAVING INC","SD0000004677700604","SD","110038445901","324121",44.4617597,-103.6380966,,"POF","Privately Owned Facility"
"SANFORD USD MEDICAL CENTER","SD0000004609900044","SD","110038106545","622110",43.53669,-96.74138,,"POF","Privately Owned Facility"
"SAPUTO CHEESE USA INC.","SD0000004605100003","SD","110001676295","311513",45.309833,-96.473564,,"POF","Privately Owned Facility"
"SCHOENFELDER CONSTRUCTION INC","SD0000004677700612","SD","110038784072","212321",43.7298621,-98.0333701,,"POF","Privately Owned Facility"
"SD DOT","SD0000004677700007","SD","110062693170","324121",44.5276324,-100.3091229,,"POF","Privately Owned Facility"
"SD DOT","SD0000004677700046","SD","110009790869","324121",45.4646777,-98.468104,,"POF","Privately Owned Facility"
"SEROCKI EXCAVATING INC","SD0000004677700648","SD","110062730647","324121",45.5972898,-96.8178738,,"POF","Privately Owned Facility"
"SHERBROOKE ASPHALT INC.","SD0000004677700559","SD","110038783509","212321 324121 999999",44.4467957,-100.2381762,,"POF","Privately Owned Facility"
"SHERBROOKE ASPHALT, INC.","SD0000004677700570","SD","110038783509","212321 324121 999999",44.4467957,-100.2381762,,"POF","Privately Owned Facility"
"SHERBROOKE ASPHALT, INC.","SD0000004677700553","SD","110038783509","212321 324121 999999",44.4467957,-100.2381762,,"POF","Privately Owned Facility"
"SHOWPLACE WOOD PRODUCTS INC","SD0000004608300003","SD","110001676552","337110",43.44168,-96.70424,59352,,
"SIBSON GRAVEL","SD0000004677700695","SD","110038784107","212321",45.49576,-96.73494,,"POF","Privately Owned Facility"
"SIBSON GRAVEL INC","SD0000004677700616","SD","110038784107","212321",45.49576,-96.73494,,"POF","Privately Owned Facility"
"SIMON CONTRACTORS OF SD INC.","SD0000004610300012","SD","110032744378","212319",44.09259,-103.2862,,,
"SIMON CONTRACTORS OF SOUTH DAKOTA","SD0000004677700577","SD","110021015532","324121",44.09668,-103.259,,"POF","Privately Owned Facility"
"SIMON, JAMES E. COMPANY","SD0000004610300031","SD","110044797020","324121",44.1217768,-103.201222,,"POF","Privately Owned Facility"
"SIOUX FALLS REGIONAL SANITARY LANDFILL","SD0000004609900113","SD","110044316601","562212",43.54729,-96.72937,,,
"SIOUX FALLS WATER RECLAMATION ","SD0000004609900012","SD","110000551670","221320",43.597361,-96.661611,,,
"SIOUX FALLS, CITY OF","SD0000004677700002","SD","110007186160","324121",43.559498,-96.72311,,"POF","Privately Owned Facility"
"SIOUX STEEL COMPANY","SD0000004609900023","SD","110007839241","326199",43.551284,-96.726186,,"POF","Privately Owned Facility"
"SIOUX VALLEY ENERGY","SD0000004609901231","SD","110070882014","238210",43.596,-96.618,,"MXO","Mixed Ownership (e.g., Public/Private)"
"SIOUX VALLEY ENERGY","SD0000004610101019","SD","110070882107","238210",43.979,-96.856,,"MXO","Mixed Ownership (e.g., Public/Private)"
"SIOUXLAND ENERGY COOPERATIVE","SD0000004608300007","SD","110045434482","325998",43.11876,-96.46029,,,
"SMITH EQUIPMENT","SD0000004602900097","SD","110000427869","332813",44.92831,-97.159,0,"POF","Privately Owned Facility"
"SMITHFIELD PACKAGED MEATS CORP.","SD0000004609900009","SD","110000427823","311611",43.5634,-96.7188,54868,"POF","Privately Owned Facility"
"SONIFI SOLUTIONS","SD0000000009900118","SD","110066859616","515210",43.57646,-96.77876,,"POF","Privately Owned Facility"
"SOUTH DAKOTA HUMAN SERVICES CENTER","SD0000004613500061","SD","110062738444","622110",42.9156485,-97.4466893,,"STF","State Government"
"SOUTH DAKOTA SCHOOL OF MINES & TECHNOLOGY","SD0000004610300060","SD","110004947531","611310",44.076078,-103.206492,,,
"SOUTH DAKOTA SCHOOL OF MINES AND TECHNOL - DO NOT USE","SD0000004610300035","SD","110004947531","611310",44.076078,-103.206492,,"STF","State Government"
"SOUTH DAKOTA SOYBEAN PROCESSORS - ST. LAWRENCE","SD0000004605900001","SD","110038044979","311224",44.51824,-98.988685,,,
"SOUTH DAKOTA SOYBEAN PROCESSORS - VOLGA","SD0000004601100003","SD","110000427681","311222 311224",44.323569,-96.905508,442645,,
"SOUTH DAKOTA STATE UNIVERSITY","SD0000004601100086","SD","110001676197","611310",44.311405,-96.79776,,,
"SOUTH DAKOTA STATE VETERANS HOME (MICHAEL J. FITZMAURICE) ","SD0000004604701030","SD","110070072356","622110",43.437095,-103.489887,,"FDF","Federal Facility (U.S. Government)"
"SOUTH DAKOTA WHEAT GROWERS KENNEBEC (GREENFIELD)","SD0000004608501021","SD","110070132510","424510",43.905,-99.865549,,"MXO","Mixed Ownership (e.g., Public/Private)"
"SOUTH DAKOTA WHEAT GROWERS MCLAUGHLIN","SD0000004603101007","SD","110070162187","424510",45.81824,-100.81908,,"MXO","Mixed Ownership (e.g., Public/Private)"
"SOUTH LINCOLN RURAL WATER SYSTEM (#1)","SD0000004608301056","SD","110071369191","221310",43.236134,-96.76749,,"MWD","Municipal or Water District"
"SPEARFISH FOREST PRODUCTS","SD0000004608100004","SD","110012704680","321113 321999",44.4981,-103.8818,,"POF","Privately Owned Facility"
"SPEARFISH FOREST PRODUCTS, INC.","SD0000004608100005","SD","110012704680","321113 321999",44.4981,-103.8818,,,
"SPENCER QUARRIES INC","SD0000004677700601","SD","110038045059","212321",43.753348,-97.599126,,"POF","Privately Owned Facility"
"SPENCER QUARRIES INC","SD0000004677700745","SD","110062714807","999999",43.7274662,-97.5911104,,"POF","Privately Owned Facility"
"SPENCER QUARRIES INC","SD0000004677700602","SD","110038045059","212321",43.753348,-97.599126,,"POF","Privately Owned Facility"
"SPENCER QUARRIES INC","SD0000004677700744","SD","110062714781","999999",43.7274662,-97.5911104,,"POF","Privately Owned Facility"
"SPENCER QUARRIES INC","SD0000004677700603","SD","110038045059","212321",43.753348,-97.599126,,"POF","Privately Owned Facility"
"SPENCER QUARRIES INC","SD0000004677700696","SD","110038045059","212321",43.7533476,-97.5991262,,"POF","Privately Owned Facility"
"SPENCER QUARRIES INC","SD0000004677700600","SD","110038045059","212321",43.753348,-97.599126,,"POF","Privately Owned Facility"
"SPENCER QUARRIES, INC.","SD0000004677700260","SD","110001994209","212321",43.7533476,-97.5991262,,"POF","Privately Owned Facility"
"SPENCER QUARRIES, INC.","SD0000004677700416","SD","110062726466","212321",43.7533476,-97.5991262,,"POF","Privately Owned Facility"
"SPENCER QUARRIES, INC.","SD0000004677700417","SD","110062726466","212321",43.7533476,-97.5991262,,"POF","Privately Owned Facility"
"SPENCER QUARRIES, INC.","SD0000004677700484","SD","110062708048","212321",43.710557,-97.606809,,"POF","Privately Owned Facility"
"SPENCER QUARRIES, INC.","SD0000004677700415","SD","110062726466","212321",43.7533476,-97.5991262,,"POF","Privately Owned Facility"
"SPRING CREEK HUTTERITE BRETHREN","SD000000028.080147","SD","110066859215","424520",45.911305,-98.870811,,"POF","Privately Owned Facility"
"SPYGLASS CEDAR CREEK COMPRESSOR STATION","SD0000004606300007","SD","110040511531","211111",45.5371676,-103.5860674,,"POF","Privately Owned Facility"
"ST. BERNARDS PROVIDENCE HOSPITAL","SD0000004605100040","SD","110062747540","622110",45.22184,-96.62634,,"POF","Privately Owned Facility"
"ST. MARYS HEALTH CARE CENTER","SD0000004606500001","SD","110062747568","622110",44.360391,-100.343027,,"POF","Privately Owned Facility"
"STANLEY J. JOHNSON CONCRETE CONTRACTOR","SD0000004677780001","SD","110062714852","237310",44.09403,-103.2233,,"POF","Privately Owned Facility"
"STATE OF SD, BUREAU OF ADMINISTRATION","SD0000004606500002","SD","110001676428","611310",44.365673,-100.345705,,"STF","State Government"
"STREET HEATING AND SHEET METAL","080000004610300025","SD","110062738300","238220",44.05262,-103.19404,,"POF","Privately Owned Facility"
"STROMSETH CONSTRUCTION","SD0000004677700580","SD","110062708226","212321",44.903305,-97.1328,,"POF","Privately Owned Facility"
"SUMMIT GREEN ENERGY,LLC-GENESIS 1","SD0000004612500003","SD","110040485551","325193",43.499773,-97.035896,,"POF","Privately Owned Facility"
"SUNDT CONSTRUCTION INC","SD0000004677780016","SD","110062702810","327320",32.2043406,-110.9452936,,"POF","Privately Owned Facility"
"T & R SERVICE COMPANY","SD0000004610100003","SD","110001138313","335311",43.978939,-96.856209,,,
"T&R ELECTRIC SUPPLY COMPANY","SD0000004610100001","SD","110013793314","335311",43.979709,-96.826725,,,
"TALLEY CONSTRUCTION INC","SD0000004677700740","SD","110062714754","999999",43.91968,-103.50713,,"POF","Privately Owned Facility"
"TARGET NATIONAL BANK","SD0000004609900115","SD","110044797468","522210",43.50381,-96.77205,,"POF","Privately Owned Facility"
"TCC MATERIALS (DAKOTA BLOCK COMPANY AND CHEYENNE RIVER SPEC MIX)","SD0000004610301166","SD","110070102318","327331",44.09667,-103.27274,,"POF","Privately Owned Facility"
"TCC MATERIALS - SIOUX FALLS","SD0000004609900045","SD","110033180153","327320",43.56837,-96.67929,,,
"TEREX","SD0000004600500011","SD","110000427994","333924",44.37075,-98.2294,85,"POF","Privately Owned Facility"
"TEREX ROADBUILDING","SD0000004608300010","SD","110062747602","333120",43.304443,-96.622847,,"POF","Privately Owned Facility"
"TEREX SOUTH DAKOTA - WATERTOWN","SD0000004602900014","SD","110000427887","333120",44.891091,-97.13713,,,
"TESSIERS, INC.","080000004610300023","SD","110062738266","238220",44.04124,-103.19141,,"POF","Privately Owned Facility"
"THE EVANGELICAL LUTHERAN GOOD SAMARITAN","SD0000004609900114","SD","110062747693","623110",43.500364,-96.783628,,"POF","Privately Owned Facility"
"THE IAMS COMPANY","SD0000004612700001","SD","110062738426","311111",42.5233282,-96.5097108,,"POF","Privately Owned Facility"
"THOMAS AUTOSERVICE","080000004610300050","SD","110001676605","811111",44.08331,-103.24205,,"POF","Privately Owned Facility"
"THUNDERBIRD HUTTERITE BRETHREN, INC.","SD0000000004900002","SD","110066859607","493130",45.189598,-99.26684,,"POF","Privately Owned Facility"
"TIRES PLUS","080000004602900019","SD","110015710435","811111",44.89071,-97.10328,,"POF","Privately Owned Facility"
"TJN ENTERPRISES INC.","0800000046099X0004","SD","110042260807","423930",43.54751,-96.79472,,"POF","Privately Owned Facility"
"TOSHIBA AMERICA INFORMATION SYSTEMS INC","SD0000004603500002","SD","110000427976","325992",43.71833,-98.00744,,"POF","Privately Owned Facility"
"TRAIL KING INDUSTRIES INC - WEST PLANT","SD0000004603500006","SD","110000747194","336212",43.69484,-98.02279,,"POF","Privately Owned Facility"
"TRI-STATE PAVING - OMG MIDWEST INC","SD0000004677700593","SD","110062708244","324121",41.6086291,-93.5995786,,"POF","Privately Owned Facility"
"TRUENORTH STEEL","SD0000004610300036","SD","110059002145","332312",44.09671,-103.27093,,"POF","Privately Owned Facility"
"TRUENORTH STEEL (HURON CULVERT & TANK)","SD0000004600500010","SD","110057371552","332420",44.370212,-98.217332,,"POF","Privately Owned Facility"
"TRUSSBILT, LLC","SD0000004600500004","SD","110000428001","332321",44.373596,-98.234426,,"POF","Privately Owned Facility"
"TSCHETTER COLONY","SD0000004606701034","SD","110012954936","493130",43.36749,-97.68738,,"POF","Privately Owned Facility"
"TWIN CITY FAN & BLOWER COMPANY - BROOKINGS","SD0000004601100005","SD","110000427583","333412",44.30574,-96.76193,3,,
"TWIN CITY FAN: AEROVENT","SD0000004601300009","SD","110002124228","333412",45.470839,-98.441796,3,"POF","Privately Owned Facility"
"UNITED CONCRETE","SD0000004608300005","SD","110038106493","327320",43.43306,-96.79333,,"POF","Privately Owned Facility"
"UNIVERSITY OF SOUTH DAKOTA","SD0000004602700005","SD","110001676286","611310",42.782493,-96.925809,,"STF","State Government"
"UPLAND COLONY","SD0000000011100001","SD","110061079844","493130",43.877,-97.9776,,"POF","Privately Owned Facility"
"UPPER PLAINS CONTRACTING","SD0000004677780018","SD","110054891113","327320",44.4467957,-100.2381762,,"POF","Privately Owned Facility"
"UPPER PLAINS CONTRACTING INC","SD0000004677780015","SD","110062702776","327320",45.4646777,-98.468104,,"POF","Privately Owned Facility"
"USGS - EROS DATA CENTER","SD0000004609900319","SD","110001149793","541370",43.534406,-96.645647,,,
"VA BLACK HILLS HEALTH CARE SYSTEM","SD0000004609300007","SD","110044316576","923140",44.41255,-103.47486,,"FDF","Federal Facility (U.S. Government)"
"VALERO RENEWABLE FUELS COMPANY LLC","SD0000004601100008","SD","110043806218","999999",44.291912,-96.689772,23768,,
"VERMEER CORPORATION","SD0000004603700004","SD","110008058948","333120",43.34877,-97.420451,5,,
"W HODGMAN & SONS, INC","SD0000004677700001","SD","110038801669","212321 324121",43.6268456,-94.4623244,,"POF","Privately Owned Facility"
"W HODGMAN & SONS, INC.","SD0000004677700434","SD","110038801669","212321 324121",43.6268456,-94.4623244,,"POF","Privately Owned Facility"
"W HODGMAN & SONS, INC.","SD0000004677700451","SD","110038801669","212321 324121",43.6268456,-94.4623244,,"POF","Privately Owned Facility"
"W HODGMAN & SONS, INC.","SD0000004677700467","SD","110038801669","212321 324121",43.6268456,-94.4623244,,"POF","Privately Owned Facility"
"WASTEQUIP MANUFACTURING COMPANY","SD0000004609900033","SD","110000427805","332439",43.56537,-96.77315,,"POF","Privately Owned Facility"
"WATERTOWN REGIONAL LANDFILL","SD0000004602900020","SD","110044316610","562212",44.9367222,-97.0927573,,"CTG","Municipality"
"WAUSAU SUPPLY","SD00000000046103","SD","110067049241","423310",44.117301,-103.170196,,,
"WBI ENERGY TRANSMISSION, INC","SD0000004601900004","SD","110063988029","486210",44.987414,-103.91393,,"POF","Privately Owned Facility"
"WEATHERTON CONTRACTING CO INC - NONMETAL","MN0000002705301030","SD","110035915258","212312 212321",43.0757746,-96.792476,,,
"WEATHERTON CONTRACTING COMPANY, INC.","SD0000004677700531","SD","110035915258","212312 212321",43.075775,-96.792476,,"POF","Privately Owned Facility"
"WEATHERTON CONTRACTING COMPANY, INC.","SD0000004677700476","SD","110035915258","212312 212321",43.075775,-96.792476,,"POF","Privately Owned Facility"
"WEATHERTON CONTRACTING COMPANY, INC.","SD0000004677700540","SD","110035915258","212312 212321",43.075775,-96.792476,,"POF","Privately Owned Facility"
"WEATHERTON CONTRACTING COMPANY, INC.","SD0000004677700541","SD","110035915258","212312 212321",43.075775,-96.792476,,"POF","Privately Owned Facility"
"WEATHERTON CONTRACTING COMPANY, INC.","SD0000004677700423","SD","110035915258","212312 212321",43.0757746,-96.792476,,"POF","Privately Owned Facility"
"WESSINGTON SPRINGS DIESEL GENERATION PLANT","SD0000004607300001","SD","110038106475","221112",44.07936,-98.56235,,,
"WESTERN CONSTRUCTION INC","SD0000004677700702","SD","110062745436","212321",44.0710712,-103.2179242,,"POF","Privately Owned Facility"
"WESTERN CONSTRUCTION INC","SD0000004677700701","SD","110062745427","212321",44.0710712,-103.2179242,,"POF","Privately Owned Facility"
"WESTERN CONSTRUCTION INC","SD0000004677700730","SD","110062714601","999999",44.0710712,-103.2179242,,"POF","Privately Owned Facility"
"WESTERN CONSTRUCTION INC","SD0000004677700632","SD","110062728525","212321",44.0710712,-103.2179242,,"POF","Privately Owned Facility"
"WESTERN CONSTRUCTION INC","SD0000004677700711","SD","110062714479","212321",44.0710712,-103.2179242,,"POF","Privately Owned Facility"
"WESTERN CONSTUCTION INC","SD0000004677700710","SD","110062745481","212321",44.0710712,-103.2179242,,"POF","Privately Owned Facility"
"WESTERN MINNESOTA MUNICIPAL POWER AGENCY - WATERTOWN","SD0000004602900008","SD","110010367548","221112",44.90087,-97.107022,,,
"WHARF RESOURCES INC - COEUR WHARF","SD0000004608100114","SD","110000594973","212221",44.34444,-103.86166,329,,
"WILLOW LAKE COMPRESSOR STATION","SD0000004602501024","SD","110070132438","486210",44.58754,-97.664551,,"MXO","Mixed Ownership (e.g., Public/Private)"
"WINTER, INC.","SD0000004601100010","SD","110044800454","327390",44.305739,-96.75171,,"POF","Privately Owned Facility"
"WINTER, INC.","SD0000004609900050","SD","110044800445","327390",43.64446,-96.77377,,"POF","Privately Owned Facility"
"WM D SCEPANIAK INC","SD0000004677700737","SD","110062714709","999999",45.7594675,-94.4290187,,"POF","Privately Owned Facility"
