"AIRName","SourceID","AIRState","RegistryID","AIRNAICS","FacLat","FacLong","FacTRIAIRReleases","AIRFacilityTypeCode","AIRFacilityTypeDesc"
" IOWA WORKFORCE DEVELOPMENT","IAPLK0001915300810","IA","110038888969","921190",41.59086,-93.61601,,"STF","State Government"
" UNION PARK HEALTH, LLC DBA AZRIA HEALTH PARK PLACE","IAPLK0001915302780","IA","110070560840","623110",41.61682,-93.60796,,"POF","Privately Owned Facility"
"$2.59 CLEANERS","IAPLK0001915304001","IA","110001762254","812320",41.616126,-93.735461,,"POF","Privately Owned Facility"
"205 CORP THE TAVERN II","IAPLK0001915300021","IA","110030490591","722410",41.58473,-93.7433,,"POF","Privately Owned Facility"
"219 GRAND, LLC","IAPLK0001915302250","IA","110070049628","531312",41.589791,-93.615504,,"POF","Privately Owned Facility"
"21ST CENTURY COOP-CUMBERLAND-MAIN (SBGP)","IA0000001902900059","IA","110043324113","424710",41.272497,-94.870476,,"POF","Privately Owned Facility"
"21ST CENTURY COOP-GREENFIELD","IA0000001900100030","IA","110000507602","424710",41.296278,-94.461972,,"POF","Privately Owned Facility"
"21ST CENTURY COOP-MASSENA (C-STORE)","IA0000001902900060","IA","110036397556","424710",41.25835,-94.76724,,"POF","Privately Owned Facility"
"3 SONS ENTERPRISES, LLC","IAPLK0001915301025","IA","110007358386","812220",41.6402,-93.69798,,"POF","Privately Owned Facility"
"3M (MINNESOTA MINING & MFG CO) - AMES ","IA0000001916900100","IA","110000412571","327910 999999",42.0296,-93.57913,29,"POF","Privately Owned Facility"
"3M COMPANY","IA00000019125C0011","IA","110000412697","322220 325520",41.318143,-93.065738,53053,"POF","Privately Owned Facility"
"3M COMPANY","IA00000019169C0018","IA","110000412571","327910 999999",42.0296,-93.57913,29,"POF","Privately Owned Facility"
"3M MINNESOTA MINING & MANUFACTURING CO","IA0000001912500001","IA","110000412697","322220 325520",41.318143,-93.065738,53053,"POF","Privately Owned Facility"
"4-EVER PETS","IA00091-03-009","IA","110070507435","541940",41.47635,-93.53993,,,
"5 SEASONS AUTO REBUILDERS","IALIN0001911300519","IA","110001763654","811121",41.96373,-91.74826,,"POF","Privately Owned Facility"
"611 5TH AVENUE, LLC","IAPLK0001915303001","IA","110070544008","531312",41.591797,-93.61199,,"COR","Corporation"
"615 THIRD ST, LLC","IAPLK0001915303246","IA","110070672238","531120",41.58968,-93.62109,,"COR","Corporation"
"7TH & GRAND RAMP DEVELOPER, LLC","IAPLK0001915302245","IA","110070049627","524210",41.58809,-93.62738,,"COR","Corporation"
"A & I PRODUCTS","IA0000001908100042","IA","110040469445","333111",43.00765,-93.603222,,"POF","Privately Owned Facility"
"A & W FARM OPERATIONS, INC","IAPLK0001915300225","IA","110000518011","424510",41.65215,-93.46457,,"POF","Privately Owned Facility"
"A J BODY SHOP","IAPLK0001915303495","IA","110038882171","811121",41.63678,-93.615903,,"POF","Privately Owned Facility"
"A M COHRON & SON INC","IA0000001914500026","IA","110001329401","327320",40.73503,-95.02726,,"POF","Privately Owned Facility"
"A TO Z DRYING INC-NORTH & SOUTH PLANTS","IA0000001913100005","IA","110001763921","325320",43.283012,-92.81957,,"POF","Privately Owned Facility"
"A Y MCDONALD MFG CO","IA0000001906100010","IA","110000414597","221122 332913",42.49224,-90.74772,1973,"POF","Privately Owned Facility"
"A-1 AUTO BODY","IALIN0001911300500","IA","110001763743","811121",41.96572,-91.68121,,"POF","Privately Owned Facility"
"A-1 DISPOSAL SERVICE, INC.","IALIN0001911301073","IA","110005749315","562211",41.92639,-91.68951,,"POF","Privately Owned Facility"
"A-1 FIBERGLASS","IA0000001915700112","IA","110000742484","336370",41.59064,-92.53043,,"POF","Privately Owned Facility"
"A-1 QUALITY SCREENPRINTING","IALIN0001911301071","IA","110005774536","999999",41.96309,-91.69968,,"POF","Privately Owned Facility"
"A-LINE CRUSHING SERVICE","IA0000001977700662","IA","110002084459","212312 331423",42.49087,-92.30137,0,"POF","Privately Owned Facility"
"A-LINE EDS INC","IA0000001901300259","IA","110002084459","212312 331423",42.49087,-92.30137,0,"POF","Privately Owned Facility"
"A-LINE IRON & METALS","IA0000001901300298","IA","110014374783","423930",42.52184,-92.34522,,"POF","Privately Owned Facility"
"A-LINE IRON & METALS KELLOGG LLC","IA0000001909900131","IA","110000612007","423930",41.746811,-92.893061,,"POF","Privately Owned Facility"
"A-TEC RECYCLING INC","IAPLK0001915300057","IA","110005731574","327212",41.665049,-93.592474,,"POF","Privately Owned Facility"
"A.T.C., INC.","IALIN0001911300772","IA","110002082950","811121 999999",41.91434,-91.68243,,"POF","Privately Owned Facility"
"AB MAURI FOOD INC.","IALIN0001911300215","IA","110043626706","311822",41.99945,-91.67738,,"POF","Privately Owned Facility"
"ABC SIGN & DISPLAY","IAPLK0001915300013","IA","110018855158","811192",41.6256,-93.75714,,"POF","Privately Owned Facility"
"ABCO ENGINEERING CORP","IA0000001906500035","IA","110001400145","333922",42.66782,-91.90981,,"POF","Privately Owned Facility"
"ABEL KEPPY ANIMAL HOSPITAL","IA0000001916300485","IA","110061087835","541940",41.52869,-90.513,,"POF","Privately Owned Facility"
"ABRA AUTO BODY & GLASS","IALIN0001911300876","IA","110001765279","811121",42.04779,-91.68064,,"POF","Privately Owned Facility"
"ABSOLUTE ENERGY LLC-SAINT ANSGAR (MONA)","IA0000001913100042","IA","110027236621","325193",43.49951,-92.91709,16476,"POF","Privately Owned Facility"
"ABSOLUTE REPAIR, LLC","IAPLK0001915303546","IA","110001327494","811121",41.65554,-93.46456,,"POF","Privately Owned Facility"
"AC TECHNICIANS AUTO REPAIR","IAPLK00019153C0004","IA","110001328796","999999",41.60054,-93.56861,,"POF","Privately Owned Facility"
"ACCU-MOLD LLC","IAPLK0001915300003","IA","110001326752","326199",41.70283,-93.5687,,"POF","Privately Owned Facility"
"ACCURATE DEWATERING SERVICE INC","IAPLK0001915300194","IA","110037595297","221320",41.57407,-93.55498,,"POF","Privately Owned Facility"
"ACE BODY & MOTOR","IAPLK0001915303021","IA","110001402367","811121",41.64286,-93.61116,,"POF","Privately Owned Facility"
"ACE REFRIGERATION","IALIN00019113C0017","IA","110020579863","562212",41.91573,-91.67634,,"POF","Privately Owned Facility"
"ACH FOAM TECHNOLOGIES LLC","IA0000001918300037","IA","110001330300","326140",41.31298,-91.682,,"POF","Privately Owned Facility"
"ACHESON AUTO BODY","IAPLK0001915303028","IA","110001402376","811121",41.568387,-93.70315,,"POF","Privately Owned Facility"
"ACHESON AUTO WORKS","IAPLK0001915303030","IA","110001402385","811121",41.60219,-93.72789,,"POF","Privately Owned Facility"
"ACKERMAN AUTO PARTS CO INC","IAPLK0001915303042","IA","110038888843","423120",41.57927,-93.63449,,"POF","Privately Owned Facility"
"ACME BRASS & ALUMINUM FOUNDRY","IA0000001912700005","IA","110001130570","331528",42.04129,-92.89659,,"POF","Privately Owned Facility"
"ACME FUEL & MATERIALS","IA0000001977700544","IA","110007251516","327320",41.838299,-90.519654,,"POF","Privately Owned Facility"
"ACME MATERIALS CO","IA0000001913900118","IA","110022405681","212321",41.37017,-91.075634,,"POF","Privately Owned Facility"
"ACME PLATING","IAPLK0001915300004","IA","110001326217","332211",41.571132,-93.718837,,"POF","Privately Owned Facility"
"ACME PRINTING CO INC","IAPLK0001915300002","IA","110001761219","323111",41.60908,-93.61555,,"POF","Privately Owned Facility"
"ACO POLYMER PRODUCTS INC","IA0000001916300447","IA","110015781929","325211",41.53351,-90.47098,,"POF","Privately Owned Facility"
"ACP, INC.","IALIN0001911301174","IA","110038934151","333294",41.931898,-91.655356,,"POF","Privately Owned Facility"
"ACRO MANUFACTURING CORP.","IALIN0001911301154","IA","110038934142","999999",42.03304,-91.67236,,"POF","Privately Owned Facility"
"ACTERRA GROUP","IALIN0001911300602","IA","110001325744","332313",42.028839,-91.576985,,"POF","Privately Owned Facility"
"ACTION AUTO BODY","IAPLK0001915303469","IA","110009362242","811121",41.59966,-93.6378,,"POF","Privately Owned Facility"
"ACTION AUTO BODY INC","IAPLK0001915303049","IA","110038888852","811121",41.585863,-93.634065,,"POF","Privately Owned Facility"
"ACTION AUTOBODY","IAPLK0001915303350","IA","110001327056","811121",41.61101,-93.61983,,"POF","Privately Owned Facility"
"ACTION RECYCLING INC","IA0000001977700693","IA","110024523700","238910",41.91983,-91.68043,,"POF","Privately Owned Facility"
"ACTION RECYCLING INC.","IALIN0001911301156","IA","110024523700","238910",41.91983,-91.68043,,"POF","Privately Owned Facility"
"ACTION TRUCK PARTS","IA00000019155C0005","IA","110001755397","999999",41.252059,-95.869239,,"POF","Privately Owned Facility"
"ADA ENTERPRISES INC","IA0000001919500033","IA","110001326805","326140",43.44065,-93.19846,,"POF","Privately Owned Facility"
"ADAIR COUNTY LANDFILL","IA0000001900100040","IA","110043324079","562212",41.410936,-94.45268,,"CTG","Municipality"
"ADAIR SHOPS","IA0000001906100281","IA","110012576006","339930",42.49127,-91.13001,,"POF","Privately Owned Facility"
"ADCRAFT PRINTING CO. INC.","IALIN0001911301067","IA","110002350358","313310",41.97613,-91.66369,,"POF","Privately Owned Facility"
"ADDOCO INC","IA0000001906100135","IA","110001753512","321920",42.480872,-90.787463,,"POF","Privately Owned Facility"
"ADESA DES MOINES LLC","IAPLK0001915303200","IA","110001761898","811121",41.54057,-93.59422,,"POF","Privately Owned Facility"
"ADESA OF DES MOINES LLC","IAPLK0001915303005","IA","110012151492","425120",41.673828,-93.777615,,"POF","Privately Owned Facility"
"ADF SYSTEMS LTD","IA0000001909100068","IA","110001761549","333319",42.735563,-94.237113,,"POF","Privately Owned Facility"
"ADHESIVE COMPOUNDERS","IAPLK0001915300020","IA","110001328215","325520",41.58073,-93.62142,,"POF","Privately Owned Facility"
"ADM ALLIANCE NUTRITION INC","IA0000001914900026","IA","110000605818","311119",42.793229,-96.221378,,"POF","Privately Owned Facility"
"ADM ALLIANCE NUTRITION INC","IA0000001914900025","IA","110010305543","311119",42.78274,-96.17723,,"POF","Privately Owned Facility"
"ADM ALLIANCE NUTRITION INC","IAPLK0001915300247","IA","110000767698","311119",41.66596,-93.59015,16,"POF","Privately Owned Facility"
"ADM ANIMAL NUTRITUTION - NEW HAMPTON","IA0000001903700060","IA","110000605809","311119",43.0645,-92.32283,,"POF","Privately Owned Facility"
"ADM CLINTON BIOPROCESSING - CLINTON","IA0000001904500030","IA","110000415630","311221",41.8196,-90.2122,1126969,"POF","Privately Owned Facility"
"ADM CO","IAPLK0001915300531","IA","110017406001","311222",41.622319,-93.584072,,"POF","Privately Owned Facility"
"ADM CORN PROCESSING","IALIN0001911300062","IA","110010507503","311221",41.9192,-91.6862,534194,"POF","Privately Owned Facility"
"ADM GRAIN CO","IA0000001905700087","IA","110007058129","424510",40.82747,-91.106372,,"POF","Privately Owned Facility"
"ADM GRAIN CO-ATLANTIC","IA0000001902900049","IA","110043600369","424510",41.44027,-95.00353,,"POF","Privately Owned Facility"
"ADM GRAIN CO-CLINTON","IA0000001904500229","IA","110040472182","488320",41.83013,-90.188292,,"POF","Privately Owned Facility"
"ADM GRAIN CO-KALONA & MASTER MIX FEED","IA0000001918300021","IA","110007058708","311119",41.483365,-91.717005,,"POF","Privately Owned Facility"
"ADM GRAIN CO-KEYSTONE","IA0000001901100048","IA","110039599137","424510",41.99825,-92.19967,,"POF","Privately Owned Facility"
"ADM GRAIN CO-NORA SPRINGS","IA0000001906700100","IA","110044952441","424510",43.1587697,-93.0120284,,"POF","Privately Owned Facility"
"ADM GRAIN CO-WASHINGTON","IA0000001918300058","IA","110039601071","424510",41.29855,-91.70799,,"POF","Privately Owned Facility"
"ADM MILLING COMPANY","IAPLK0001915300340","IA","110001766232","311211",41.59548,-93.58275,,"POF","Privately Owned Facility"
"ADM RAILCAR REPAIR FACILITY","IALIN0001911301144","IA","110022575747","488210",41.94682,-91.6864,,"POF","Privately Owned Facility"
"ADM TERMINAL SERVICES - CAMANCHE","IA0001900002303020","IA","110071219869","488320",41.794003,-90.249853,,"POF","Privately Owned Facility"
"ADM/GROWMARK-SIOUX CITY","IA0000001919300455","IA","110007058012","311211",42.50388,-96.3785,,"POF","Privately Owned Facility"
"ADOCAR AUTOBODY & PAINT","IAPLK0001915303848","IA","110038913325","811121",41.63317,-93.59528,,"POF","Privately Owned Facility"
"ADVANCED BLASTING, INC.","IALIN0001911301101","IA","110015714477","999999",41.93867,-91.65707,,"POF","Privately Owned Facility"
"ADVANCED ENVIRONMENTAL TECHNOLOGY INC","IA0000001905700128","IA","110041994973","332993 562211",40.808331,-91.246669,5502,"FDF","Federal Facility (U.S. Government)"
"ADVANCED FINISHES INC","IA0000001919300646","IA","110001756065","332812",42.511089,-96.372812,,"POF","Privately Owned Facility"
"ADVANCED HEAT TREAT CORP","IA0000001901300235","IA","110000413874","332811",42.54032,-92.35802,,"POF","Privately Owned Facility"
"ADVANTAGE INDUSTRIES, DBA HOME PLASTICS INC","IAPLK0001915300316","IA","110001754076","326112 332813",41.65546,-93.59273,,"POF","Privately Owned Facility"
"AEC ENTERPRISES INC","IA0000001918100112","IA","110006793513","332322",41.21612,-93.7704,,"POF","Privately Owned Facility"
"AEGON","IALIN0001911301042","IA","110005768776","523920",42.023249,-91.7037,,"POF","Privately Owned Facility"
"AEGON USA REALTY ADVISORS, INC.","IALIN0001911301163","IA","110027215788","523920",42.01956,-91.69882,,"POF","Privately Owned Facility"
"AEGON USA REALTY ADVISORS, INC.","IALIN0001911301161","IA","110027236747","523920",41.9155,-91.63721,,"POF","Privately Owned Facility"
"AEGON USA REALTY ADVISORS, INC.","IALIN0001911301162","IA","110027236756","523920",42.027929,-91.616741,,"POF","Privately Owned Facility"
"AERIAL PLATFORM EXPERTS LLC","IA0000001916300448","IA","110024523808","333923",41.59492,-90.62185,,"POF","Privately Owned Facility"
"AERIAL SERVICES","IA0000001901300271","IA","110005970468","812921",42.48081,-92.45466,,"POF","Privately Owned Facility"
"AERO COLOUR OF DES MOINES","IAPLK0001915303583","IA","110038885463","811121",41.66001,-93.61902,,"POF","Privately Owned Facility"
"AERO RACE WHEELS INC","IA0000001906300059","IA","110001331041","336390",43.395563,-94.806541,,"POF","Privately Owned Facility"
"AFINITAS","IA0000001905700133","IA","110012151919","327390",41.004566,-91.170014,,"POF","Privately Owned Facility"
"AFTER HOURS AUTOMOTIVE","IALIN0001911300988","IA","110001325566","811111 999999",42.203563,-91.524174,,"POF","Privately Owned Facility"
"AG BIO-POWER - TAMA","IA0000001917100054","IA","110021035084","325199",41.95773,-92.55148,,"POF","Privately Owned Facility"
"AG PARTNERS LLC-ALBERT CITY","IA0000001902100015","IA","110007044894","424510",42.781806,-94.943528,,"POF","Privately Owned Facility"
"AG PARTNERS LLC-ALTA","IA0000001902100010","IA","110000522426","424510",42.674639,-95.299778,,"POF","Privately Owned Facility"
"AG PARTNERS LLC-ALTON","IA0000001916700122","IA","110045336711","424710",42.99121,-96.0021,,"POF","Privately Owned Facility"
"AG PARTNERS LLC-EMMETSBURG","IA0000001914700010","IA","110007046865","424510",43.11011,-94.67372,,"POF","Privately Owned Facility"
"AG PARTNERS LLC-FONDA","IA0000001915100002","IA","110002071597","424510",42.65855,-94.89465,,"POF","Privately Owned Facility"
"AG PARTNERS LLC-HOSPERS","IA0000001916700133","IA","110043601894","424510",43.07417,-95.90444,,"POF","Privately Owned Facility"
"AG PARTNERS LLC-MAURICE","IA0000001916700060","IA","110007073291","424510",42.968003,-96.176264,,"POF","Privately Owned Facility"
"AG PARTNERS LLC-ROYAL","IA0000001904100006","IA","110000522319","424510",43.06565,-95.28298,,"POF","Privately Owned Facility"
"AG PARTNERS LLC-SHELDON","IA0000001914100040","IA","110001754012","311119",43.173481,-95.861649,,"POF","Privately Owned Facility"
"AG PARTNERS LLC-SUTHERLAND","IA0000001914100030","IA","110022405743","424510",42.97473,-95.49612,,"POF","Privately Owned Facility"
"AG PARTNERS, LLC - SHELDON","IA0000001914100005","IA","110000560027","311119",43.179167,-95.859167,,"POF","Privately Owned Facility"
"AG PARTS LTD","IA0000001909100073","IA","110001756190","333613",42.73771,-94.23937,,"POF","Privately Owned Facility"
"AG PROCESSING INC-ALGONA","IA0000001910900107","IA","110056955488","325998",43.079207,-94.182672,11435,"POF","Privately Owned Facility"
"AG PROCESSING INC-EAGLE GROVE","IA0000001919700005","IA","110011273022","311224",42.669167,-93.904444,415883,"POF","Privately Owned Facility"
"AG PROCESSING INC-EMMETSBURG","IA0000001914700060","IA","110018869303","311224",43.10102,-94.65419,102347,"POF","Privately Owned Facility"
"AG PROCESSING INC-MANNING","IA0000001902700046","IA","110000414365","311224",41.920794,-95.070791,263216,"POF","Privately Owned Facility"
"AG PROCESSING INC-MASON CITY","IA0000001903300038","IA","110000413268","311224",43.13393,-93.22612,121949,"POF","Privately Owned Facility"
"AG PROCESSING INC-SERGEANT BLUFF","IA0000001919300148","IA","110000414061","311224",42.305176,-96.362271,197166,"POF","Privately Owned Facility"
"AG PROCESSING INC-SHELDON","IA0000001914100010","IA","110018868126","311224",43.182248,-95.856177,270610,"POF","Privately Owned Facility"
"AG RELIANT GENETICS","IA0000001901500134","IA","110046594128","115114",42.0322,-94.08652,,"POF","Privately Owned Facility"
"AG VANTAGE FS INC - ALDEN","IA0000001908300128","IA","110000716360","424710",42.503684,-93.380651,,"POF","Privately Owned Facility"
"AG VANTAGE FS INC - ALLISON","IA0000001902300107","IA","110000710268","424710",42.74478,-92.81115,,"POF","Privately Owned Facility"
"AG VANTAGE FS INC - ANAMOSA","IA0000001910500074","IA","110000510395","424710",42.127148,-91.264192,,"POF","Privately Owned Facility"
"AG VANTAGE FS INC - BURR OAK","IA0000001919100086","IA","110021035930","424710",43.46957,-91.86501,,"POF","Privately Owned Facility"
"AG VANTAGE FS INC - CHAPIN","IA0000001906900098","IA","110037595670","424510",42.837425,-93.220413,,"POF","Privately Owned Facility"
"AG VANTAGE FS INC - CHARLES CITY","IA0000001906700094","IA","110000756673","424710",43.04851,-92.66777,,"POF","Privately Owned Facility"
"AG VANTAGE FS INC - COULTER","IA0000001906900095","IA","110021035119","424710",42.73582,-93.36859,,"POF","Privately Owned Facility"
"AG VANTAGE FS INC - ELDORA","IA0000001908300127","IA","110000716388","424710",42.351951,-93.099467,,"POF","Privately Owned Facility"
"AG VANTAGE FS INC - HAZLETON","IA0000001901900057","IA","110000509753","424710",42.630554,-91.908248,,"POF","Privately Owned Facility"
"AG VANTAGE FS INC - LAKE MILLS","IA0000001918900058","IA","110041891218","424710",43.42451,-93.50163,,"POF","Privately Owned Facility"
"AG VANTAGE FS INC - NEW HARTFORD","IA0000001902300101","IA","110000511223","424710",42.563989,-92.613485,,"POF","Privately Owned Facility"
"AG VANTAGE FS INC - NORTHWOOD","IA0000001919500043","IA","110032621214","424710",43.41417,-93.21637,,"POF","Privately Owned Facility"
"AG VANTAGE FS INC - OSAGE","IA0000001913100036","IA","110007048248","424710",43.271389,-92.810833,,"POF","Privately Owned Facility"
"AG VANTAGE FS INC - STANWOOD","IA0000001903100047","IA","110041891030","424710",41.890346,-91.139739,,"POF","Privately Owned Facility"
"AG VANTAGE FS INC - SUMNER","IA0000001901700055","IA","110011728693","424710",42.84316,-92.12121,,"POF","Privately Owned Facility"
"AG VANTAGE FS INC - WAUKON","IA0000001900500069","IA","110021035146","424710",43.283887,-91.502432,,"POF","Privately Owned Facility"
"AGENCY TRUCK&TRAILER","IALIN0001911300510","IA","110001763636","811111",41.94888,-91.68016,,"POF","Privately Owned Facility"
"AGGREGATES,INC.","IALIN0001911300002","IA","110001753772","212312",42.05299,-91.73573,,"POF","Privately Owned Facility"
"AGILANT TECHNOLOGIES, INC","IAPLK0001915302560","IA","110040074825","115112",41.70489,-93.56437,,"POF","Privately Owned Facility"
"AGRA GRAIN CORP.","IALIN0001911300001","IA","110038936328","999999",42.023172,-91.6596131,,"POF","Privately Owned Facility"
"AGRI CENTER OF HENRY CO INC-OLDS","IA0000001908700074","IA","110043607521","424510",41.1342,-91.54492,,"POF","Privately Owned Facility"
"AGRI DRAIN CORP","IA0000001900100032","IA","110001756467","332913",41.518425,-94.650902,,"POF","Privately Owned Facility"
"AGRI STAR MEAT & POULTRY LLC","IA0000001900500071","IA","110022411291","311611",43.08665,-91.57949,1000,"POF","Privately Owned Facility"
"AGRI-CENTER OF HENRY COUNTY INC","IA0000001908700077","IA","110043607460","424510",40.98143,-91.55408,,"POF","Privately Owned Facility"
"AGRI-WAY PARTNERS LLC","IA0000001908700075","IA","110043607488","311119",41.14973,-91.65319,,"POF","Privately Owned Facility"
"AGRILAND FS INC-ADAIR (CANBY)","IA0000001900100039","IA","110042261628","424710",41.417415,-94.634427,,"POF","Privately Owned Facility"
"AGRILAND FS INC-AFTON","IA0000001917500128","IA","110042261717","424710",41.03734,-94.21446,,"POF","Privately Owned Facility"
"AGRILAND FS INC-AUDUBON","IA0000001900900040","IA","110000709626","424710",41.688169,-94.915174,,"POF","Privately Owned Facility"
"AGRILAND FS INC-HANCOCK (OAKLAND)","IA0000001915500345","IA","110042261691","424710",41.35677,-95.38425,,"POF","Privately Owned Facility"
"AGRILAND FS INC-HARLAN","IA0000001916500031","IA","110013702154","424710",41.637648,-95.326648,,"POF","Privately Owned Facility"
"AGRILAND FS INC-HUMESTON","IA0000001918500048","IA","110000521070","424710",40.862388,-93.495282,,"POF","Privately Owned Facility"
"AGRILAND FS INC-LOGAN","IA0000001908500023","IA","110042261655","424710",41.638889,-95.789167,,"POF","Privately Owned Facility"
"AGRILAND FS INC-MALVERN","IA0000001912900029","IA","110000510741","424710",41.00356,-95.59259,,"POF","Privately Owned Facility"
"AGRILAND FS INC-MORAVIA","IA0000001900700067","IA","110000509780","424710",40.892301,-92.825661,,"POF","Privately Owned Facility"
"AGRILAND FS INC-OSKALOOSA","IA0000001912300117","IA","110000708734","424710",41.280278,-92.6225,,"POF","Privately Owned Facility"
"AGRILAND FS INC-UNDERWOOD","IA0000001915500344","IA","110000711588","424710",41.380278,-95.683333,,"POF","Privately Owned Facility"
"AGRILAND FS INC-WASHINGTON","IA0000001918300061","IA","110000709001","424710",41.3025,-91.716944,,"POF","Privately Owned Facility"
"AGRILAND FS INC-WINTERSET","IA0000001912100060","IA","110042261673","424710",41.34522,-94.0363,,"POF","Privately Owned Facility"
"AGRISTAR MEAT AND POULTRY, LLC","IA0000001900500070","IA","110022482375","311612",43.09269,-91.5808,,"CTG","Municipality"
"AGRITRONICS CORP","IAPLK0001915300393","IA","110022938829","311119",41.56945,-93.70322,,"POF","Privately Owned Facility"
"AGROPUR INC","IA0000001916700120","IA","110037478208","311513",43.18163,-96.13403,0,"POF","Privately Owned Facility"
"AGSTATE, LLC / ELLSWORTH","IA0000001907900026","IA","110007254023","424510",42.30203,-93.56011,,"POF","Privately Owned Facility"
"AHLERS OIL CO INC","IA0000001914100071","IA","110041352292","424710",43.182636,-95.844844,,"POF","Privately Owned Facility"
"AHLRICH'S CABINET SHOP INC","IA0000001915100049","IA","110040826559","337110",42.73348,-94.66789,,"POF","Privately Owned Facility"
"AHRENS AGRICULTURE INDUSTRY CO","IA0000001915700110","IA","110000412642","333111",41.74361,-92.74298,,"POF","Privately Owned Facility"
"AI PROCESSORS","IA0000001910900055","IA","110000413669","339999",43.06396,-94.42449,,"POF","Privately Owned Facility"
"AIH CHROME","IA0000001906100248","IA","110009360887","336399",42.52253,-90.65306,,"POF","Privately Owned Facility"
"AIKEY AUTO SALVAGE","IA00000019013C0003","IA","110001400029","999999",42.543232,-92.428577,,"POF","Privately Owned Facility"
"AIR ELECTRIC MACHINE CO INC","IA0000001902500024","IA","110001762851","332999",42.27085,-94.54833,,"POF","Privately Owned Facility"
"AIR TEX CORP","IAPLK0001915301002","IA","110031126840","541430",41.575193,-93.61179,,"POF","Privately Owned Facility"
"AIRGAS USA LLC","IAPLK0001915303052","IA","110001397881","325120",41.72703,-93.57335,2495,"POF","Privately Owned Facility"
"AIRPORT HOLIDAY INN(CRYSTAL)","IAPLK0001915302019","IA","110038889307","721110",41.52925,-93.64495,,"POF","Privately Owned Facility"
"AJ PLUMBING","IAPLK0001915303095","IA","110038889012","238220",41.59932,-93.509533,,"POF","Privately Owned Facility"
"AJINOMOTO HEALTH AND NUTRITION NORTH AMERICA, INC - AHI","IA0000001913500032","IA","110072128760","325199",41.1486,-92.64472,,"POF","Privately Owned Facility"
"AJINOMOTO HEALTH AND NUTRITION, INC","IA0000001913500033","IA","110072128760","325199",41.1486,-92.64472,,"POF","Privately Owned Facility"
"AL'S CORNER OIL CO-CARROLL","IA0000001902700089","IA","110030481280","424710",42.18026,-94.87806,,"POF","Privately Owned Facility"
"AL-JON MFG INC","IA0000001917900083","IA","110064140594","333298",41.105044,-92.441384,,"POF","Privately Owned Facility"
"ALBANY MOLECULAR RESEARCH INC-ENZYMED","IA0000001910300150","IA","110002350072","611310",41.6629388,-91.5435503,,"POF","Privately Owned Facility"
"ALBAUGH CORP","IAPLK0001915300177","IA","110001360884","325320",41.723388,-93.573581,,"POF","Privately Owned Facility"
"ALBERT AUTO SERVICE, INC. - EAST","IALIN0001911301134","IA","110020900747","811111",41.97685,-91.62172,,"POF","Privately Owned Facility"
"ALBERT AUTO SERVICE, INC. - SOUTH","IALIN0001911301135","IA","110020900756","811111",41.941951,-91.666742,,"POF","Privately Owned Facility"
"ALBURNETT VETERINARY SERVICE","IALIN0001911300849","IA","110038936701","999999",42.14483,-91.61865,,"POF","Privately Owned Facility"
"ALDI INC","IA00000019057C0003","IA","110015583894","311812",40.81125,-91.10937,,"POF","Privately Owned Facility"
"ALDI INC","IA00000019057C0004","IA","110001331363","311812",40.825988,-91.150804,,"POF","Privately Owned Facility"
"ALEXANDER MED CELL CO","IA0000001903300012","IA","110032748640","335911",43.137378,-93.225866,,"POF","Privately Owned Facility"
"ALFONSIO AUTO BODY SHOP, LLC","IAPLK0001915302941","IA","110070824267","811121",41.61087,-93.61865,,"POF","Privately Owned Facility"
"ALGONA GOOD SAMARITAN COMMUNITIES","IA0000001910900106","IA","110024416096","999999",43.06457,-94.241777,,"POF","Privately Owned Facility"
"ALGONA MUNICIPAL UTILITIES","IA0000001910900005","IA","110064142048","221112",43.073134,-94.239192,,"CTG","Municipality"
"ALL AMERICAN ARCHITECTURAL ARTS INC","IAPLK0001915302009","IA","110001761861","444190",41.62595,-93.57802,,"POF","Privately Owned Facility"
"ALL AMERICAN HOMES OF IOWA LLC","IA0000001906100272","IA","110005766616","321992",42.47137,-91.10505,,"POF","Privately Owned Facility"
"ALL POWER INC","IA0000001919300658","IA","110033646115","331419",42.42709,-96.38324,,"POF","Privately Owned Facility"
"ALL SEASONS AUTO BODY REPAIR & PAINTING","IA0000001910500072","IA","110005776357","811121",42.25121,-91.19231,,"POF","Privately Owned Facility"
"ALL STAR FEEDS INC","IA0000001905500060","IA","110024416032","999999",42.48533,-91.27804,,"POF","Privately Owned Facility"
"ALL STAR PRO GOLF","IA0000001904100074","IA","110014396876","811490",43.15285,-95.19544,,"POF","Privately Owned Facility"
"ALL STATE STEEL","IALIN0001911301344","IA","110070029217","332312",41.9377,-91.65857,,"POF","Privately Owned Facility"
"ALL-STATE BELTING, LLC","IAPLK0001915302384","IA","110012151839","326220 326291",41.56202,-93.7278,14,"COR","Corporation"
"ALL-STATE INDUSTRIES INC","IAPLK0001915300011","IA","110012151839","326220 326291",41.56202,-93.7278,14,"POF","Privately Owned Facility"
"ALLAMAKEE-CLAYTON ELECTRIC COOP","IA0000001900500056","IA","110064140969","221122",43.10196,-91.56835,,"POF","Privately Owned Facility"
"ALLAN INDUSTRIAL COATINGS-ALLISON","IA0000001902300104","IA","110006164346","332813",42.744738,-92.786871,,"POF","Privately Owned Facility"
"ALLAN INDUSTRIAL COATINGS-GREENE","IA0000001902300110","IA","110038456364","332813",42.89522,-92.816,,"POF","Privately Owned Facility"
"ALLAN INDUSTRIAL COATINGS-WATERLOO","IA0000001901300228","IA","110001400289","332812",42.53871,-92.355,,"POF","Privately Owned Facility"
"ALLEMAN CAR CORNER","IAPLK0001915303784","IA","110005760809","811121",41.821147,-93.600435,,"POF","Privately Owned Facility"
"ALLEMAN COOP SHELDAHL","IAPLK0001915300007","IA","110038927702","424510",41.820142,-93.610562,,"POF","Privately Owned Facility"
"ALLEN BROS. SINCLAIR","IALIN0001911301121","IA","110022323190","811111",41.96538,-91.70578,,"POF","Privately Owned Facility"
"ALLEN MEMORIAL HOSPITAL","IA0000001901300002","IA","110001324656","622110",42.52722,-92.33763,,"POF","Privately Owned Facility"
"ALLEN S RADIATOR AND AUTO SERVICE","IAPLK0001915303055","IA","110038888861","811118",41.627802,-93.677137,,"POF","Privately Owned Facility"
"ALLER AUTO UPHOLSTRY","IAPLK0001915303061","IA","110038888978","811121",41.63719,-93.61996,,"POF","Privately Owned Facility"
"ALLGOOD VETERINARY CLINIC","IA0000001905700004","IA","110001361124","541940",40.80392,-91.13946,,"POF","Privately Owned Facility"
"ALLIANCE GAS CO-SHENANDOAH","IA0000001914500040","IA","110043217989","424710",40.77105,-95.36611,,"POF","Privately Owned Facility"
"ALLIANCE MFG","IAPLK0001915300009","IA","110038927720","236210",41.5427434,-93.751089,,"POF","Privately Owned Facility"
"ALLIANCE PATTERNS INC","IA0000001911100147","IA","110001331309","331524",40.41237,-91.42951,,"POF","Privately Owned Facility"
"ALLIANCE PIPELINE LP","IA0000001905500057","IA","110011273004","486210",42.46915,-91.55145,,"POF","Privately Owned Facility"
"ALLIANT ENERGIES","IALIN0001911301000","IA","110038933562","999999",41.971536,-91.669891,,"POF","Privately Owned Facility"
"ALLIED CONSTRUCTION CO INC-CHARLES CITY","IA0000001977700720","IA","110005735865","327320",43.05753,-92.67256,,"POF","Privately Owned Facility"
"ALLIED CONSTRUCTION CO INC-CHARLES CITY","IA0000001906700091","IA","110010031161","212312 237990 327320 999999",43.055464,-92.682518,,"POF","Privately Owned Facility"
"ALLIED CONSTRUCTION CO INC-NEW HAVEN PLT","IA0000001913100031","IA","110007047436","327320",43.285355,-92.645698,,"POF","Privately Owned Facility"
"ALLIED CONSTRUCTION CO INC-ROCKFORD","IA0000001906700092","IA","110012151740","327320",43.05127,-92.957828,,"POF","Privately Owned Facility"
"ALLIED CONSTRUCTION CO.","IALIN0001911300845","IA","110010031161","212312 237990 327320 999999",43.055464,-92.682518,,"POF","Privately Owned Facility"
"ALLIED CONSTRUCTION COMPANY INC","IAPLK0001915300054","IA","110010031161","212312 237990 327320 999999",43.055464,-92.682518,,"POF","Privately Owned Facility"
"ALLIED MANATT","IA0000001977700502","IA","110010031161","212312 237990 327320 999999",43.055464,-92.682518,,"POF","Privately Owned Facility"
"ALLIED TIRE CO INC","IAPLK0001915303056","IA","110038888870","441310",41.65461,-93.59664,,"POF","Privately Owned Facility"
"ALMACO INC","IA0000001916900125","IA","110001329321","333111",42.02371,-93.4593,,"POF","Privately Owned Facility"
"ALS FULL SERVICE CITGO","IALIN00019113C0004","IA","110001761772","811111",41.9744,-91.71639,,"POF","Privately Owned Facility"
"ALTA MUNICIPAL UTILITIES","IA0000001902100052","IA","110001765171","221122",43.197292,-92.416865,,"CTG","Municipality"
"ALTEC OSCEOLA BODY PLANT","IA0000001903900013","IA","110000412802","811121",41.02528,-93.7832,46200,"POF","Privately Owned Facility"
"ALTER COMPANY","IAPLK00019153C0017","IA","110009362484","313310 999999",41.62776,-93.58802,,"POF","Privately Owned Facility"
"ALTER METAL RECYCLING","IAPLK0001915303065","IA","110009362484","313310 999999",41.62776,-93.58802,,"POF","Privately Owned Facility"
"ALTER METAL RECYCLING","IA0000001903300244","IA","110024523577","423930",43.15223,-93.240467,,"POF","Privately Owned Facility"
"ALTER METAL RECYCLING - CEDAR RAPIDS","0500000019113R5001","IA","110000789460","423930",41.91789,-91.6837,,,
"ALTER METAL RECYCLING - COUNCIL BLUFFS","IA0000001915500003","IA","110005744659","423930 624310",41.253418,-95.88359,,"POF","Privately Owned Facility"
"ALTER METAL RECYCLING - DAVENPORT","IA0000001916300004","IA","110005736043","423930",41.51271,-90.60789,,"POF","Privately Owned Facility"
"ALTER METAL RECYCLING - MASON CITY","IA0000001903300050","IA","110001324790","331492",43.131821,-93.221039,,"POF","Privately Owned Facility"
"ALTER SCRAP PROCESSING INC","IA0000001901300166","IA","110001410884","423930 999999",42.54472,-92.36828,,"POF","Privately Owned Facility"
"ALTER TRADING CORPORATION","IA00000019155C0009","IA","110005744659","423930 624310",41.253418,-95.88359,,"POF","Privately Owned Facility"
"ALTOONA, CITY OF","IAPLK0001915302110","IA","110001397756","921190",41.65859,-93.488987,,"CTG","Municipality"
"ALTOONA, CITY OF","IAPLK0001915302111","IA","110001397765","921190",41.648202,-93.468112,,"CTG","Municipality"
"ALTOONA, CITY OF","IAPLK0001915302077","IA","110056431703","221310",41.6434234,-93.4597029,,"CTG","Municipality"
"ALTOONA, CITY OF","IAPLK0001915302108","IA","110013091705","221310",41.64262,-93.48377,,"CTG","Municipality"
"ALTOONA, CITY OF","IAPLK0001915302109","IA","110001397738","924110",41.64938,-93.46458,,"CTG","Municipality"
"ALTORFER MACHINERY CO","IALIN00019113C0005","IA","110009363358","811310",41.95166,-91.67709,,"POF","Privately Owned Facility"
"ALTORFER MACHINERY COMPANY","IALIN0001911300506","IA","110009363358","811310",41.95166,-91.67709,,"POF","Privately Owned Facility"
"ALUMA MANUFACTURING","IA0000001914700056","IA","110001754860","333924",43.09623,-94.67886,,"POF","Privately Owned Facility"
"ALUMINUM FOUNDRY CORP","IA0000001913700050","IA","110038927560","331312",40.925506,-94.975754,,"POF","Privately Owned Facility"
"AMA CO DBA DUCHESS CLEANERS","IALIN0001911301187","IA","110005757635","812320",42.03329,-91.60257,,"POF","Privately Owned Facility"
"AMANA FARMS FEEDLOT","IA0000001909500070","IA","110037578813","112112",41.8057,-91.9637,,"POF","Privately Owned Facility"
"AMANA FURNITURE SHOP","IA0000001909500006","IA","110002319571","999999",41.798092,-91.865123,,"POF","Privately Owned Facility"
"AMANA SOCIETY INC-AMANA","IA0000001909500060","IA","110001330925","813910",41.796338,-91.865178,,"POF","Privately Owned Facility"
"AMANA SOCIETY INC-AMANA","IA0000001909500061","IA","110001761905","813910",41.7999,-91.87019,,"POF","Privately Owned Facility"
"AMANA SOCIETY INC-SOUTH AMANA","IA0000001909500062","IA","110001761996","813910",41.76609,-91.9678,,"POF","Privately Owned Facility"
"AMANA SOCIETY SERVICE CO","IA0000001909500063","IA","110001387909","221122",41.79917,-91.86206,,"CTG","Municipality"
"AMANA SOCIETY, INC. DBA CEDAR RAPIDS MIL","IALIN0001911301091","IA","110013339011","321918",42.04697,-91.69889,,"POF","Privately Owned Facility"
"AMAZON.COM SERVICE LLC - MLI1","IA0001900008201183","IA","110071201865","493110",41.606253,-90.60172,,"COR","Corporation"
"AMAZON.COM SERVICES LLC - OMA5","IA0001900007801133","IA","110071176690","493110",41.220258,-95.882767,,,
"AMAZON.COM SERVICES, INC.","IAPLK0001915303351","IA","110070815016","454110 493110",41.67296,-93.474163,,"COR","Corporation"
"AMAZON.COM SERVICES, LLC","IAPLK0001915302909","IA","110070936611","493110",41.671349,-93.566013,,"COR","Corporation"
"AMCOR FLEXIBLES NORTH AMERICA","IA0000001900700050","IA","110002077270","326111",40.7179,-92.86006,,"POF","Privately Owned Facility"
"AMCOR FLEXIBLES NORTH AMERICA, INC.","IAPLK0001915300010","IA","110041995188","326113",41.63772,-93.59787,,"POF","Privately Owned Facility"
"AMERICAN AND FOREIGN BODYWORKS","IAPLK0001915303075","IA","110001402429","811121",41.62068,-93.62241,,"POF","Privately Owned Facility"
"AMERICAN BATH GROUP","IA0000001917900066","IA","110000413491","326191",41.06094,-92.409598,6621,"POF","Privately Owned Facility"
"AMERICAN BOTTLING CO (CADBURY SCHWEPPES)","IA0000001917900096","IA","110033183409","312111",41.0443687,-92.4290605,,"POF","Privately Owned Facility"
"AMERICAN COLLOID CO-SHELL ROCK BLENDING","IA0000001902300115","IA","110055616454","212325",42.6776367,-92.6159105,,"POF","Privately Owned Facility"
"AMERICAN COLLOID CO-WATERLOO","IA0000001901300184","IA","110001388374","327992",42.487964,-92.320824,,"POF","Privately Owned Facility"
"AMERICAN CONCRETE PRODUCTS","IAPLK0001915300148","IA","110001360839","327320",41.60791,-93.58821,892,"POF","Privately Owned Facility"
"AMERICAN CONCRETE PRODUCTS","IAPLK0001915300015","IA","110001360713","327320",41.65498,-93.68303,,"POF","Privately Owned Facility"
"AMERICAN CONCRETE PRODUCTS INC","IA0000001902700080","IA","110013680409","327320",41.90916,-95.06792,,"POF","Privately Owned Facility"
"AMERICAN CONCRETE PRODUCTS INC","IA0000001918100101","IA","110001328616","327320",41.379845,-93.545149,,"POF","Privately Owned Facility"
"AMERICAN CONCRETE PRODUCTS INC","IA0000001908100047","IA","110043600225","327320",43.09731,-93.90451,,"POF","Privately Owned Facility"
"AMERICAN CONCRETE PRODUCTS INC","IA0000001918700180","IA","110007074156","327320",42.44294,-94.18408,,"POF","Privately Owned Facility"
"AMERICAN CONCRETE PRODUCTS INC","IA0000001904900148","IA","110033183249","327320",41.61542,-94.01507,,"POF","Privately Owned Facility"
"AMERICAN CONCRETE PRODUCTS INC","IA0000001904900156","IA","110001387865","327320",41.83716,-94.10465,,"POF","Privately Owned Facility"
"AMERICAN CONCRETE PRODUCTS INC","IA0000001904700050","IA","110013680383","327320",42.01123,-95.36304,,"POF","Privately Owned Facility"
"AMERICAN CONCRETE PRODUCTS INC","IA0000001915900016","IA","110001397667","327320",40.718151,-94.234991,,"POF","Privately Owned Facility"
"AMERICAN CONCRETE PRODUCTS INC","IA0000001914500034","IA","110021035155","327320",40.72545,-95.03223,134,"POF","Privately Owned Facility"
"AMERICAN CONCRETE PRODUCTS INC","IA0000001902100049","IA","110001323737","327320",42.64088,-95.17808,,"POF","Privately Owned Facility"
"AMERICAN CONCRETE PRODUCTS INC","IA0000001902100056","IA","110001389729","327320",42.7817,-94.946352,,"POF","Privately Owned Facility"
"AMERICAN CONCRETE PRODUCTS INC","IA0000001912100047","IA","110033183338","327320",41.34315,-94.00534,,"POF","Privately Owned Facility"
"AMERICAN CONCRETE PRODUCTS INC","IA0000001909900126","IA","110001328652","327320",41.828925,-93.152605,,"POF","Privately Owned Facility"
"AMERICAN CONCRETE PRODUCTS INC","IA0000001914500025","IA","110007048006","327320",40.7355276,-95.3469844,,"POF","Privately Owned Facility"
"AMERICAN CONCRETE PRODUCTS INC","IA0000001902500023","IA","110007075280","327320",42.3988,-94.643315,,"POF","Privately Owned Facility"
"AMERICAN CONCRETE PRODUCTS INC","IA0000001902900048","IA","110025317128","327320",41.40909,-95.02083,198,"POF","Privately Owned Facility"
"AMERICAN CONCRETE PRODUCTS INC","IA0000001919700071","IA","110001389765","327320",42.66198,-93.898413,,"POF","Privately Owned Facility"
"AMERICAN CONCRETE PRODUCTS INC","IA0000001914700068","IA","110030817542","327320",43.11203,-94.66327,,"POF","Privately Owned Facility"
"AMERICAN CONCRETE PRODUCTS INC","IA0000001910900100","IA","110001397649","327320",43.38033,-94.09365,,"POF","Privately Owned Facility"
"AMERICAN CONCRETE PRODUCTS INC","IA0000001909100078","IA","110038526538","327320",42.73232,-94.44901,,"POF","Privately Owned Facility"
"AMERICAN CONCRETE PRODUCTS INC","IA0000001913700062","IA","110040470709","327320",41.03031,-95.23294,,"POF","Privately Owned Facility"
"AMERICAN CONCRETE PRODUCTS INC","IA0000001907300038","IA","110001755921","327320",42.02609,-94.36995,,"POF","Privately Owned Facility"
"AMERICAN CONCRETE PRODUCTS INC","IA0000001901500133","IA","110044321418","327320",42.05705,-93.85587,,"POF","Privately Owned Facility"
"AMERICAN CONCRETE PRODUCTS INC","IA0000001902700079","IA","110013330421","327320",42.07846,-94.90756,,"POF","Privately Owned Facility"
"AMERICAN CONCRETE PRODUCTS INC","IA0000001907900055","IA","110007253998","327320",42.4453,-93.80791,,"POF","Privately Owned Facility"
"AMERICAN CONCRETE PRODUCTS INC","IA0000001907700006","IA","110043609912","327320",41.67633,-94.50678,,"POF","Privately Owned Facility"
"AMERICAN CONCRETE WEST","IAPLK0001915300040","IA","110038904399","327320",41.567419,-93.70496,,"POF","Privately Owned Facility"
"AMERICAN CONTRACT SYSTEMS INC","IAPLK0001915300022","IA","110031468329","561910",41.642411,-93.770798,,"POF","Privately Owned Facility"
"AMERICAN CRANE INC","IA0000001908100044","IA","110033183542","333924",43.1057,-93.61009,,"POF","Privately Owned Facility"
"AMERICAN FINISHING RESOURCES","IA0000001916300481","IA","110005778685","332813",41.65886,-90.56431,,"POF","Privately Owned Facility"
"AMERICAN HYDRAULICS, A DIVISION OF GUNDERSON RAIL SERVICES, LLC","IA0000001913700073","IA","110043089957","488210",41.03044,-95.23295,,"POF","Privately Owned Facility"
"AMERICAN INJECTION MOLDING","IA0000001906100295","IA","110030490546","325211",42.306865,-90.993728,,"POF","Privately Owned Facility"
"AMERICAN IOWA MFG INC","IA0000001906100267","IA","110033183347","333111",42.306856,-90.993723,,"POF","Privately Owned Facility"
"AMERICAN LASERARTS","IALIN0001911300508","IA","110038932607","999999",41.97103,-91.661188,,"POF","Privately Owned Facility"
"AMERICAN MEAT PROTEIN","IA0000001901900040","IA","110062687748","999999",42.472956,-92.06116,,"POF","Privately Owned Facility"
"AMERICAN NATURAL SOY PROCESSORS LLC","IA0000001903500087","IA","110038923056","311225",42.72053,-95.55388,,"POF","Privately Owned Facility"
"AMERICAN PACKAGING CORP","IA0000001916900118","IA","110025332058","323111",42.18809,-93.60211,1378,"POF","Privately Owned Facility"
"AMERICAN PATTERN & CNC WORKS INC","IA0000001901300251","IA","110001389872","331523",42.48919,-92.45102,,"POF","Privately Owned Facility"
"AMERICAN POPCORN CO","IA0000001919300025","IA","110001323372","311919",42.544432,-96.355224,,"POF","Privately Owned Facility"
"AMERICAN PROFOL","IALIN0001911300872","IA","110028014379","326113",41.93551,-91.63764,,"POF","Privately Owned Facility"
"AMERICAN PROTEIN CORP-ARION","IA0000001904700045","IA","110031514136","311224",41.978333,-95.43837,,"POF","Privately Owned Facility"
"AMERICAN RAILCAR COATINGS","IALIN0001911300952","IA","110038937096","336510",41.946903,-91.686404,,"POF","Privately Owned Facility"
"AMERICAN RECYCLING INC","IA0000001915500032","IA","110001327591","999999",41.26178,-95.86234,,"POF","Privately Owned Facility"
"AMERICAN RED CROSS","IAPLK0001915302013","IA","110001330701","923120",41.58442,-93.64534,,"FDF","Federal Facility (U.S. Government)"
"AMERICAN SOIL PROCES","IALIN0001911300900","IA","110038937069","999999",42.02898,-91.5743,,"POF","Privately Owned Facility"
"AMERICAN TOWER","IAPLK0001915302057","IA","110055576130","237130",41.59517,-93.68169,,"POF","Privately Owned Facility"
"AMERICAN TOWER","IAPLK0001915302074","IA","110061071183","517210",41.66538,-93.62063,,"POF","Privately Owned Facility"
"AMERICAN TOWER  DELAWARE CORPORATION","IAPLK0001915306118","IA","110071813282","517311",41.63028,-93.60057,,,
"AMERICAN TOWER ASSET SUB, LLC","IAPLK0001915306116","IA","110071767660","517311",41.616284,-93.646813,,,
"AMERICAN TOWER CORPORATION","IAPLK0001915302189","IA","110055573678","517210",41.606356,-93.377544,,"POF","Privately Owned Facility"
"AMERICAN TOWER CORPORATION","IAPLK0001915302058","IA","110055576112","237130",41.57929,-93.59552,,"POF","Privately Owned Facility"
"AMERICAN TOWER CORPORATION","IAPLK0001915302423","IA","110064450847","237130",41.88168,-93.67652,,"POF","Privately Owned Facility"
"AMERICAN TOWER CORPORATION","IAPLK0001915302017","IA","110010283843","515111",41.829746,-93.619714,,"POF","Privately Owned Facility"
"AMERICAN TOWER CORPORATION","IAPLK0001915302422","IA","110043576243","237130",41.6622,-93.52242,,"POF","Privately Owned Facility"
"AMERICAN TOWER CORPORATION","IAPLK0001915302059","IA","110055576103","237130",41.55,-93.61761,,"POF","Privately Owned Facility"
"AMERICAN TOWER DELAWARE CORPORATION","IAPLK0001915306218","IA","110072072060","517210",41.6919179,-93.8018399,,"COR","Corporation"
"AMERICAN WELDING & TANK CO","IA0000001905100010","IA","110018869214","332420",40.72602,-92.42564,,"POF","Privately Owned Facility"
"AMERICAN WOOD FIBERS","IA0000001912500070","IA","110001361348","999999",41.39722,-92.91217,,"POF","Privately Owned Facility"
"AMERICANA MFG CO INC","IA0000001914500033","IA","110017648900","332813",40.76947,-95.38191,,"POF","Privately Owned Facility"
"AMERICON DBA POLK COUNTY","IAPLK0001915300047","IA","110005980625","921190",41.66587,-93.6006,,"CNG","County Government"
"AMERIGAS","IALIN0001911300523","IA","110001763672","454310",41.96384,-91.67953,,"POF","Privately Owned Facility"
"AMERISTAR CASINOS INC","IA0000001915500329","IA","110001330854","999999",41.240308,-95.906733,,"POF","Privately Owned Facility"
"AMERITEC MACHINING INC","IA0000001903700061","IA","110001762931","811310",42.96556,-92.31467,,"POF","Privately Owned Facility"
"AMES FEED & SUPPLY INC","IA0000001916900154","IA","110011726739","999999",42.02244,-93.58505,,"POF","Privately Owned Facility"
"AMES LABORATORY DOE","IA0001900008501057","IA","110072155959","541710",42.0254944,-93.6275937,,,
"AMES LABORATORY-DOE-ISU-PAINT/AC SHOP &","IA0000001916900129","IA","110007048088","541711",42.034386,-93.58664,,"STF","State Government"
"AMES MUNICIPAL UTILITIES & COMBUST TURB","IA0000001916900015","IA","110038076453","221112",42.02535,-93.60784,,"CTG","Municipality"
"AMES WATER POLLUTION CONTROL FACILITY","IA0000001916900167","IA","110042330867","221320",41.955833,-93.555278,,"CTG","Municipality"
"AML RIVERSIDE","IA0000001918700055","IA","110000413464","325412",42.50813,-94.20036,,"POF","Privately Owned Facility"
"AMOCO BUDGET RENTAL","IAPLK0001915304040","IA","110038913414","221210",41.54819,-93.64787,,"POF","Privately Owned Facility"
"AMOCO MARKETING","IAPLK0001915304042","IA","110038913432","221210",41.62768,-93.56154,,"POF","Privately Owned Facility"
"AMOCO MARKETING ENVIRONMENTAL SERVICES","IAPLK0001915304041","IA","110038913423","221210",41.62062,-93.67336,,"POF","Privately Owned Facility"
"AMOCO MARKETING ENVIRONMENTAL SERVICES","IAPLK0001915304043","IA","110038916117","447190",41.5427434,-93.751089,,"POF","Privately Owned Facility"
"AMOCO OIL CO-DAVENPORT","IA0000001916300395","IA","110013334365","324110",41.46501,-90.67863,,"POF","Privately Owned Facility"
"AMOCO OIL COMPANY DES MOINES","IAPLK0001915304039","IA","110038913405","221210",41.5310429,-93.572356,,"POF","Privately Owned Facility"
"AMOCO PIPELINE COMPANY","IAPLK0001915304048","IA","110038916126","486210",41.55564,-93.76817,,"POF","Privately Owned Facility"
"AMSTED RAIL COMPANY, INC","IA0000001911100057","IA","110000415444","331513",40.425434,-91.422986,22547,"POF","Privately Owned Facility"
"AMVC VETERINARY SERVICES","IA0000001900900038","IA","110012712234","541940",41.73132,-94.93975,,"POF","Privately Owned Facility"
"ANAMOSA STATE PENITENTIARY","IA00000019105C0002","IA","110018865806","922140",42.111172,-91.289285,,"STF","State Government"
"ANAMOSA STATE PENITENTIARY-POWER PLANT","IA0000001910500018","IA","110018865806","922140",42.111172,-91.289285,,"STF","State Government"
"ANDERSON COLL. CENT.","IALIN0001911300522","IA","110001763663","811111 999999",41.96299,-91.74044,,"POF","Privately Owned Facility"
"ANDERSON ERICKSON DAIRY COMPANY","IAPLK0001915300025","IA","110000413151","311511",41.60089,-93.57379,20,"POF","Privately Owned Facility"
"ANDERSON ERICKSON FARMS MIX DIVISION","IAPLK0001915302001","IA","110011725758","424430",41.619193,-93.647847,,"POF","Privately Owned Facility"
"ANDERSON HEATING & COOLING","IA00000019193C0009","IA","110018855265","999999",42.54754,-96.25748,,"POF","Privately Owned Facility"
"ANDERSON STEEL COMPANY","IA00000019101C0008","IA","110015714538","999999",41.01006,-91.97236,,"POF","Privately Owned Facility"
"ANDERSON-PERASSO FUNERAL HOME","IA0000001919300613","IA","110001327822","999999",42.50074,-96.40046,,"POF","Privately Owned Facility"
"ANDREWS COLLISION CENTER","IALIN0001911300538","IA","110001763725","811121",41.97288,-91.66094,,"POF","Privately Owned Facility"
"ANDREWS PRESTRESSED CONCRETE INC","IA0000001903300005","IA","110011606850","327320",43.124782,-93.349566,,"POF","Privately Owned Facility"
"ANGEL AIRCRAFT/THE KINGS ENGINEERING","IA0000001916700083","IA","110001329394","999999",42.99073,-96.05955,,"POF","Privately Owned Facility"
"ANIMAL RESCUE LEAGUE OF IOWA INC","IAPLK0001915301000","IA","110001328395","812910",41.65965,-93.58125,,"POF","Privately Owned Facility"
"ANITA MUNICIPAL UTILITIES","IA0000001902900056","IA","110011565760","221112",41.44435,-94.76635,,"CTG","Municipality"
"ANKENY CLEANERS","IAPLK0001915304020","IA","110001361883","812320",41.725501,-93.600438,,"POF","Privately Owned Facility"
"ANKENY COLD STORAGE LLC","IAPLK0001915302634","IA","110001328233","493120",41.71577,-93.59302,,"POF","Privately Owned Facility"
"ANKENY CONCRETE BLOCK COMPANY","IAPLK0001915300030","IA","110036349573","324121",41.72442,-93.61573,,"POF","Privately Owned Facility"
"ANKENY FIRE DEPARTMENT","IAPLK0001915300128","IA","110005973704","922120",41.730634,-93.605951,,"CTG","Municipality"
"ANKENY FUNERAL HOME & CREMATORY","IAPLK0001915302018","IA","110012151973","812220",41.73186,-93.62091,,"POF","Privately Owned Facility"
"ANKENY GLASS, INC","IAPLK0001915301049","IA","110070262590","337110",41.675338,-93.593152,,"POF","Privately Owned Facility"
"ANKENY POLICE DEPARTMENT","IAPLK0001915300123","IA","110038040624","922120",41.724255,-93.60414,,"CTG","Municipality"
"ANKENY TRANSMISSIONS","IAPLK0001915301003","IA","110005759134","811113",41.72907,-93.6046,,"POF","Privately Owned Facility"
"ANKENY, CITY OF","IAPLK0001915300133","IA","110013091741","921110",41.73189,-93.6051,,"CTG","Municipality"
"ANKENY, CITY OF","IAPLK0001915300167","IA","110040494809","221320",41.76091,-93.57554,,"CTG","Municipality"
"ANKENY, CITY OF","IAPLK0001915300154","IA","110020751042","921110",41.735413,-93.640003,,"POF","Privately Owned Facility"
"ANKENY, CITY OF","IAPLK0001915300157","IA","110020751024","921110",41.69809,-93.61145,,"CTG","Municipality"
"ANKENY, CITY OF","IAPLK0001915300146","IA","110016690428","921190",41.71738,-93.59069,,"CTG","Municipality"
"ANKENY, CITY OF","IAPLK0001915302080","IA","110022310266","237310",41.70897,-93.59786,,"POF","Privately Owned Facility"
"ANKENY, CITY OF","IAPLK0001915300153","IA","110016690437","921190",41.676647,-93.581259,,"CTG","Municipality"
"ANNETT HOLDINGS, INC","IAPLK0001915304024","IA","110070029262","447110",41.66749,-93.58125,,"POF","Privately Owned Facility"
"ANNIS PETROLEUM PRODUCTS INC-WATERLOO","IA0000001901300297","IA","110043324088","424710",42.5480593,-92.2864305,,"POF","Privately Owned Facility"
"ANR PIPELINE CO-BIRMINGHAM (LICK CREEK)","IA0000001917700020","IA","110043797914","486210",40.901819,-91.967609,,"POF","Privately Owned Facility"
"ANR PIPELINE CO-LINEVILLE","IA0000001918500025","IA","110043797870","486210",40.630044,-93.540108,,"POF","Privately Owned Facility"
"APAC CUSTOMER SERVICES, INC.","IALIN0001911300953","IA","110002439585","561422",41.97572,-91.66561,,"POF","Privately Owned Facility"
"APAC TELESERVICES","IALIN0001911300935","IA","110038937087","999999",41.973,-91.672446,,"POF","Privately Owned Facility"
"APC DUBUQUE","IA0000001906100058","IA","110001360642","311119",42.470323,-90.662638,,"POF","Privately Owned Facility"
"APC EMMERT MANUFACTURING","IALIN1911300001356","IA","110070029279","332323",42.0654154,-91.5608529,,"POF","Privately Owned Facility"
"APC EMMERT MFG","IALIN0001911301186","IA","110039599262","332323",42.03197,-91.59226,,"POF","Privately Owned Facility"
"APE CONGNITION AND COMMUNICATION INSTITUTE","IAPLK0001915302134","IA","110033183533","541711",41.543922,-93.539282,,"POF","Privately Owned Facility"
"APEX CONCRETE-SOUTHGATE SUBDIVISION","IA0000001906100297","IA","110033183365","327320",42.47097,-91.18972,,"POF","Privately Owned Facility"
"APEX OIL","IAPLK0001915303124","IA","110036323234","447110",41.57693,-93.55829,,"POF","Privately Owned Facility"
"APPLE AUTO BODY","IAPLK0001915303080","IA","110001326798","811121",41.589769,-93.588411,,"POF","Privately Owned Facility"
"APPLIANCE BARN INC","IA00000019183C0003","IA","110007251749","443111",41.46364,-91.71467,,"POF","Privately Owned Facility"
"AQUILA INC","IA0000001915500315","IA","110038914315","211112",41.20414,-95.81825,,"POF","Privately Owned Facility"
"ARAMARK UNIFORM & CAREER APPAREL","IAPLK0001915300418","IA","110015911021","812332",41.617809,-93.581465,,"POF","Privately Owned Facility"
"ARAMARK UNIFORM SERVICES-SIOUX CITY","IA0000001919300659","IA","110005752587","812332",42.5184,-96.38031,,"POF","Privately Owned Facility"
"ARAMARK UNIFORM SERVICES-WATERLOO","IA0000001901300275","IA","110005752523","812332",42.496968,-92.317934,,"POF","Privately Owned Facility"
"ARATEX UNIFORM SERVICES","IAPLK0001915300417","IA","110009363296","812332",41.58637,-93.63164,,"POF","Privately Owned Facility"
"ARCH ALUMINUM & GLASS CO INC","IA0000001916300397","IA","110000415587","327215",41.55013,-90.44382,,"POF","Privately Owned Facility"
"ARCHER DANIELS MIDLAND DM SOYBEAN PLANT","IAPLK0001915300530","IA","110067425799","311224",41.626329,-93.583205,606536,"POF","Privately Owned Facility"
"ARCHER DANIELS MIDLAND-KEOKUK","IA0000001911100050","IA","110063194564","311211",40.41229,-91.42128,,"POF","Privately Owned Facility"
"ARCHITECTURAL ARTS NORTH","IA0000001914700063","IA","110031514305","337110",43.112646,-94.667028,,"POF","Privately Owned Facility"
"ARCHWAY COOKIES INC","IA0000001901500117","IA","110001330346","311821",42.06375,-93.84874,,"POF","Privately Owned Facility"
"ARCO DEHYDRATING CO INC","IA0000001905900020","IA","110031496316","311119",43.45444,-95.3271,,"POF","Privately Owned Facility"
"ARCONIC DAVENPORT, LLC","IA0000001916300010","IA","110000416005","332322",41.53115,-90.4682,62279,"POF","Privately Owned Facility"
"ARCOSA WIND TOWERS, INC.","IA0000001909900150","IA","110038904022","332312",41.71714,-93.04314,85643,"POF","Privately Owned Facility"
"AREA FAST LUBE","IAPLK0001915300178","IA","110001401064","811111",41.70647,-93.60058,,"POF","Privately Owned Facility"
"ARENSON CHEVY","IALIN0001911300601","IA","110038932750","999999",42.2018507,-91.7596502,,"POF","Privately Owned Facility"
"ARMOR EQUIPMENT","IAPLK0001915303570","IA","110001327528","562212",41.65317,-93.68191,,"POF","Privately Owned Facility"
"ARMOUR-ECKRICH BRANDED MEATS","IA0000001903300014","IA","110000528313","311612",43.13748,-93.25857,,"POF","Privately Owned Facility"
"ARNOLD MOTOR SUPPLY","IAPLK0001915303002","IA","110013666960","811118",41.73686,-93.60043,,"POF","Privately Owned Facility"
"ARNOLD'S BODY SHOP INC","IA0000001916300427","IA","110001756298","811121",41.557181,-90.586723,,"POF","Privately Owned Facility"
"ART'S-WAY VESSELS INC","IA0000001906100234","IA","110017877083","332420",42.49116,-90.7813,,"POF","Privately Owned Facility"
"ARTISTIC IRON WORKS","IAPLK0001915300052","IA","110001326529","332323",41.58148,-93.60979,,"POF","Privately Owned Facility"
"ARTISTIC MANUFACTURING CORPORATION","IAPLK0001915300051","IA","110010828827","332116",41.649445,-93.470761,,"POF","Privately Owned Facility"
"ARTS WAY MFG CO INC - ARMSTRONG","IA0000001906300056","IA","110000593527","333111",43.39367,-94.49127,,"POF","Privately Owned Facility"
"ARTS WAY MFG CO INC - WEST UNION","IA0000001906500056","IA","110011275084","333111",42.95405,-91.814216,,"POF","Privately Owned Facility"
"ASH GROVE CEMENT CO","IAPLK0001915300032","IA","110001360740","333120",41.58096,-93.5794,,"POF","Privately Owned Facility"
"ASHES TO ASHES PET CREMATION","IA0000001902500027","IA","110020900621","999999",42.63139,-94.67014,,"POF","Privately Owned Facility"
"ASHLEY INDUSTRIAL MOLDING INC","IA0000001906500053","IA","110039016775","326199",42.66431,-91.90905,5366,"POF","Privately Owned Facility"
"ASI SIGN SYSTEMS","IA0000001915700120","IA","110005769089","999999",41.71532,-92.72477,,"POF","Privately Owned Facility"
"ASPEN API INC","IA0000001919300640","IA","110000414249","325412",42.41214,-96.36975,,"POF","Privately Owned Facility"
"ASPINWALL COOPERATIVE CO","IA0000001904700055","IA","110043178236","424710",41.91301,-95.13563,,"POF","Privately Owned Facility"
"ASPLUND TREE EXPERT","IAPLK0001915300053","IA","110001326538","561730",41.6479,-93.59303,,"POF","Privately Owned Facility"
"ASPRO INC - NORTH PLANT","IA0000001901300288","IA","110033183230","324121",42.54136,-92.37871,,"POF","Privately Owned Facility"
"ASPRO INC - SOUTH PLANT","IA0000001901300287","IA","110012621341","324121",42.46213,-92.31352,,"POF","Privately Owned Facility"
"ASSOCIATED MATERIALS, INC","IALIN0001911300850","IA","110038936710","999999",41.935797,-91.71859,,"POF","Privately Owned Facility"
"ASSOCIATED MILK PRODUCERS INC-ARLINGTON","IA0000001906500007","IA","110000494215","311514",42.687439,-91.630518,,"POF","Privately Owned Facility"
"ASSOCIATED MILK PRODUCERS INC-MASON CITY","IA0000001903300016","IA","110001388588","311514",43.13393,-93.22194,,"POF","Privately Owned Facility"
"ASSOCIATED MILK PRODUCERS INC-SANBORN","IA0000001914100056","IA","110000494224","311513",43.18055,-95.65573,5,"POF","Privately Owned Facility"
"AT & T CORP","IAPLK0001915302236","IA","110070144332","517110",41.820573,-93.550938,,"COR","Corporation"
"ATC INC.","IALIN0001911301005","IA","110002082950","811121 999999",41.91434,-91.68243,,"POF","Privately Owned Facility"
"ATEK METAL TECHNOLOGIES, LLC","IA0000001903700067","IA","110024523586","331524",43.03191,-92.31658,3,"POF","Privately Owned Facility"
"ATLANTIC BOTTLING COMPANY","IAPLK0001915302177","IA","110042330849","531120",41.51944,-93.66385,,"POF","Privately Owned Facility"
"ATLANTIC MUNICIPAL UTILITIES","IA0000001902900005","IA","110002077181","221122",41.40798,-95.01403,,"CTG","Municipality"
"ATLANTIC RICHFIELD COMPANY","IAPLK0001915300014","IA","110038927739","562998",41.61039,-93.67252,,"POF","Privately Owned Facility"
"ATLAS ROOFING CORPORATION","IA0001900002301080","IA","110071655179","324122",41.88682,-90.18214,,,
"ATM TED'S BODY SHOP INC","IAPLK0001915303011","IA","110063225264","811121",41.64409,-93.47811,,"POF","Privately Owned Facility"
"ATM TED'S BODY SHOP, INC","IAPLK0001915303169","IA","110040826602","811121",41.67139,-93.47984,,"POF","Privately Owned Facility"
"AUDUBON COUNTY MEMORIAL HOSPITAL","IA0000001900900036","IA","110001755716","622110",41.71607,-94.93711,,"CNG","County Government"
"AUERON COMMUNICATIONS","IAPLK0001915301051","IA","110070740262","517311",41.58804,-93.6307,,"COR","Corporation"
"AUREON COMMUNICATIONS","IAPLK0001915302647","IA","110067574645","517210",41.585771,-93.625495,,"COR","Corporation"
"AUTEWUCCI WOODCRAFTERS","IAPLK0001915303062","IA","110038888987","321918",41.60638,-93.61497,,"POF","Privately Owned Facility"
"AUTO CARE LLC DBA MINOR WRECK EXPRESS","IAPLK0001915303078","IA","110043301101","811121",41.660767,-93.685079,,"POF","Privately Owned Facility"
"AUTO CRAFT UNLIMITED","IAPLK0001915303060","IA","110038888889","811121",41.64404,-93.612465,,"POF","Privately Owned Facility"
"AUTO MASTERS","IAPLK0001915303000","IA","110038888825","811121",41.642736,-93.629782,,"POF","Privately Owned Facility"
"AUTO RADIATOR INC.","IALIN0001911300507","IA","110038932590","999999",41.9659594,-91.5660542,,"POF","Privately Owned Facility"
"AUTO TRUCK SERVICE INC","IAPLK0001915303763","IA","110001402027","811121",41.63547,-93.60053,,"POF","Privately Owned Facility"
"AUTO. ENGINEERING","IALIN0001911300607","IA","110038935891","999999",41.8944135,-91.5702202,,"POF","Privately Owned Facility"
"AUTOCRAFTERS","IALIN0001911301114","IA","110022575701","811121",41.97243,-91.67163,,"POF","Privately Owned Facility"
"AUTOMATIC MACHINE PRODUCTS INC","IA0000001907900057","IA","110005774402","332721",42.4729,-93.85042,,"POF","Privately Owned Facility"
"AUTOMEND","IAPLK0001915303086","IA","110001401938","811121 811310",40.81791,-91.15671,,"POF","Privately Owned Facility"
"AUTOMOTIVE ELECTRIC","IA00000019013C0007","IA","110001362061","999999",42.49188,-92.3417,,"POF","Privately Owned Facility"
"AUTOMOTIVE ENGINE AND MACHINE","IA00000019013C0008","IA","110001362070","999999",42.51946,-92.34895,,"POF","Privately Owned Facility"
"AUTOMOTIVE FUEL SYSTEMS","IALIN0001911301140","IA","110022575710","811111",42.02634,-91.57243,,"POF","Privately Owned Facility"
"AVALON BODY SHOP INC","IA0000001906100253","IA","110006163640","811121",42.58442,-90.89113,,"POF","Privately Owned Facility"
"AVEKA MFG INC-FREDERICKSBURG","IA0000001903700063","IA","110011274904","311119",42.96724,-92.20099,,"POF","Privately Owned Facility"
"AVEKA NUTRA PROCESSING-WAUKON","IA0000001900500018","IA","110000414757","311423",43.258222,-91.462944,0,"POF","Privately Owned Facility"
"AVERA HOLY FAMILY HEALTH","IA0000001906300062","IA","110006625296","621111",43.40956,-94.83423,,"POF","Privately Owned Facility"
"AVG AUTOMATION/UTICOR TECHNOLOGY LP","IA0000001916300411","IA","110012705046","335314",41.56344,-90.51877,,"POF","Privately Owned Facility"
"AVIVA-WEST DES MOINES","IA0000001904900175","IA","110040632893","524113",41.56072,-93.81212,,"POF","Privately Owned Facility"
"AVIVA-WYNFIELD OFFICE LOCATION","IA0000001904900180","IA","110044321427","524113",41.58716,-93.81384,,"POF","Privately Owned Facility"
"AVOCA RED-E-MIX INC","IA0000001915500347","IA","110043975044","327320",41.47444,-95.33946,,"POF","Privately Owned Facility"
"AVON LAKE AUTO RECYCLING","IA00000019181C0002","IA","110013349554","811121",41.5167,-93.49825,,"POF","Privately Owned Facility"
"AXALTA COATING SYSTEMS LLC","IA0000001911100172","IA","110055435159","325510 325910",40.631667,-91.363611,11510,"POF","Privately Owned Facility"
"AYM INC-DIV OF A Y MCDONALD MFG CO","IA0000001913500025","IA","110010385252","332913",41.0111,-92.8099,39,"POF","Privately Owned Facility"
"AZTEC CONCRETE INC","IAPLK0001915300448","IA","110038876017","238110",41.60368,-93.61641,,"POF","Privately Owned Facility"
"B & G FOODS NORTH AMERICA, INC.","IAPLK0001915300511","IA","110011725829","311942",41.70832,-93.57426,,"COR","Corporation"
"B & H BUILDERS LLC","IA0000001910300171","IA","110043963397","236115",41.67333,-91.45346,,"POF","Privately Owned Facility"
"B & K AUTOMOTIVE","IA0000001901900050","IA","110001755814","811121",42.63924,-92.04392,,"POF","Privately Owned Facility"
"B G SALVAGE","IA0000001909700064","IA","110017648768","999999",42.09428,-90.68196,,"POF","Privately Owned Facility"
"B H AUTO BODY","IAPLK0001915303126","IA","110038889058","811121",41.657842,-93.697687,,"POF","Privately Owned Facility"
"BACON FUNERAL HOMES INC","IA0000001916900151","IA","110021035164","999999",42.01279,-93.43995,,"POF","Privately Owned Facility"
"BAE SYSTEMS","IALIN0001911301412","IA","110071219852","334511",41.903228,-91.676116,3,"POF","Privately Owned Facility"
"BAGCRAFT/PAPERCON","IA0000001911100152","IA","110006625232","322220",40.65753,-91.3185,,"POF","Privately Owned Facility"
"BAGGS DIESEL INC","IA00000019071C0001","IA","110001761754","999999",40.89075,-95.671148,,"POF","Privately Owned Facility"
"BAILEYS JUNKYARD","IA00000019037C0001","IA","110010694551","999999",43.067179,-92.535035,,"POF","Privately Owned Facility"
"BAKER ELECTRIC INC","IAPLK0001915302045","IA","110043324293","238210",41.57634,-93.61651,,"POF","Privately Owned Facility"
"BAKERY FEEDS-DIV OF GRIFFIN INDUST LLC","IA0000001913900013","IA","110000772058","311119",41.3719,-91.07599,,"POF","Privately Owned Facility"
"BAKERY TRADING CO","IA0000001917900094","IA","110030745424","311812",41.10558,-92.442523,,"POF","Privately Owned Facility"
"BALLENGER AUTOMOTIVE SERVICE","IA00000019155C0017","IA","110011730546","811111",41.262927,-95.842884,,"POF","Privately Owned Facility"
"BANCROFT MUNICIPAL ELECTRIC UTILITIES","IA0000001910900103","IA","110022697848","221112",43.293061,-94.21799,,"CTG","Municipality"
"BANDAG INC-PLANT #4","IA0000001913900130","IA","110001753923","326211",41.37245,-91.12483,,"POF","Privately Owned Facility"
"BANDAG INC-PLANT #5","IA0000001913900006","IA","110001753923","326211",41.37245,-91.12483,,"POF","Privately Owned Facility"
"BANDAG INC-R & D CENTER","IA0000001913900131","IA","110001329090","326211",41.37254,-91.1257,,"POF","Privately Owned Facility"
"BANDAG INC-TRAINING INSTITUTE","IA0000001913900132","IA","110007047908","326211",41.45439,-91.02814,,"POF","Privately Owned Facility"
"BANKERS TRUST","IAPLK0001915302033","IA","110038456426","522110",41.60046,-93.81417,,"POF","Privately Owned Facility"
"BANKERS TRUST COMPANY","IAPLK0001915303851","IA","110070684384","522110",41.587054,-93.626403,,"COR","Corporation"
"BAR B REPAIR SHOP LLC","IAPLK0001915300058","IA","110001756074","811111",41.629577,-93.780661,,"POF","Privately Owned Facility"
"BARD MATERIALS - ANAMOSA","IA0000001910500059","IA","110007251446","327320",42.10008,-91.25656,,"POF","Privately Owned Facility"
"BARD MATERIALS - BERNARD","IA0000001906100298","IA","110033183374","327320",42.33001,-90.81978,,"POF","Privately Owned Facility"
"BARD MATERIALS - CASCADE","IA0000001906100225","IA","110007250928","327320",42.294331,-91.01493,,"POF","Privately Owned Facility"
"BARD MATERIALS - CENTRAL CITY","IALIN0001911300075","IA","110007046339","327320",42.192932,-91.531725,,"POF","Privately Owned Facility"
"BARD MATERIALS - DYERSVILLE","IA0000001906100227","IA","110007250900","327320",42.49724,-91.16386,,"POF","Privately Owned Facility"
"BARD MATERIALS - DYERSVILLE","IA0000001977700507","IA","110007250900","327320",42.49724,-91.16386,,"POF","Privately Owned Facility"
"BARD MATERIALS - EPWORTH","IA0000001906100047","IA","110001325174","327320",42.4473,-90.93587,,"POF","Privately Owned Facility"
"BARD MATERIALS - GUTTENBERG","IA0000001904300040","IA","110010327930","327320",42.80971,-91.11751,,"POF","Privately Owned Facility"
"BARD MATERIALS - MANCHESTER","IA0000001905500047","IA","110043611419","327320",42.48086,-91.46215,,"POF","Privately Owned Facility"
"BARD MATERIALS - MONTICELLO","IA0000001910500040","IA","110001407460","327320",42.25931,-91.19272,,"POF","Privately Owned Facility"
"BARD MATERIALS - PEOSTA","IA0000001906100244","IA","110001329492","327320",42.48118,-90.78751,,"POF","Privately Owned Facility"
"BARD MATERIALS - STRAWBERRY POINT","IA0000001904300003","IA","110010328305","327320",42.68503,-91.54262,,"POF","Privately Owned Facility"
"BARD MATERIALS-MONTICELLO","IA0000001910500076","IA","110043576190","327320",42.25256,-91.194708,,"POF","Privately Owned Facility"
"BARILLA AMERICA","IA0000001916900134","IA","110012576523","311823",42.02292,-93.56536,,"POF","Privately Owned Facility"
"BARKER ENTERPRISES","IA00000019127C0002","IA","110001331381","999999",41.8779,-92.78783,,"POF","Privately Owned Facility"
"BARKER LAMAR ASSOCIATES INC","IAPLK0001915304065","IA","110038916144","562910",41.52893,-93.59813,,"POF","Privately Owned Facility"
"BARKER WIRE PRODUCTS INC","IA0000001917700036","IA","110011274824","999999",40.73106,-91.95513,,"POF","Privately Owned Facility"
"BARKLEY ASPHALT INC","IA0000001919300639","IA","110001360580","324121",42.49104,-96.3888,,"POF","Privately Owned Facility"
"BARKLEY ASPHALT INC","IA0000001919300686","IA","110046104498","324121",42.50655,-96.37821,,"POF","Privately Owned Facility"
"BARNES MAUACTURING SERVICES","IALIN0001911300645","IA","110001325646","332312",42.03203,-91.57919,,"POF","Privately Owned Facility"
"BARNSTEAD INTERNATIONAL","IA0000001906100220","IA","110001753558","339113",42.5293,-90.6485,,"POF","Privately Owned Facility"
"BARNYARD SCREEN PRINTER","IALIN0001911301063","IA","110002350189","323113",41.92078,-91.38395,,"POF","Privately Owned Facility"
"BARRETT PLATING INC","IAPLK0001915303145","IA","110017751770","332813",41.67019,-93.5838,,"POF","Privately Owned Facility"
"BARTLETT & CO.","IA0000001919300037","IA","110007047659","311211",42.554029,-96.340792,,"POF","Privately Owned Facility"
"BARTLETT GRAIN CO LP","IA0000001907100005","IA","110001325218","999999",40.59692,-95.65752,,"POF","Privately Owned Facility"
"BARTLETT GRAIN CO LP","IA0000001915500230","IA","110022406010","424510",41.271944,-95.859167,,"POF","Privately Owned Facility"
"BARTLETT GRAIN CO LP","IA0000001907100029","IA","110064140683","999999",40.603723,-95.654922,,"POF","Privately Owned Facility"
"BARTLETT GRAIN CO LP","IA0000001915500175","IA","110022406001","424510",41.23594,-95.84996,,"POF","Privately Owned Facility"
"BARTON SOLVENTS INC","IAPLK0001915300060","IA","110000412982","424690",41.645871,-93.587192,2982,"POF","Privately Owned Facility"
"BARTON SOLVENTS INC - BETTENDORF","IA0000001916300250","IA","110000415569","325510",41.52476,-90.48279,2450,"POF","Privately Owned Facility"
"BARTON SOLVENTS INC - COUNCIL BLUFFS","IA0000001915500030","IA","110000414445","424690",41.25288,-95.87648,8253,"POF","Privately Owned Facility"
"BASCOM TRUCK & AUTOMOTIVE INC","IAPLK0001915300065","IA","110012151900","811121",41.68113,-93.60063,,"POF","Privately Owned Facility"
"BASF CORP","IA0000001916900162","IA","110000412544","325510",42.02914,-93.58156,,"POF","Privately Owned Facility"
"BASF CORPORATION","IA0000001915700003","IA","110000593448","326211",41.70571,-92.55577,75,"POF","Privately Owned Facility"
"BATEY LTD","IA0000001908700063","IA","110012169303","321113",40.90095,-91.53614,,"POF","Privately Owned Facility"
"BAUER BUILT INC","IAPLK0001915300509","IA","110001754263","326212",41.622799,-93.554519,,"POF","Privately Owned Facility"
"BAUER BUILT MANUFACTURING ","IA00037-05-003","IA","110070683695","333120",42.16622,-94.24772,,"POF","Privately Owned Facility"
"BAUER BUILT TIRE CENTER","IALIN0001911300248","IA","110001407022","811111",41.921946,-91.676772,,"POF","Privately Owned Facility"
"BAUMGARTNER GATE FACTORY INC","IA0000001905500056","IA","110001389649","333111",42.48005,-91.4646,,"POF","Privately Owned Facility"
"BAY VALLEY FOODS LLC","IA0000001903700059","IA","110022474954","311511",43.06274,-92.33075,,"POF","Privately Owned Facility"
"BAYER CROPSCIENCE","IAPLK0001915300291","IA","110000413124","325320",41.589447,-93.55518,,"POF","Privately Owned Facility"
"BAYER CROPSCIENCE LP 3670/6908/6909","IA0000001913900045","IA","110018869474","325320 325998",41.350469,-91.081619,51802,"POF","Privately Owned Facility"
"BAYER IOWA PRODUCTION CO, LLC - CLARION","IA0000001919700050","IA","110001360562","115114",42.731797,-93.740437,,"POF","Privately Owned Facility"
"BAYER IOWA PRODUCTION CO, LLC - GRINNELL","IA0000001915700115","IA","110012151526","115114",41.74604,-92.64454,,"POF","Privately Owned Facility"
"BAYER PRODUCTION SUPPLY LLC - WILLIAMSBURG","IA0000001909500065","IA","110007058325","115112 115114",41.655184,-91.99801,,"POF","Privately Owned Facility"
"BAYER RESEARCH AND DEVELOPMENT SERVICES, LLC","IAPLK0001915302624","IA","110005777506","493110",41.69717,-93.57293,,"POF","Privately Owned Facility"
"BAZOOKA FARMSTAR INC","IA0000001918300038","IA","110001388150","333922",41.29815,-91.66689,,"POF","Privately Owned Facility"
"BB HOLDINGS","IAPLK0001915302132","IA","110041630152","611310",41.62949,-93.767003,,"STF","State Government"
"BB HOLDINGS","IAPLK0001915300532","IA","110067429287","423930",41.65849,-93.78421,,"POF","Privately Owned Facility"
"BB&P FEED & GRAIN INC","IA0000001912100003","IA","110007358322","493130",41.38096,-94.01312,,"POF","Privately Owned Facility"
"BC WOOD WASTE DISPOSAL","IAPLK0001915300802","IA","110064524750","238910",41.66587,-93.6006,,"POF","Privately Owned Facility"
"BEALS BROTHERS MFG INC","IAPLK0001915300033","IA","110038927757","624210",41.607621,-93.54731,,"POF","Privately Owned Facility"
"BEAMAN COOPERATIVE CO","IA0000001907500040","IA","110011452640","324110",42.21894,-92.82339,,"POF","Privately Owned Facility"
"BEAVERDALE LAUNDRY AND DRY CLEANING","IAPLK0001915304061","IA","110038916135","812310",41.61487,-93.677616,,"POF","Privately Owned Facility"
"BEAVERDALE SERVICE LC","IAPLK00019153C0002","IA","110001326734","811111",41.61487,-93.6782,,"POF","Privately Owned Facility"
"BECK'S HYBRIDS BEAMAN","IA0000001907500017","IA","110040469141","115114",42.22255,-92.8257,,"POF","Privately Owned Facility"
"BECK'S SUPERIOR HYBRIDS - MT PLEASANT","IA0000001908700065","IA","110024416014","115114",40.97092,-91.53337,,"POF","Privately Owned Facility"
"BECKER GRAVEL CO INC-FORT DODGE-PLANT #2","IA0000001977700678","IA","110008981441","212312",42.56522,-94.21707,,"POF","Privately Owned Facility"
"BECKER GRAVEL CO INC-SHEFFIELD-PLANT #1","IA0000001977700679","IA","110008988532","212312",42.81433,-93.22186,,"POF","Privately Owned Facility"
"BECKER GRAVEL CO INC-WOOLSTOCK-PLANT #3","IA0000001977700680","IA","110009012344","212312",42.57223,-93.87202,,"POF","Privately Owned Facility"
"BECKERS AUTO SALVAGE","IA00000019011C0001","IA","110064141897","999999",41.96438,-91.87073,,"POF","Privately Owned Facility"
"BECKS HYBRIDS-SOUTH PLANT","IA0000001902700012","IA","110064140193","111150",41.86985,-94.67614,,"POF","Privately Owned Facility"
"BEDROCK GRAVEL INC","IA0000001977700727","IA","110033183472","238910",42.210419,-95.43938,,"POF","Privately Owned Facility"
"BEE LINE CO","IA0000001916300421","IA","110001388105","333318",41.55057,-90.44603,,"POF","Privately Owned Facility"
"BEE LINES PRODUCTS","IALIN0001911300007","IA","110038936337","999999",41.936652,-91.659647,,"POF","Privately Owned Facility"
"BEEMER OIL CO","IA0000001917300029","IA","110040826648","424710",40.676715,-94.723501,,"POF","Privately Owned Facility"
"BEHNER FUNERAL HOME INC","IA0000001910100050","IA","110021035208","999999",41.00539,-91.9638,,"POF","Privately Owned Facility"
"BEISSER LUMBER COMPANY","IAPLK0001915300191","IA","110016690446","444190",41.65334,-93.78298,,"POF","Privately Owned Facility"
"BELL BROTHERS HEATING & AIR CONDITIONING","IAPLK00019153C0013","IA","110001755609","999999",41.620455,-93.624778,,"POF","Privately Owned Facility"
"BELL REAL ESTATE","IAPLK0001915303666","IA","110001765849","811121",41.621594,-93.62477,,"POF","Privately Owned Facility"
"BELL SALVAGE","IA00000019169C0004","IA","110001761594","999999",42.01798,-93.58938,,"POF","Privately Owned Facility"
"BELL'S COLLISION REPAIR","IA0000001910700038","IA","110028719368","811121",41.34525,-92.20902,,"POF","Privately Owned Facility"
"BELLEVUE MUNICIPAL UTILITIES","IA0000001909700005","IA","110022700530","221122",42.27419,-90.431055,,"CTG","Municipality"
"BELLEVUE SAND & GRAVEL","IA0000001909700061","IA","110007048211","212399 327320",42.286392,-90.43699,255,"POF","Privately Owned Facility"
"BELLEVUE SAND & GRAVEL ","IA000PP-207-000","IA","110007048211","212399 327320",42.286392,-90.43699,255,"POF","Privately Owned Facility"
"BELMOND F.GRAIN CO.","IA0000001919700017","IA","110010666733","999999",42.843023,-93.611617,,"POF","Privately Owned Facility"
"BELMOND MEDICAL CENTER","IA0000001919700082","IA","110011608322","622110",42.84501,-93.61256,,"POF","Privately Owned Facility"
"BEN SHINN TRUCKING INC","IA00000019125C0008","IA","110001761790","999999",41.31892,-93.08374,,"POF","Privately Owned Facility"
"BENCHMARK WOODWORKS INC","IA0000001902100051","IA","110001361874","999999",42.64443,-95.20391,,"POF","Privately Owned Facility"
"BENDER FOUNDRY SERVICE INC","IA0000001910700047","IA","110061062488","332999",41.3166227,-92.1913595,,"POF","Privately Owned Facility"
"BENEFICIAL TECHNOLOGIES LLC - CAMANCHE","IA0000001904500232","IA","110033138600","325320",41.75213,-90.3501,,"POF","Privately Owned Facility"
"BENEFICIAL TECHNOLOGIES LLC - GOOSE LAKE","IA0000001904500231","IA","110031468310","562213",41.978724,-90.368153,,"POF","Privately Owned Facility"
"BENSON MOTOR INC","IA00000019169C0005","IA","110001329580","441110 811121",42.008323,-93.610095,,"POF","Privately Owned Facility"
"BENSON MOTORS INC","IA0000001916900030","IA","110001329580","441110 811121",42.008323,-93.610095,,"POF","Privately Owned Facility"
"BENTON COUNTY SANITARY LANDFILL","IA0000001901100037","IA","110018866360","562212",41.87732,-92.101476,,"CNG","County Government"
"BENTON'S READY MIX CONCRETE INC","IA0000001977700790","IA","110001388365","327320",42.54351,-92.4508,,"POF","Privately Owned Facility"
"BENTON'S READY MIX CONCRETE INC","IA0000001977700802","IA","110046594011","327320",42.46881,-91.86938,,"POF","Privately Owned Facility"
"BENTON'S READY MIXED CONCRETE INC","IA0000001901300181","IA","110001388365","327320",42.54351,-92.4508,,"POF","Privately Owned Facility"
"BERGLAND SHEET METAL CONTRACTORS INC","IAPLK0001915300070","IA","110001400733","332321",41.62772,-93.75918,,"POF","Privately Owned Facility"
"BERGMANN SANDBLASTING & PAINTING","IA0000001902300103","IA","110040469249","332813",42.700638,-92.746835,,"POF","Privately Owned Facility"
"BERKLEY TECHNOLOGY SERVICES","IAPLK0001915302005","IA","110001397729","524210",41.63212,-93.76792,,"POF","Privately Owned Facility"
"BERNE COOP-ANTHON","IA0000001919300679","IA","110042330885","424510",42.38805,-95.86831,,"POF","Privately Owned Facility"
"BERNE COOP-IDA GROVE","IA0000001909300035","IA","110042261664","424710",42.34708,-95.47251,,"POF","Privately Owned Facility"
"BERNE COOP-MAPLETON","IA0000001913300041","IA","110042330821","424510",42.15836,-95.79132,,"POF","Privately Owned Facility"
"BERNE COOP-UTE","IA0000001913300040","IA","110042330812","424710",42.0423859,-95.6843875,,"POF","Privately Owned Facility"
"BERTCH CABINET MFG INC-JESUP","IA0000001901900052","IA","110001756430","337110",42.471133,-92.055656,,"POF","Privately Owned Facility"
"BERTCH CABINET MFG INC-WATERLOO","IA0000001901300104","IA","110000748371","337110",42.44777,-92.29905,23807,"POF","Privately Owned Facility"
"BERTCH CABINET MFG INC-WATERLOO (OASIS)","IA0000001901300279","IA","110020496729","326191",42.44776,-92.30023,,"POF","Privately Owned Facility"
"BERTCH CABINET, LLC-OELWEIN","IA0000001906500039","IA","110000413785","337110",42.663097,-91.90904,,"POF","Privately Owned Facility"
"BES PLANT #1","IA0001900008956156","IA","110071073156","327320",41.65087,-93.4694,,"POF","Privately Owned Facility"
"BESSER CO","IA0000001919300662","IA","110005738096","333120",42.497056,-96.426701,0,"POF","Privately Owned Facility"
"BESSER QUINN MACHINE & FOUNDRY INC","IA0000001901500060","IA","110021347327","331511",42.06798,-93.87039,0,"POF","Privately Owned Facility"
"BEST CLEANERS","IAPLK0001915304630","IA","110001754290","812320",41.59456,-93.74921,,"POF","Privately Owned Facility"
"BEST COB LLC","IA0000001901900011","IA","110001323835","115114",42.45798,-91.90742,,"POF","Privately Owned Facility"
"BEST DRY CLEANERS","IAPLK0001915304070","IA","110001400582","812320",41.643039,-93.466338,,"POF","Privately Owned Facility"
"BEST TRIP, INC.","IAPLK0001915301021","IA","110036300678","447110",41.57596,-93.61347,,"POF","Privately Owned Facility"
"BEST WESTERN BAVARIAN INN","IAPLK00019153C0025","IA","110001761816","999999",41.65545,-93.60054,,"POF","Privately Owned Facility"
"BEST WESTERN DES MOINES INTERNATIONAL","IAPLK00019153C0026","IA","110001761825","999999",41.52654,-93.64075,,"POF","Privately Owned Facility"
"BET LORD S AUTO BODY","IAPLK0001915303693","IA","110038889183","811121",41.65703,-93.62005,,"POF","Privately Owned Facility"
"BETCO CORP","IAPLK0001915300141","IA","110038905744","236220",41.56833,-93.645822,,"POF","Privately Owned Facility"
"BETHANY LIFE","IA0001900008503013","IA","110063239151","623311",42.18254,-93.59254,,"POF","Privately Owned Facility"
"BETTENDORF HEATING & AIR CONDITIONING","IA00000019163C0005","IA","110001761656","999999",41.52545,-90.50172,,"POF","Privately Owned Facility"
"BEZDEKS FLORIST","IALIN0001911300710","IA","110036268437","999999",42.03003,-91.61357,,"POF","Privately Owned Facility"
"BFC GAS & ELECTRIC","IALIN0001911300992","IA","110002076994","221122",41.93646,-91.65964,,"POF","Privately Owned Facility"
"BGK IOWA PROPERTIES MGMT INC","IAPLK0001915302608","IA","110038885141","531312",41.58526,-93.62438,,"POF","Privately Owned Facility"
"BICKEL MOTORS","IAPLK0001915303164","IA","110001766125","811121",41.644083,-93.571361,,"POF","Privately Owned Facility"
"BIERLEIN COMPANIES, INC","IA00019000PP239000","IA","110071468303","212319",41.961006,-92.580083,,,
"BIG RIGGER BUILDERS INC.","IALIN0001911301031","IA","110002010378","811121",41.928313,-91.781942,,"POF","Privately Owned Facility"
"BIG RIVER RESOURCES GRINNELL LLC","IA0000001915700124","IA","110028258506","325193",41.67077,-92.72716,,"POF","Privately Owned Facility"
"BIG RIVER UNITED ENERGY LLC-DYERSVILLE","IA0000001906100292","IA","110037386913","325193",42.486944,-91.163611,25633,"POF","Privately Owned Facility"
"BIG RIVER UNITED ENERGY LLC-W BURLINGTON","IA0000001905700136","IA","110014396858","325193",40.831538,-91.221183,26469,"POF","Privately Owned Facility"
"BIG SOO TERMINAL","IA0000001919300053","IA","110001323381","493110",42.43558,-96.37882,,"POF","Privately Owned Facility"
"BILLION COLLISION CENTER OF IOWA","IA0000001910300133","IA","110064141138","811121",41.634393,-91.563089,,"POF","Privately Owned Facility"
"BILLS FRAME & AIR","IA00000019139C0006","IA","110012151697","999999",41.40365,-91.06325,,"POF","Privately Owned Facility"
"BIMBO BAKERIES USA INC","IA0000001906100254","IA","110006840801","311812",42.49256,-90.66267,,"POF","Privately Owned Facility"
"BIMM RIDDER SPORTSWEAR","IALIN0001911301069","IA","110002350376","999999",41.96856,-91.65486,,"POF","Privately Owned Facility"
"BINBO BAKERIES INC","IA0000001919300644","IA","110013720456","311812",42.506536,-96.376018,,"POF","Privately Owned Facility"
"BINDERY 1","IAPLK0001915300114","IA","110045436088","323120",41.63679,-93.59345,,"POF","Privately Owned Facility"
"BIOLIFE PLASMA SERVICES","IAPLK0001915302597","IA","110071272546","621991",41.554023,-93.596804,,"COR","Corporation"
"BIOSPRINGER NORTH AMERICA CORPORATION","IALIN0001911301179","IA","110037596063","311999",41.91987,-91.68374,,"POF","Privately Owned Facility"
"BIRDNOW MOTOR TRADE","IA0000001906500055","IA","110043872315","811121",42.65807,-91.91361,,"POF","Privately Owned Facility"
"BITUMINOUS MATERIAL & SUPPLY LP","IAPLK0001915302020","IA","110010029174","324121",41.58455,-93.60213,,"POF","Privately Owned Facility"
"BITUMINOUS MATERIALS & SUPPLY LP","IA0000001917100005","IA","110001754726","324121",41.96063,-92.560101,0,"POF","Privately Owned Facility"
"BIX FURN. STRIPPING","IALIN0001911300603","IA","110038932769","999999",42.03236,-91.59314,,"POF","Privately Owned Facility"
"BLACK HAWK BODY SHOP","IA0000001901300242","IA","110006162366","811121",42.321598,-92.199794,,"POF","Privately Owned Facility"
"BLACK HAWK COUNTY SANITARY LANDFILL","IA0000001901300267","IA","110009362732","562212",42.41399,-92.32887,,"CTG","Municipality"
"BLACK HAWK RNG, LLC","IA0001009000701177","IA","110071498332","221210",42.41967,-92.337352,,,
"BLACK HILLS ENERGY - COUNCIL BLUFFS SERVICE CENTER","IA00078-01-129","IA","110070683961","221210",41.272939,-95.79414,,"POF","Privately Owned Facility"
"BLACKBIRD INVESTMENTS, LLC","IAPLK0001915302438","IA","110070604464","531120",41.5861,-93.62402,,"COR","Corporation"
"BLACKHAWK AUTOMATIC SPRINKLERS INC","IA0000001901300261","IA","110001330792","999999",42.52167,-92.44028,,"POF","Privately Owned Facility"
"BLACKHAWK FOUNDRY & MACHINE CO","IA0000001916300020","IA","110000415934","331511",41.516276,-90.621618,,"POF","Privately Owned Facility"
"BLACKTOP SERVICE CO-CORNING","IA0000001977700045","IA","110001962635","324121",41.116072,-94.735078,,"POF","Privately Owned Facility"
"BLACKTOP SERVICE CO-DAKOTA CITY","IA0000001909100079","IA","110010385671","324121",42.722185,-94.2009828,,"POF","Privately Owned Facility"
"BLACKTOP SERVICE CO-HUMBOLDT","IA0000001977700651","IA","110006363149","324121",42.72173,-94.21766,,"POF","Privately Owned Facility"
"BLACKTOP SERVICE CO-PLANT #5-ALLISON","IA0000001902300108","IA","110024825046","324121",42.74469,-92.79044,,"POF","Privately Owned Facility"
"BLACKTOP SERVICE CO-WHITTEMORE","IA0000001910900098","IA","110001330596","324121",43.06733,-94.41771,,"POF","Privately Owned Facility"
"BLACKTOP SERVICE CO. - MT ETNA","IA0009000000201019","IA","110001962635","324121",41.116072,-94.735078,,,
"BLAKE'S AUTO BODY & EXHAUST","IAPLK0001915303903","IA","110055559033","811121",41.60099,-93.56108,,"POF","Privately Owned Facility"
"BLAKESBURG OIL CO","IA0000001917900098","IA","110045324332","424710",40.95864,-92.63782,,"POF","Privately Owned Facility"
"BLAKLEY AUTO TRUCK","IAPLK0001915303166","IA","110038889076","811121",41.65289,-93.77136,,"POF","Privately Owned Facility"
"BLANK PARK ZOO","IAPLK0001915302011","IA","110005772262","712130",41.520295,-93.624632,,"CTG","Municipality"
"BLAST COATING TECHNOLOGIES, INC.","IALIN0001911300118","IA","110002085010","332312",41.95117,-91.68056,0,"POF","Privately Owned Facility"
"BLEND CONCRETE PLANT","IA0001900000221000","IA","110071084292","327320",41.65087,-93.4694,,"POF","Privately Owned Facility"
"BLENDED EQUIPMENT SOLUTIONS","IAPLK0001915302556","IA","110071084204","238910 327320",41.65087,-93.4694,,"POF","Privately Owned Facility"
"BLENDED EQUIPMENT SOLUTIONS - PLANT #2","IAPLK0001915306004","IA","110071442547","327320",41.65087,-93.4694,,"POF","Privately Owned Facility"
"BLENDED EQUIPMENT SOLUTIONS, LLC","IAPLK0001915302446","IA","110071084204","238910 327320",41.65087,-93.4694,,"POF","Privately Owned Facility"
"BLESSING INDUSTRIES INC-FAYETTE","IA0000001906500041","IA","110001389845","332312",42.8362,-91.79612,,"POF","Privately Owned Facility"
"BLOCHER BODY SERVICE","IAPLK0001915303168","IA","110038889085","811121",41.60767,-93.61528,,"POF","Privately Owned Facility"
"BLOCK READY MIX GROUP-BURLINGTON","IA0000001905700096","IA","110001960575","327320",40.803914,-91.102156,,"POF","Privately Owned Facility"
"BLOCK READY MIX GROUP-CAMANCHE","IA0000001904500117","IA","110010327921","327320",41.8910438,-90.2530047,,"POF","Privately Owned Facility"
"BLOCK READY MIX GROUP-DAVENPORT-PLANT #2","IA0000001916300404","IA","110044316488","327320",41.52351,-90.56656,,"POF","Privately Owned Facility"
"BLOCK READY MIX GROUP-ELDRIDGE","IA0000001916300454","IA","110036259116","327320",41.64012,-90.5794,,"POF","Privately Owned Facility"
"BLOCK READY MIX GROUP-MAQUOKETA","IA0000001909700045","IA","110001361179","327320",42.070949,-90.661726,,"POF","Privately Owned Facility"
"BLOOD CENTER OF IOWA","IAPLK0001915302022","IA","110036396968","621991",41.59674,-93.62687,,"POF","Privately Owned Facility"
"BLOOMFIELD FOUNDRY INC","IA0000001905100005","IA","110007044536","331511",40.744194,-92.427246,,"POF","Privately Owned Facility"
"BLUEBERRY PLASTIC MILL CORP","IAPLK0001915302012","IA","110038889281","326121",41.62772,-93.59708,,"POF","Privately Owned Facility"
"BLUESTEM SOLID WASTE AGENCY","IALIN00019113C0013","IA","110002439601","562212 999999",42.085004,-91.556144,,"POF","Privately Owned Facility"
"BLUESTEM SOLID WASTE AGENCY","IALIN00019113C0008","IA","110002439601","562212 999999",42.085004,-91.556144,,"POF","Privately Owned Facility"
"BLUESTEM SOLID WASTE AGENCY","IALIN00019113C0012","IA","110002439601","562212 999999",42.085004,-91.556144,,"POF","Privately Owned Facility"
"BLUFFS DODGE","IA00000019155C0015","IA","110001761932","441110",41.228984,-95.857274,,"POF","Privately Owned Facility"
"BLUM CO INC","IA0000001906100045","IA","110001325165","999999",42.50854,-90.66346,,"POF","Privately Owned Facility"
"BMC AGGREGATES LC-CRUSH PLT #1-FERTILE","IA0000001977700511","IA","110017741899","212319",43.27175,-93.43311,,"POF","Privately Owned Facility"
"BMC AGGREGATES LC-CRUSH PLT #2-WATERLOO","IA0000001977700528","IA","110017741906","212319",42.4175517,-92.3445722,,"POF","Privately Owned Facility"
"BMC AGGREGATES LC-CRUSH PLT #3-FERTILE","IA0000001977700672","IA","110017741899","212319",43.27175,-93.43311,,"POF","Privately Owned Facility"
"BMC AGGREGATES LC-WATERLOO","IA0000001901300100","IA","110001760684","212321",42.448249,-92.233943,,"POF","Privately Owned Facility"
"BMC AGGREGATES LC-WATERLOO SOUTH QUARRY","IA0000001901300225","IA","110001960753","212319",42.34995,-92.29858,,"POF","Privately Owned Facility"
"BOB BROWN CHEVROLET","IAPLK0001915303189","IA","110064139686","441110",41.62733,-93.77201,,"POF","Privately Owned Facility"
"BOB MICKEY COLLISION CENTER","IALIN0001911300526","IA","110001763681","811121",42.02655,-91.66781,,"POF","Privately Owned Facility"
"BOB'S FARM CENTER","IA0000001907500054","IA","110013335532","424710",42.22449,-92.8862,,"POF","Privately Owned Facility"
"BOBALEE HYDRAULICS INC","IA0000001915100040","IA","110013693039","333995",42.84782,-94.84145,,"POF","Privately Owned Facility"
"BOBS FEED & SUPPLY","IA0000001912700020","IA","110001763887","311211",42.04315,-92.88387,,"POF","Privately Owned Facility"
"BODINE ELECTRIC CO","IA0000001906100259","IA","110001331050","335312",42.44549,-90.8648,,"POF","Privately Owned Facility"
"BODY PARTS STORE, THE","IAPLK0001915300018","IA","110015656262","441310",41.65867,-93.58932,,"POF","Privately Owned Facility"
"BOGLER OIL CO","IA0000001916500029","IA","110040826611","424710",41.77371,-95.41919,,"POF","Privately Owned Facility"
"BOMBELA HOLDING COMPANINES, LLC DBA UNITED TRUCK & BODY","IAPLK0001915303869","IA","110010283790","811121",41.653652,-93.592562,,"POF","Privately Owned Facility"
"BOMGAARS","IA0000001914900031","IA","110007046945","444130",42.781656,-96.181534,,"POF","Privately Owned Facility"
"BONAPARTE","IA0000001917710001","IA","110007250580","999999",40.7023656,-91.7968473,,"POF","Privately Owned Facility"
"BONDED FIBERS QUILTING INC","IAPLK0001915300399","IA","110038875884","314999",41.62011,-93.621274,,"POF","Privately Owned Facility"
"BONDURANT FARRAR SCHOOLS","IAPLK0001915302399","IA","110038884909","611110",41.8422979,-93.3969075,,"DIS","District"
"BONEWITZ CHEMICALS","IA0000001905700005","IA","110011458109","324110",40.82718,-91.14139,,"POF","Privately Owned Facility"
"BOOMERANG CORP.","IA0009000000251000","IA","110071992732","237310",42.12481,-91.26295,,,
"BOONE AREA HUMANE SOCIETY","IA0000001901500111","IA","110001399941","999999",42.07195,-93.89576,,"POF","Privately Owned Facility"
"BOONE COUNTY HOSPITAL","IA0000001901500119","IA","110001763020","622110",42.055699,-93.877508,,"CNG","County Government"
"BOONE COUNTY SANITARY LANDFILL","IA0000001901500129","IA","110013926528","562212",42.02993,-93.91905,,"CTG","Municipality"
"BOONE TANNING CO","IA0000001901500118","IA","110001762833","316110",42.065668,-93.858421,,"POF","Privately Owned Facility"
"BOONE WATER WORKS","IA0000001901500125","IA","110028006752","221310",42.080722,-93.936937,,"CTG","Municipality"
"BORGEN SYSTEMS","IAPLK0001915300650","IA","110009362947","333415",41.56273,-93.64141,,"POF","Privately Owned Facility"
"BORGHI USA","IA0000001905700132","IA","110002350296","332813",40.80721,-91.16194,,"POF","Privately Owned Facility"
"BORLAUG SYSTEMS, INC.","IALIN0001911301002","IA","110038933571","999999",42.033471,-91.658276,,"POF","Privately Owned Facility"
"BORST UPHOLSTERING","IALIN0001911300568","IA","110001325717","811420",41.97837,-91.65199,,"POF","Privately Owned Facility"
"BOSSARD NORTH AMERICA","IA0000001901300304","IA","110061081092","423710",42.4791,-92.47849,,"POF","Privately Owned Facility"
"BOWIE INTERNATIONAL LLC","IA0000001902500021","IA","110000414356","336211",42.26383,-94.72654,18432,"POF","Privately Owned Facility"
"BOYER VALLEY ORGANIC PROTEIN","IA0000001904700009","IA","110002319553","311613",41.968647,-95.431153,,"POF","Privately Owned Facility"
"BOYER WATER TREATMENT PLANT","IA0009000008106008","IA","110071894113","221310",42.264948,-95.05276,,"CTG","Municipality"
"BP NUTRITION","IA0000001908300047","IA","110010337901","999999",42.510523,-93.2553151,,"POF","Privately Owned Facility"
"BP-DUBUQUE TERMINAL","IA0000001906100165","IA","110007357537","493190",42.5483229,-90.69367,,"POF","Privately Owned Facility"
"BRAD'S COLLISION CENTER INC","IAPLK0001915303087","IA","110064142253","811121",41.54148,-93.59683,,"POF","Privately Owned Facility"
"BRADS HOME REPAIR SERVICE","IAPLK00019153C0044","IA","110017344042","999999",41.6139,-93.69895,,"POF","Privately Owned Facility"
"BRAMMER CO LLC","IA0000001916300399","IA","110062729622","337110",41.54543,-90.61714,,"POF","Privately Owned Facility"
"BRAND FX BODY CO-POCAHONTAS","IA0000001915100038","IA","110005736855","336211",42.74833,-94.69586,17026,"POF","Privately Owned Facility"
"BRAND FX BODY CO-SWEA CITY","IA0000001910900025","IA","110000413614","336211",43.38496,-94.30839,16249,"POF","Privately Owned Facility"
"BRANDED APPAREL","IALIN0001911301070","IA","110006176119","323113",42.03659,-91.55777,,"POF","Privately Owned Facility"
"BRANDENBURG INDUSTRIAL SERVICE CO","IA0000001977700686","IA","110023148495","238910",41.51464,-90.60817,,"POF","Privately Owned Facility"
"BRANDON MATERIALS CO","IA0000001977700788","IA","110043700037","327320",43.5936541,-96.5870131,,"POF","Privately Owned Facility"
"BRAVA ROOF TILE","IA0001900009201024","IA","110071334885","326199",41.289331,-91.682907,,,
"BREDA READY MIX INC-BREDA","IA0000001902700083","IA","110022482400","327320",42.18209,-94.95594,,"POF","Privately Owned Facility"
"BREEDEN READY MIX","IAPLK0001915300112","IA","110038904576","327390",41.65127,-93.68075,,"POF","Privately Owned Facility"
"BRENNTAG GREAT LAKES LLC","IAPLK0001915300375","IA","110000413008","424690",41.65868,-93.5874,,"POF","Privately Owned Facility"
"BRICK S BODY  PAINT","IAPLK0001915303096","IA","110038889021","811121",41.6508,-93.46457,,"POF","Privately Owned Facility"
"BRIDGESTONE AMERICAS TIRE OPERATIONS","IAPLK0001915302014","IA","110015714565","326211",41.68047,-93.58843,,"POF","Privately Owned Facility"
"BRIDGESTONE AMERICAS TIRE OPERATIONS","IAPLK0001915300250","IA","110010507709","326211",41.64499,-93.62136,700,"POF","Privately Owned Facility"
"BRIGGER IRON & METAL","IA00000019197C0003","IA","110012620850","999999",42.73269,-93.72187,,"POF","Privately Owned Facility"
"BRIGGS MEDICAL SERVICE COMPANY","IAPLK0001915300335","IA","110001766223","423450",41.60156,-93.72642,,"POF","Privately Owned Facility"
"BRIGHTMARK BLACK SIOL RNG, LLC","IA0001900008410004","IA","110071141649","221210",42.938271,-95.873733,,"POF","Privately Owned Facility"
"BRIGHTMARK KIRKMAN RNG, LLC","IA0001900008211001","IA","110071141650","221210",41.70316,-95.23391,,,
"BRIGHTMARK LEGACY RNG, LLC","IA0000000197208001","IA","110071141644","221210",43.271403,-95.697572,,,
"BRIGHTMARK ROORDA RNG, LLC","IA0000000197103006","IA","110071141657","221210",42.982654,-95.775454,,,
"BRIGHTMARK VAN ESS RNG, LLC","IA0000000197104012","IA","110071141645","221210",43.214976,-95.604678,,,
"BRISLAWN AUTO BODY SHOP","IALIN0001911300627","IA","110001325557","811121",42.03395,-91.5573,,"POF","Privately Owned Facility"
"BRITT FARMERS COOP.","IA0000001908100004","IA","110013325268","999999",43.099645,-93.801892,,"POF","Privately Owned Facility"
"BRITT WATER TREATMENT PLANT","IA0009000004101018","IA","110071903178","221310",43.093277,-93.802031,,,
"BROADLAWNS MEDICAL CENTER","IAPLK0001915301046","IA","110014015813","622110",41.61508,-93.64249,,"CNG","County Government"
"BROADRIDGE FINANCIAL SOLUTIONS INC","IAPLK0001915302073","IA","110061071174","551114",41.644,-93.788209,,"POF","Privately Owned Facility"
"BRODY JUNIOR HIGH SCHOOL","IAPLK0001915301035","IA","110021933121","611110",41.55546,-93.65291,,"POF","Privately Owned Facility"
"BROIN & ASSOCIATES DBA SUMMIT ETHANOL","IA0000001909100075","IA","110018855210","325193",42.77183,-93.97669,,"POF","Privately Owned Facility"
"BROOKLYN ELEVATOR INC DBA VICTOR OIL","IA0000001909500073","IA","110043178254","424710",41.73294,-92.2988,,"POF","Privately Owned Facility"
"BROOKLYN ELEVATOR INC-BROOKLYN","IA0000001915700001","IA","110001327608","424510",41.728366,-92.446396,,"POF","Privately Owned Facility"
"BROOKLYN ELEVATOR INC-VICTOR","IA0000001909500018","IA","110001361240","424510",41.73219,-92.29986,,"POF","Privately Owned Facility"
"BROOKLYN MUNICIPAL UTILITIES-NORTH&SOUTH","IA0000001915700116","IA","110040470898","221122",41.72863,-92.44473,,"CTG","Municipality"
"BROOKS FUNERAL HOME CREMATION SOCIETY","IAPLK0001915301008","IA","110001330202","812220",41.71194,-93.5989,,"POF","Privately Owned Facility"
"BROOKWOOD INC","IA00000019099C0001","IA","110001756243","326199",41.72076,-93.05923,,"POF","Privately Owned Facility"
"BROTHERS AUTOMOTIVE","IALIN0001911301175","IA","110037596036","811121",42.03152,-91.59057,,"POF","Privately Owned Facility"
"BROWN BEAR CORP-BLUE GRASS INDL PARK","IA0000001900300023","IA","110007358563","333120",40.978679,-94.766083,,"POF","Privately Owned Facility"
"BROWN PROPERTIES, LLC","IAPLK0001915303132","IA","110036188817","447110",41.61244,-93.5911,,"COR","Corporation"
"BRUCE K BROWN","IA00000019001C0001","IA","110013330323","999999",41.3105,-94.45325,,"POF","Privately Owned Facility"
"BRUENING ROCK PRODUCTS INC-PLANT #1","IA0000001977700540","IA","110036306244","212312 212319",43.30127,-91.78587,,"POF","Privately Owned Facility"
"BRUENING ROCK PRODUCTS INC-PLANT #2","IA0000001977700541","IA","110036306244","212312 212319",43.30127,-91.78587,,"POF","Privately Owned Facility"
"BRUENING ROCK PRODUCTS INC-PLANT #3","IA0000001977700542","IA","110036306244","212312 212319",43.30127,-91.78587,,"POF","Privately Owned Facility"
"BRUENING ROCK PRODUCTS INC-PLANT #4","IA0000001977700756","IA","110038456970","212319",43.289982,-91.801336,,"POF","Privately Owned Facility"
"BRUENING ROCK PRODUCTS INC-PLANT #5","IA0000001977700757","IA","110038456970","212319",43.289982,-91.801336,,"POF","Privately Owned Facility"
"BRUENING ROCK PRODUCTS, INC.","IALIN0001911301065","IA","110036306244","212312 212319",43.30127,-91.78587,,"POF","Privately Owned Facility"
"BRUGGEMAN LUMBER INC","IA0000001905500049","IA","110001328625","113310",42.31769,-91.1865,,"POF","Privately Owned Facility"
"BUCHANAN COUNTY HEALTH CENTER","IA0000001901900064","IA","110011608484","622110",42.4688,-91.87502,,"CNG","County Government"
"BUCK'S AUTO RECYCLING","IA0000001919500042","IA","110033183267","999999",43.284148,-93.216991,,"POF","Privately Owned Facility"
"BUCKEYE TERMINALS LLC-BETTENDORF","IA0000001916300203","IA","110018868135","493110",41.52391,-90.48862,,"POF","Privately Owned Facility"
"BUCKEYE TERMINALS LLC-COUNCIL BLUFFS","IA0000001915500055","IA","110001754566","486210",41.217945,-95.828125,,"POF","Privately Owned Facility"
"BUCKEYE TERMINALS LLC-DES MOINES","IAPLK0001915303076","IA","110043601974","221210",41.60383,-93.73624,,"POF","Privately Owned Facility"
"BUCKEYE TERMINALS LLC-NORTH LIBERTY/CR","IA0000001910300001","IA","110018868439","424710",41.782349,-91.633411,,"POF","Privately Owned Facility"
"BUCKEYE TERMINALS LLC-OTTUMWA","IA0000001917900067","IA","110008998111","493110",41.01168,-92.48263,,"POF","Privately Owned Facility"
"BUCKS SOUTH DES MOINES AUTO BODY CO","IAPLK0001915303791","IA","110001402081","811121",41.541149,-93.596839,,"POF","Privately Owned Facility"
"BUD LEMKE MASONRY","IAPLK0001915303082","IA","110012597804","238140",41.66595,-93.69277,,"POF","Privately Owned Facility"
"BUD'S CUSTOM MEATS INC","IA0000001918300047","IA","110021035226","311611",41.4862,-91.55502,,"POF","Privately Owned Facility"
"BUDREAU VETERINARY CLINIC","IA0000001901300302","IA","110054888948","541940",42.500598,-92.465359,,"POF","Privately Owned Facility"
"BUESING'S IOWA GENERATOR","IALIN0001911301131","IA","110011719925","811111",41.94174,-91.66673,,"POF","Privately Owned Facility"
"BUFFALO BAY GRAIN INC.","IALIN0001911300837","IA","110001400350","999999",42.2801,-91.53379,,"POF","Privately Owned Facility"
"BUFFALO CENTR.F.COOP","IA0000001918900007","IA","110007081647","999999",43.38516,-93.94647,,"POF","Privately Owned Facility"
"BUFFALO OIL & AUTO","IALIN0001911300629","IA","110038936480","999999",42.275046,-91.529113,,"POF","Privately Owned Facility"
"BUFFALO RIDGE CONCRETE, INC","IA00019000PP255000","IA","IA00019000PP255000","327320",43.1913311,-95.4536321,,,
"BUICK GMC CADILLAC OF N. CEDAR RAPIDS","IALIN0001911300502","IA","110007079534","441110",42.049,-91.68497,,"POF","Privately Owned Facility"
"BUILDERS SAND & CEMENT CO - MAIN PLANT","IA0000001916300455","IA","110030745503","327320",41.50087,-90.62951,,"POF","Privately Owned Facility"
"BUILDERS SAND & CEMENT CO - RIVER PLANT","IA0000001916300442","IA","110013745475","327320",41.52252,-90.56554,,"POF","Privately Owned Facility"
"BUILDING PRODUCTS INC","IA0000001901300284","IA","110028006734","999999",42.4808,-92.28817,,"POF","Privately Owned Facility"
"BULK SERVICE NORTH","IAPLK0001915300113","IA","110001326547","493130",41.64414,-93.58626,,"POF","Privately Owned Facility"
"BULL MOOSE HHI DBA XL SPECIALIZED TRAILERS INC","IA0000001905500054","IA","110001398185","336212",42.47079,-91.45868,76,"POF","Privately Owned Facility"
"BUNGE CORP-COUNCIL BLUFFS (ELEVATOR A)","IA0000001915500245","IA","110001409468","424510",41.261111,-95.898333,,"POF","Privately Owned Facility"
"BUNGE CORP-COUNCIL BLUFFS (ELEVATOR B)","IA0000001915500242","IA","110001409468","424510",41.261111,-95.898333,,"POF","Privately Owned Facility"
