"AIRName","SourceID","AIRState","RegistryID","AIRNAICS","FacLat","FacLong","FacTRIAIRReleases","AIRFacilityTypeCode","AIRFacilityTypeDesc"
"139 CENTER ST ASSOC","CT0000000900300730","CT","110001758438","999999",41.67606,-72.9456,,"POF","Privately Owned Facility"
"35 GLOVER PARTNERS, LLC","CT0000900107564","CT","110063226655","561110",41.144779,-73.426292,,,
"375 FAIRFIELD AVE ASSOC","CT0000000900106534","CT","110001746923","531120",41.03777,-73.55128,,"POF","Privately Owned Facility"
"3M PURIFICATION INC.","CT0000000901300055","CT","110000315463","333999",41.94935,-72.30447,,"POF","Privately Owned Facility"
"A & D COMPONENTS, INC","CT0000000900300705","CT","110007246774","332611",41.677819,-72.903278,,"POF","Privately Owned Facility"
"A & W FURNITURE RESTORATION, INC","CT0000000900108898","CT","110001405970","811420",41.0442,-73.535983,,"POF","Privately Owned Facility"
"A AIUDI & SONS","CT0000000900307871","CT","110001731378","327320",41.73716,-72.72373,,"POF","Privately Owned Facility"
"A ANATASIO & SONS TRUCKING","CT0000000900908567","CT","110007242037","999999",41.32075,-72.89095,,"POF","Privately Owned Facility"
"A DUIE PYLE COMPANY","CT0000000900306490","CT","110037124661","999999",41.63959,-72.87744,,"POF","Privately Owned Facility"
"A E N ASPHALT, INC","CT0000000901105028","CT","110007247032","324121",41.587328,-72.156723,,"POF","Privately Owned Facility"
"A+ AUTO SERVICES","CT0000000900309265","CT","110007019378","811121",41.757996,-72.685283,,"POF","Privately Owned Facility"
"A-1 CHROME & POLISHING CORP","CT0000000900308999","CT","110001407004","332813",41.67429,-72.74912,,"POF","Privately Owned Facility"
"A-1 KARS","CT0000000900908722","CT","110001408058","999999",41.28532,-72.95318,,"POF","Privately Owned Facility"
"A.E.N. ASPHALT, INC.","CT0000000901105200","CT","110044123659","324121",41.57305,-72.13527,,,
"A.N. DESIGNS, INC.","CT0000000900504502","CT","110039132872","332212",41.87844,-73.06961,,"POF","Privately Owned Facility"
"AAA AUTO REPAIR","CT0000000900309192","CT","110001735123","811121",41.77641,-72.69186,,"POF","Privately Owned Facility"
"ABATE'S GULF","CT0000000900908701","CT","110001407727","999999",41.34084,-73.07317,,"POF","Privately Owned Facility"
"ABB BUSINESS SERVICES, INC","CT0000000900308965","CT","110001406639","334513",41.8655,-72.66616,,"POF","Privately Owned Facility"
"ABBOTT BALL CO","CT0000000900309056","CT","110000581629","332991",41.72892,-72.72635,0,"POF","Privately Owned Facility"
"ABBOTT R.V.T. SCHOOL, HENRY","CT0000000900108940","CT","110005285743","999999",41.41279,-73.45397,,"POF","Privately Owned Facility"
"ABC AUTO","CT0000000900309166","CT","110001734892","811111",41.65639,-72.86777,,"POF","Privately Owned Facility"
"ABCO REFRIDGERATION SUPPY CORPORATION","CT0000000900106901","CT","110027223494","999999",41.04323,-73.53219,,"POF","Privately Owned Facility"
"ACCESSORY CONTROL & EQUIP CORP","CT0000000900308413","CT","110001731467","336413",41.856751,-72.681385,,"POF","Privately Owned Facility"
"ACCO ALLISON-CAMPBELL DIV","CT0000000900105408","CT","110001729041","999999",41.26508,-73.13277,,"POF","Privately Owned Facility"
"ACCURATE BURRING CO, LLC","CT0000000900309009","CT","110005285789","333512",41.67141,-72.85499,,"POF","Privately Owned Facility"
"ACCURATE FORGING CORP","CT0000000900308981","CT","110000315052","332112",41.66841,-72.91471,,"POF","Privately Owned Facility"
"ACCURATE LOCK & HARDWARE CO","CT0000000900109080","CT","110007079776","999999",41.04754,-73.55804,,"POF","Privately Owned Facility"
"ACE AUTOBODY, INC","CT0000000900309179","CT","110001735301","811121",41.75815,-72.69247,,"POF","Privately Owned Facility"
"ACE CABINET CO","CT0000000900309114","CT","110002056435","337110",41.65815,-72.7694,,"POF","Privately Owned Facility"
"ACITRONICS","CT0000000900908620","CT","110001406782","332813",41.29234,-72.76322,,"POF","Privately Owned Facility"
"ACITRONICS INC","CT0000000900908642","CT","110001406782","332813",41.29234,-72.76322,,"POF","Privately Owned Facility"
"ACME ELECTRO-PLATING CO, INC","CT0000000900109066","CT","110000749548","332813",41.05368,-73.52491,,"POF","Privately Owned Facility"
"ACME MONACO CORPORATION","CT0000000900307575","CT","110016680475","332612",41.66387,-72.8204,,"POF","Privately Owned Facility"
"ACME PACKAGING CORP","CT0000000900308858","CT","110028003960","999999",41.669302,-72.805868,,"POF","Privately Owned Facility"
"ACME UNITED CORP","CT0000000900108840","CT","110000786702","332211",41.190204,-73.186543,,"POF","Privately Owned Facility"
"ACME WIRE PRODUCTS CO","CT0000000901105062","CT","110056926983","999999",41.355233,-71.963997,,"POF","Privately Owned Facility"
"ADCO SERVICES, INC","CT0000000900309258","CT","110003015488","332812",41.85759,-72.73155,,"POF","Privately Owned Facility"
"ADDISON CORPORATE CENTER","CT0000000900308851","CT","110070697437","524128",41.8645,-72.67774,,"POF","Privately Owned Facility"
"ADRIAEN'S LANDING UTILITY PLANT","CT00000009003E0008","CT","110031057353","221330",41.667811,-72.778299,,"POF","Privately Owned Facility"
"ADVANCE MOLD & MFG","CT0000000900309135","CT","110001748253","999999",41.8380902,-72.5778358,,"POF","Privately Owned Facility"
"ADVANCED ADHESIVE SYSTEMS","CT0000000900307788","CT","110002497218","325520",41.721652,-72.717014,107,"POF","Privately Owned Facility"
"ADVANCED AIR","CT0000000900106902","CT","110027223500","999999",41.0489,-73.51462,,"POF","Privately Owned Facility"
"ADVANCED AUTO CARE","CT00000009003CFC16","CT","110001735258","811111",41.73011,-72.72253,,"POF","Privately Owned Facility"
"ADVANCED COMPOSITE PRODUCTS","CT0000000901501136","CT","110001406167","326130",41.67829,-71.91493,,"POF","Privately Owned Facility"
"ADVANCED COMPOUNDING","CT0000000900908520","CT","110001405701","325991",41.556545,-72.908984,,"POF","Privately Owned Facility"
"ADVANCED GRAPHICS INC","CT0000000900108900","CT","110038658039","999999",41.182736,-73.155628,,"POF","Privately Owned Facility"
"ADVANCED GRAPHICS INC","CT0000000900107998","CT","110001758401","999999",41.17745,-73.15185,,"POF","Privately Owned Facility"
"ADVANCED GRAPHICS INC","CT0000000900108887","CT","110001405890","999999",41.17303,-73.14993,,"POF","Privately Owned Facility"
"ADVANCED GRAPHICS, INC","CT0000000900109152","CT","110001408860","332812",41.17077,-73.11684,,"POF","Privately Owned Facility"
"ADVANCED PRECISION CASTINGS CO","CT0000000900908660","CT","110001733562","331524",41.34937,-73.07712,,"POF","Privately Owned Facility"
"ADVANCED PRODUCTS CO","CT0000000900908608","CT","110000863478","339991",41.418,-72.845,,"POF","Privately Owned Facility"
"ADVANCED SPECIALTIES, LLC","CT0000000900509295","CT","110032963452","326199",41.57204,-73.10085,,"POF","Privately Owned Facility"
"ADVANCED TECHNOLOGY MATERIALS","CT0000000900109166","CT","110002333458","541711",41.40978,-73.41847,,"POF","Privately Owned Facility"
"AERO ALL-GAS CO","CT0000000900309039","CT","110007079598","999999",41.79445,-72.66425,,"POF","Privately Owned Facility"
"AERO GEAR, INC","CT0000000900308900","CT","110000863487","336412",41.879301,-72.704681,,"POF","Privately Owned Facility"
"AEROSPACE TECHNIQUES, INC","CT0000000900709132","CT","110000786784","336412",41.62019,-72.70355,,"POF","Privately Owned Facility"
"AEROSPACE TESTING LAB INC","CT0000000900308805","CT","110027373287","541380",41.824328,-72.605153,,"POF","Privately Owned Facility"
"AEROSPACE TESTING LABS, INC","CT0000000900309169","CT","110001408744","999999",41.812596,-72.652971,,"POF","Privately Owned Facility"
"AES THAMES, LLC","CT0000000901105023","CT","110000316015","221122",41.43574,-72.09798,,"POF","Privately Owned Facility"
"AETNA LIFE & CASUALTY CO","CT0000000900308895","CT","110002056444","531110",41.767801,-72.694427,,"POF","Privately Owned Facility"
"AETNA LIFE & CASUALTY CO","CT0000000900308986","CT","110001732830","524128",41.76382,-72.68887,,"POF","Privately Owned Facility"
"AETNA LIFE INSURANCE COMPANY","CT0000000900308445","CT","110001403936","524128",41.86527,-72.67831,,"POF","Privately Owned Facility"
"AETNA LIFE INSURANCE COMPANY","CT0000000900708844","CT","110001729942","524128",41.596053,-72.721364,,"POF","Privately Owned Facility"
"AETNA LIFE INSURANCE COMPANY","CT0000000900302920","CT","110001403801","524128",41.681821,-72.787918,,"POF","Privately Owned Facility"
"AGC, INC","CT0000000900901929","CT","110000316220","326299",41.51605,-72.83052,,"POF","Privately Owned Facility"
"AGI RUBBER COMPANY","CT0000000900100164","CT","110010383218","326299",41.179,-73.18489,,"POF","Privately Owned Facility"
"AGWAY, INC","CT0000000900309201","CT","110001735506","325314",41.7932,-72.53006,,"POF","Privately Owned Facility"
"AGWAY, INC","CT0000000901105021","CT","110038642298","999999",41.612677,-72.149035,,"POF","Privately Owned Facility"
"AHLSTROM DEXTER, LLC","CT0000000900300049","CT","110035879608","322121 999999",41.925261,-72.625905,31433,"POF","Privately Owned Facility"
"AHLSTROM DEXTER, LLC","CT0000000900309210","CT","110001735481","322291",41.933258,-72.666271,,"POF","Privately Owned Facility"
"AHLSTROM NONWOVENS, LLC","CT0000000900309144","CT","110035879608","322121 999999",41.925261,-72.625905,31433,"POF","Privately Owned Facility"
"AHLSTROM POWER WINDSOR LOCKS, LLC","CT0000000900309313","CT","110024519001","221112",41.930031,-72.62676,2826,"POF","Privately Owned Facility"
"AIG FINANCIAL PRODUCTS CORP","CT0000000900108921","CT","110001732420","999999",41.125388,-73.331617,,"POF","Privately Owned Facility"
"AIRGAS NORTHEAST","CT0000000900908782","CT","110001734972","999999",41.33805,-72.89788,,"POF","Privately Owned Facility"
"AIRWAY ELECTRIC CO","CT0000000900309113","CT","110001734222","237310",41.93304,-72.70783,,"POF","Privately Owned Facility"
"AIUDI & SONS, A","CT0000000900308859","CT","110007247050","327320",41.67905,-72.88518,,"POF","Privately Owned Facility"
"AIUDI CONCRETE, INC","CT0000000900709143","CT","110006176360","327320",41.290305,-72.445519,,"POF","Privately Owned Facility"
"AIUDI CT, LLC","CT0000000900308609","CT","110007246836","327320",41.740844,-72.853715,,"POF","Privately Owned Facility"
"AJ MANDI & SON, INC","CT0000000900109199","CT","110002353239","811121",41.04862,-73.52854,,"POF","Privately Owned Facility"
"ALBEA METAL AMERICAS INC.","CT0000000900508853","CT","110000317540","339993",41.6185,-73.08738,,"POF","Privately Owned Facility"
"ALBERTUS MAGNUS COLLEGE","CT0000000900903358","CT","110001404445","611310",41.33083,-72.92137,,"POF","Privately Owned Facility"
"ALCORT SAILBOATS INC","CT0000000900907064","CT","110001404659","336612",41.530677,-73.043323,,"POF","Privately Owned Facility"
"ALDEN O. SHERMAN CO., INC.","CT0000000900109219","CT","110062700983","336412",41.12938,-73.38525,,"POF","Privately Owned Facility"
"ALDERMAN-DOW IRON & METAL CO., INC.","CT0000000900902020","CT","110070690101","423510",41.30351,-72.90886,,"POF","Privately Owned Facility"
"ALDIN ASSOCIATES LIMITED PARTNERSHIP","CT0000000900109134","CT","110002005598","999999",41.37453,-73.42373,,"POF","Privately Owned Facility"
"ALDIN ASSOCIATES, LIMITED PARTNERSHIP","CT0000000901105120","CT","110001735800","999999",41.44113,-72.10597,,"POF","Privately Owned Facility"
"ALDIN ASSOCIATES, LIMITED PARTNERSHIP","CT0000000900908783","CT","110030426386","999999",41.53961,-72.81521,,"POF","Privately Owned Facility"
"ALEXION PHARMACEUTICALS, INC.","CT0000000900902007","CT","110056117642","541711",41.304738,-72.930606,,,
"ALFRED L. PIERCE GENERATING STATION","CT0000000900902235","CT","110007353773","221112 221122 999999",41.44856,-72.83351,,"POF","Privately Owned Facility"
"ALGONQUIN APARTMENTS","CT0000000900100298","CT","110001403213","531110",41.17837,-73.19625,,"POF","Privately Owned Facility"
"ALGONQUIN GAS TRANSMISSION LLC - OXFORD COMPRESSOR STATION","CT0000000900907823","CT","110038856752","486210",41.484373,-73.120623,,"POF","Privately Owned Facility"
"ALGONQUIN GAS TRANSMISSION LLC-CHESHIRE","CT0000000900907822","CT","110040491474","486210",41.5118273,-72.9036174,,"POF","Privately Owned Facility"
"ALGONQUIN GAS TRANSMISSION, LLC  - CROMWELL COMPRESSOR STATION","CT0000000900709105","CT","110000851267","486210",41.63214,-72.673458,,"POF","Privately Owned Facility"
"ALGONQUIN GAS TRANSMISSION, LLC - CHAPLIN COMPRESSOR STATION","CT0000000901501128","CT","110003005159","486210",41.819928,-72.156801,,"POF","Privately Owned Facility"
"ALIMAK ELEVATOR COMPANY","CT0000000900109043","CT","110002056453","333921",41.19374,-73.17312,,"POF","Privately Owned Facility"
"ALINABAL, INC","CT0000000900908706","CT","110000786980","332116",41.24158,-73.02607,,"POF","Privately Owned Facility"
"ALKON ELM STREET, LLC","CT0000000900302942","CT","110001403829","999999",41.76299,-72.67702,,"POF","Privately Owned Facility"
"ALL AMERICAN WASTE","CT00000009001E0002","CT","110042330590","562111",41.170278,-73.148264,,"POF","Privately Owned Facility"
"ALL AMERICAN WASTE","CT00000009009E0011","CT","110042330643","562111",41.363537,-72.922467,,"POF","Privately Owned Facility"
"ALL COAT ASSOCIATES","CT0000000900309271","CT","110012169045","999999",41.728778,-72.668363,,"POF","Privately Owned Facility"
"ALL STAR TRANSPORTATION","CT00000009005E0001","CT","110030360749","485113 485410",41.55238,-73.41142,,"POF","Privately Owned Facility"
"ALL WASTE INC","CT00000009003E0006","CT","110030343821","562111",41.73698,-72.65419,,"POF","Privately Owned Facility"
"ALL-STAR TRANSPORTATION, LLC","CT000000900500620","CT","110030360749","485113 485410",41.55238,-73.41142,,,
"ALL-STAR TRANSPORTATION, LLC","CT0000000900500620","CT","110030360749","485113 485410",41.55238,-73.41142,,,
"ALL-STAR TRANSPORTATION, LLC","CT0000000900109251","CT","110070162945","485113",41.44108,-73.40068,,"POF","Privately Owned Facility"
"ALLEGHENY LUDLUM CORP","CT0000000900905695","CT","110016680607","331221",41.53745,-73.03909,,"POF","Privately Owned Facility"
"ALLEGHENY LUDLUM CORPORATION","CT0000000900906505","CT","110040907203","331221",41.45405,-72.8345,,"POF","Privately Owned Facility"
"ALLIED CONTROLS","CT0000000900907080","CT","110001405621","335314",41.53704,-72.96825,,"POF","Privately Owned Facility"
"ALLIED METAL FINISHING,LLC","CT0000000900309172","CT","110001967453","332813",41.81015,-72.60555,,"POF","Privately Owned Facility"
"ALLIED METAL PRODUCTS, INC","CT0000000900300171","CT","110001758429","332721",41.63032,-72.75928,,"POF","Privately Owned Facility"
"ALLIED PLATERS INC","CT0000000900308998","CT","110055651619","332813",41.757999,-72.685417,,"POF","Privately Owned Facility"
"ALLIED PRINTING SERVICES, INC","CT0000000900308952","CT","110013397626","999999",41.79591,-72.54628,,"POF","Privately Owned Facility"
"ALLIED PRINTING SERVICES, INC","CT0000000900305034","CT","110001758517","999999",41.7811,-72.55087,,"POF","Privately Owned Facility"
"ALLIED SIGNAL AEROSPACE","CT0000000900508898","CT","110001734311","336412",41.68,-73.05693,,"POF","Privately Owned Facility"
"ALLIED SIGNAL DBA WEB TECHNOLOGIES","CT0000000900500001","CT","110000317390","336412",41.58656,-73.08314,,"POF","Privately Owned Facility"
"ALLNEX USA INC.","CT0000000900900063","CT","110050813978","325211",41.435,-72.836389,79643,"POF","Privately Owned Facility"
"ALLOY ENGINEERING COMPANY, INC.","CT0000000900109202","CT","110002353346","334513",41.16885,-73.16876,,"POF","Privately Owned Facility"
"ALLOYS INTERNATIONAL","CT0000000900908668","CT","110007242331","331112",41.557121,-73.048212,,"POF","Privately Owned Facility"
"ALLSTATE INSURANCE CO","CT0000000900302406","CT","110002442857","524128",41.71246,-72.79438,,"POF","Privately Owned Facility"
"ALLYNDALE LIMESTONE CORP","CT0000000900508854","CT","110001747414","212312",42.024461,-73.291043,,"POF","Privately Owned Facility"
"ALPHA PLATING AND FINISHING CO","CT0000000900309118","CT","110000761051","332813",41.669856,-72.877977,,"POF","Privately Owned Facility"
"ALPHABRODER DBA BRODER BROS.","CT0000000900109072","CT","110001407736","326191",41.19374,-73.17312,,"POF","Privately Owned Facility"
"ALSOP ENGINEERING CORP","CT0000000900380002","CT","110038660936","999999",41.5649900003891,-72.9059337771214,,"POF","Privately Owned Facility"
"ALSTOM - POWER PLANT LABORATORIES","CT0000000900300191","CT","110000610759","541330",41.87799,-72.71594,,"POF","Privately Owned Facility"
"ALTOBELLO YOUTH CENTER","CT0000000900902173","CT","110010383307","622210",41.55085,-72.81388,,"POF","Privately Owned Facility"
"ALTUGLAS INTERNATIONAL","CT0000000900300125","CT","110000315196","326113",41.63528,-72.75831,,"POF","Privately Owned Facility"
"ALUMINUM FINISHING CO, THE","CT0000000900109030","CT","110012809899","332813",41.167502,-73.21461,,"POF","Privately Owned Facility"
"AMENDOLA GENERAL WOODWORK CO","CT0000000900901401","CT","110001731555","238330",41.4078,-72.91116,,"POF","Privately Owned Facility"
"AMERADA HESS CORPORATION - NEW HAVEN","CT0000000900903379","CT","110000316845","424710",41.3031,-72.89837,,"POF","Privately Owned Facility"
"AMERBELLE TEXTILES LLC","CT0000000901300062","CT","110011369214","313311",41.867535,-72.442295,,"POF","Privately Owned Facility"
"AMERICAN AUTO BODY","CT0000000900109196","CT","110001409155","811121",41.12666,-73.39101,,"POF","Privately Owned Facility"
"AMERICAN AUTOMOTIVE SERVICE","CT0000000900309125","CT","110001734393","811121",41.731754,-72.71342,,"POF","Privately Owned Facility"
"AMERICAN COLLARS & COUPLINGS INC.","CT0000000900501245","CT","110039132863","332999",41.929301,-73.081557,,"POF","Privately Owned Facility"
"AMERICAN DESIGN & MFG, INC","CT0000000900308867","CT","110001967275","332312",41.84436,-72.59997,,"POF","Privately Owned Facility"
"AMERICAN DISTILLING & MFG CO, INC","CT0000000900709125","CT","110001408593","325411",41.58434,-72.50093,,"POF","Privately Owned Facility"
"AMERICAN ELECTRO PRODUCTS","CT0000000900909915","CT","110002332725","332813",41.56459,-73.05467,,"POF","Privately Owned Facility"
"AMERICAN ELECTRO PRODUCTS, INC.","CT0000000900908545","CT","110000317121","332813",41.58474,-73.04874,500,"POF","Privately Owned Facility"
"AMERICAN FABRICS CO","CT0000000900100171","CT","110007241350","999999",41.183206,-73.157986,,"POF","Privately Owned Facility"
"AMERICAN FINISHING SPECIALISTS, INC.","CT0000000900108986","CT","110011369072","332812",41.17961,-73.1559,,"POF","Privately Owned Facility"
"AMERICAN FROZEN FOODS INC","CT0000000900107974","CT","110001729309","331315",41.17137,-73.14081,,"POF","Privately Owned Facility"
"AMERICAN GRAFFITI RESTORATIONS","CT0000000900508932","CT","110001748510","811121",41.5928,-73.42503,,"POF","Privately Owned Facility"
"AMERICAN GREENFUELS, LLC","CT0000000900900925","CT","110069448725","325193",41.29006,-72.90289,5276,"POF","Privately Owned Facility"
"AMERICAN HEAT TREATING","CT0000000900109083","CT","110001734641","332811",41.34341,-73.2469,250,"POF","Privately Owned Facility"
"AMERICAN HOME PRODUCTS","CT0000000900909034","CT","110001730618","339112",41.581654,-73.065276,,"POF","Privately Owned Facility"
"AMERICAN IDUST FERROCAST, INC","CT0000000901105096","CT","110011369189","333516",41.384993,-71.83373,,"POF","Privately Owned Facility"
"AMERICAN INDUSTRIES, INC","CT0000000901105074","CT","110001406997","212321",41.62434,-71.97217,,"POF","Privately Owned Facility"
"AMERICAN LINEN SUPPLY CO","CT0000000900302978","CT","110016682794","812331",41.74207,-72.67246,,"POF","Privately Owned Facility"
"AMERICAN METASEAL OF CT, INC.","CT0000000900907532","CT","110033134356","999999",41.34366,-72.92659,,"POF","Privately Owned Facility"
"AMERICAN NATIONAL CAN CORP","CT0000000900100004","CT","110011371292","332431",41.38568,-73.42508,,"POF","Privately Owned Facility"
"AMERICAN ROLLER COMPANY","01000000E000000008","CT","110070361705","999999",41.56448,-73.0948,,,
"AMERICAN SAND & GRAVEL CO","CT0000000901100008","CT","110038642190","212321",41.5897876,-71.9483846,,"POF","Privately Owned Facility"
"AMERICAN SILK SCREENING","CT0000000900301565","CT","110039631949","323113",41.641103,-72.73497,,"POF","Privately Owned Facility"
"AMERICAN SLEEVE BEARING","CT0000000901300838","CT","110001731644","999999",41.95343,-72.30477,,"POF","Privately Owned Facility"
"AMERICAN SLEEVE BEARING","CT0000000901300813","CT","110001731644","999999",41.95343,-72.30477,,"POF","Privately Owned Facility"
"AMERICAN VELVET COMPANY","CT0000000901103218","CT","110011371746","313311",41.337592,-71.898625,,"POF","Privately Owned Facility"
"AMERICAN WIRE CORPORATION","CT0000000900104110","CT","110000316505","331319",41.4173,-73.29551,,"POF","Privately Owned Facility"
"AMERICAS STYRENICS, LLC","CT0000000901100101","CT","110000315864","325211",41.441954,-72.078853,,"POF","Privately Owned Facility"
"AMERITAGE CONSTRUCTION CORP","CT0000000900709141","CT","110007354059","212319",41.582631,-72.696718,,"POF","Privately Owned Facility"
"AMETEK, SPECIALTY METAL PRODUCTS","CT0000000900908836","CT","110000316667","331491",41.42904,-72.84005,42540,"POF","Privately Owned Facility"
"AMGRAPH PACKAGING, INC","CT0000000901103103","CT","110030397666","322212",41.595758,-72.044354,,"POF","Privately Owned Facility"
"AMGRAPH PACKAGING, INC.","CT0000000900500621","CT","110000865261","322212 334417",41.62244,-73.0878,,,
"AMPHENOL RF","CT0000000900102516","CT","110024836454","332721",41.40602,-73.42343,0,"POF","Privately Owned Facility"
"AMPHENOL RF OPERATIONS","CT0000000900102261","CT","110001403339","335313",41.400056,-73.457016,,"POF","Privately Owned Facility"
"ANAMET, INC","CT0000000900907026","CT","110001404613","332999",41.546363,-73.037898,,"POF","Privately Owned Facility"
"ANCHOR GLASS CONTAINER CORP","CT0000000901500041","CT","110001123016","327213",41.84418,-71.88222,,"POF","Privately Owned Facility"
"ANCO ENGINEERING, INC","CT0000000900108878","CT","110001747637","332322",41.28564,-73.10569,42,"POF","Privately Owned Facility"
"ANDERSEN GROUP","CT0000000900309205","CT","110001735622","999999",41.85295,-72.70291,,"POF","Privately Owned Facility"
"ANDRADE MOTORCAR, INC","CT0000000900908838","CT","110002009184","811121",41.28563,-72.95775,,"POF","Privately Owned Facility"
"ANGELICA HEALTH CARE SERVICES","CT0000000900909055","CT","110001730672","812331",41.2321,-73.05208,,"POF","Privately Owned Facility"
"ANOCOIL CORP","CT0000000901300832","CT","110002479915","332813",41.98589,-72.43278,,"POF","Privately Owned Facility"
"ANOCOIL CORPORATION","CT0000000901301219","CT","110000315374","332813",41.867646,-72.446305,,"POF","Privately Owned Facility"
"ANODIC, INC","CT0000000900109159","CT","110005967784","331316",41.358244,-73.194046,,"POF","Privately Owned Facility"
"ANSONIA COPPER & BRASS","CT0000000900907005","CT","110000317229","331421",41.546802,-73.043545,,"POF","Privately Owned Facility"
"ANSONIA COPPER & BRASS, INC","CT0000000900900067","CT","110000316051","331421",41.35053,-73.08159,,"POF","Privately Owned Facility"
"ANSONIA HIGH SCHOOL","CT0000000900908705","CT","110021682268","611110",41.34138,-73.08388,,"CTG","Municipality"
"ANSTRO MFG CO","CT0000000900908555","CT","110001405872","999999",41.58304,-72.99414,,"POF","Privately Owned Facility"
"ANTARES YALE AND TOWNE SPE, LLC","CT0000000900100186","CT","110001728774","531120",41.04625,-73.53683,,"POF","Privately Owned Facility"
"ANTHONY JULIAN CONSTRUCTION","CT0000000900109138","CT","110007242527","999999",41.184803,-73.1702,,"POF","Privately Owned Facility"
"ANTHONY JULIAN RAILROAD CONST","CT0000000900109069","CT","110010337885","999999",41.19959,-73.18961,,"POF","Privately Owned Facility"
"APACHE OIL COMPANY","CT0000000901105118","CT","110002005623","999999",41.36571,-72.10216,,"POF","Privately Owned Facility"
"APCO PRODUCTS, INC","CT0000000900700570","CT","110005967846","999999",41.348889,-72.406111,,"POF","Privately Owned Facility"
"APCO PRODUCTS, INC","CT0000000900701500","CT","110005967837","999999",41.348037,-72.412672,,"POF","Privately Owned Facility"
"APPLE AUTO BODY & TOWING","CT0000000900309198","CT","110001735141","811121",41.73787,-72.66979,,"POF","Privately Owned Facility"
"APS TECHNOLOGY","CT0000000900904871","CT","110058128146","333132",41.49006,-72.76538,,"POF","Privately Owned Facility"
"AQUA BLASTING CORP","CT0000000900309105","CT","110001734099","332813",41.85206,-72.70421,,"POF","Privately Owned Facility"
"AQUARION - MEANS BROOK PUMP STATION","CT0000000900108935","CT","110001732714","221310",41.319207,-73.157518,,"POF","Privately Owned Facility"
"AQUARION - NORTH STAMFORD PUMP STATION","CT0000000900108895","CT","110000513267","221310",41.13366,-73.535013,,"POF","Privately Owned Facility"
"AQUARION WATER CO- MIANUS","CT0000000900109245","CT","110067263650","221310",41.067483,-73.58025,,,
"AQUARION WATER CO-BRANCHVILLE","CT0000000900109248","CT","110067263598","221310",41.274732,-73.488792,,,
"AQUARION WATER CO. CANAL ST.","CT0000000900109249","CT","110067263623","221310",41.14744,-73.36391,,,
"AQUARION WATER CO. PUTNAM","CT0000000900109247","CT","110067263669","221310",41.08392,-73.63928,,,
"AQUARION WATER CO. SAMP MORTAR","CT0000000900109246","CT","110067263703","221310",41.202571,-73.267003,,,
"AQUARION WATER CO. SIMSBURY","CT0000000900300201","CT","110067263696","221310",41.862697,-72.840118,,,
"ARACE SCHOOL, CARMEN","CT0000000900300417","CT","110036042289","611110",41.82234,-72.71524,,"POF","Privately Owned Facility"
"ARCH CHEMICALS, INC","CT0000000900909058","CT","110000611231","541711",41.5498,-72.92038,,"POF","Privately Owned Facility"
"ARCHITECTURAL SUPPLEMENTS","CT0000000900902010","CT","110070740410","541310",41.530677,-73.043323,,,
"ARCHITECTURAL SUPPLEMENTS","CT0000000900100928","CT","110000763326","332996 999999",41.3931,-73.43538,,"POF","Privately Owned Facility"
"ARGO INDUSTRIES","CT0000000900300010","CT","110003005881","333414",41.634709,-72.736759,,"POF","Privately Owned Facility"
"ARKWRIGHT, INC","CT0000000900900040","CT","110000316177","325992",41.29836,-72.69654,,"POF","Privately Owned Facility"
"ARMOLOY OF CT, INC.","CT0000000900307878","CT","110011370426","332813",41.65013,-72.910186,0,"POF","Privately Owned Facility"
"ARMONK LIST CO","CT0000000900108929","CT","110062700885","999999",41.09621,-73.72196,,"POF","Privately Owned Facility"
"ARMSTRONG RUBBER CO","CT0000000900903334","CT","110001404436","326211",41.29601,-72.91806,,"POF","Privately Owned Facility"
"ARROW CONCRETE PRODUCTS, INC","CT0000000900908662","CT","110001733410","327331",41.23897,-73.09064,,"POF","Privately Owned Facility"
"ARROW DRIVE-IN CLEANERS","CT0000000900109016","CT","110001403507","812320",41.18461,-73.25626,,"POF","Privately Owned Facility"
"ART FORM, INC","CT0000000901105034","CT","110001405854","999999",41.534183,-72.088689,,"POF","Privately Owned Facility"
"ARTHUR ROTUNDA & SON CONSTRUCTION","CT0000000900109064","CT","110001733704","212321",41.15577,-73.2401,,"POF","Privately Owned Facility"
"ARTS CLEANERS & DYERS","CT0000000900909903","CT","110001730716","812320",41.538957,-72.810093,,"POF","Privately Owned Facility"
"AS YOU LIKE IT CLEANERS","CT0000000900902085","CT","110001405541","812320",41.533615,-72.791457,,"POF","Privately Owned Facility"
"AS-U-LIKE-IT CLEANERS","CT0000000900909913","CT","110002056462","812320",41.540562,-72.820744,,"POF","Privately Owned Facility"
"ASAL, HOWARD","CT0000000900309176","CT","110001407353","999999",41.7205,-72.7184,,"POF","Privately Owned Facility"
"ASCOM HASLER MAILING SYSTEMS","CT0000000900109157","CT","110001735560","999999",41.28659,-73.107833,,"POF","Privately Owned Facility"
"ASHCROFT, INC.","CT0000000900107962","CT","110000610973","334513",41.20392,-73.11819,0,"POF","Privately Owned Facility"
"ASHLEY CLEANERS & TAILORS","CT0000000900309030","CT","110001733143","812320",41.77436,-72.69185,,"POF","Privately Owned Facility"
"ASML US, LP","CT0000000900108820","CT","110009128951","333314",41.17191,-73.41648,0,"POF","Privately Owned Facility"
"ASSOCIATED SPRING CORPORATION","CT0000000900308968","CT","110000315105","332611",41.66829,-72.94326,,"POF","Privately Owned Facility"
"ASTIR PROPERTY HOLDING","CT0000000900309173","CT","110001408833","524128",41.80671,-72.8349,,"POF","Privately Owned Facility"
"ASTROSEAL PRODUCTS MANUFACTURING CORP","CT0000000900706412","CT","110015845567","332999",41.380026,-72.509003,,"POF","Privately Owned Facility"
"AT&T","CT0000000900108891","CT","110002056417","999999",41.1764,-73.19613,,"POF","Privately Owned Facility"
"AT&T CORP.","CT0000000900908585","CT","110001732590","999999",41.48835,-72.92815,,"POF","Privately Owned Facility"
"ATA STEEL CORP","CT0000000900109254","CT","110071909952","331110",41.16304,-73.20761,,,
"ATLANTIC CUSTOM FINISHES","CT0000000900308955","CT","110038660909","999999",41.78421,-72.62806,,"POF","Privately Owned Facility"
"ATLANTIC DYEING & FINISHING","CT0000000900108836","CT","110001729149","313311",41.13279,-73.42607,,"POF","Privately Owned Facility"
"ATLANTIC PACKAGING GROUP LLC","CT0000000901102342","CT","110028645376","322211",41.53193,-72.05637,,"POF","Privately Owned Facility"
"ATLANTIC PIPE CORP","CT0000000900309203","CT","110001735524","999999",41.67275,-72.87607,,"POF","Privately Owned Facility"
"ATLANTIC WIRE COMPANY, LLC","CT0000000900900401","CT","110000730969","331222",41.27745,-72.8094,,"POF","Privately Owned Facility"
"ATLAS CONTAINER, LLC","CT0000000900907519","CT","110021158398","322211",41.57321,-72.78013,,"POF","Privately Owned Facility"
"ATLAS FENCE COMPANY","CT0000000900908697","CT","110001407674","999999",41.299911,-72.769923,,"POF","Privately Owned Facility"
"ATLAS METAL WORKS LLC","CT0000000900309092","CT","110001733884","332312",41.83707,-72.60686,,"POF","Privately Owned Facility"
"ATLAS METAL WORKS, LLC","CT0000000900309251","CT","110005988636","332312",41.853974,-72.588907,,"POF","Privately Owned Facility"
"ATLAS OIL CO","CT0000000900309164","CT","110001734810","454311",41.780375,-72.6239448,,"POF","Privately Owned Facility"
"ATLAS PIPE & TUBE CO","CT0000000900908856","CT","110002351758","331210",41.28298,-72.94498,,"POF","Privately Owned Facility"
"ATWOOD'S AUTO APPEARANCE, INC","CT0000000900709124","CT","110001408575","811121",41.374301,-72.430572,,"POF","Privately Owned Facility"
"AUDI-WORLD","CT0000000901105068","CT","110002010699","811121",41.4670942,-72.1893969,,"POF","Privately Owned Facility"
"AUTO CRAFT AUTO BODY","CT0000000900908832","CT","110001748413","811121",41.574326,-73.051686,,"POF","Privately Owned Facility"
"AUTO SWAGE PRODUCTS, INC","CT0000000900104162","CT","110000611124","332116",41.26943,-73.09172,,"POF","Privately Owned Facility"
"AUTO WORLD AUTO SUPERSTORE","CT0000000900309185","CT","110001735365","811121",41.78849,-72.66036,,"POF","Privately Owned Facility"
"AUTOBODY FACILITIES","CT00000009013AUTOB","CT","110010383370","441110 811121",41.5797842,-72.7466666,,"POF","Privately Owned Facility"
"AUTOBODY FACILITIES","CT00000009009AUTOB","CT","110010383370","441110 811121",41.5797842,-72.7466666,,"POF","Privately Owned Facility"
"AUTOBODY FACILITIES","CT00000009011AUTOB","CT","110010383370","441110 811121",41.5797842,-72.7466666,,"POF","Privately Owned Facility"
"AUTOBODY FACILITIES","CT00000009003AUTOB","CT","110010383370","441110 811121",41.5797842,-72.7466666,,"POF","Privately Owned Facility"
"AUTOBODY FACILITIES","CT00000009007AUTOB","CT","110010383370","441110 811121",41.5797842,-72.7466666,,"POF","Privately Owned Facility"
"AUTOBODY FACILITIES","CT00000009015AUTOB","CT","110010383370","441110 811121",41.5797842,-72.7466666,,"POF","Privately Owned Facility"
"AUTOBODY FACILITIES","CT00000009005AUTOB","CT","110010383370","441110 811121",41.5797842,-72.7466666,,"POF","Privately Owned Facility"
"AUTOBODY FACILITIES","CT00000009001AUTOB","CT","110010383370","441110 811121",41.5797842,-72.7466666,,"POF","Privately Owned Facility"
"AUTOMATED WASTE DISPOSAL, INC","CT0000000900109097","CT","110001407969","999999",41.399353,-73.432916,,"POF","Privately Owned Facility"
"AUTOMATIC PLATING OF BRIDGEPORT INC","CT0000000900108933","CT","110000317087","332813",41.20035,-73.17548,,"POF","Privately Owned Facility"
"AUTOMATIC ROLLS OF NEW ENGLAND","CT0000000901502795","CT","110018915263","311812",41.86652,-71.90292,,"POF","Privately Owned Facility"
"AUTOWORKS UNLIMITED","CT0000000900508928","CT","110010337938","811121",41.771471,-73.118569,,"POF","Privately Owned Facility"
"AUTUMN TRANSPORTATION INC.","CT0000000900300206","CT","110071251424","485113",41.792919,-72.66771,,"POF","Privately Owned Facility"
"AVENUE AUTO BODY","CT0000000900908839","CT","110001748592","811121",41.489135,-73.068125,,"POF","Privately Owned Facility"
"AVERY ABRASIVES, INC","CT0000000900108960","CT","110001732812","327910",41.230944,-73.195507,,"POF","Privately Owned Facility"
"AVIS RENT CAR SYSTEMS, INC","CT0000000900309063","CT","110007242368","532111",41.9277901,-72.6516158,,"POF","Privately Owned Facility"
"AVON MANUFACTURING","CT0000000900300031","CT","110001758410","332322",41.80104,-72.83394,,"POF","Privately Owned Facility"
"B & B GROUP CO","CT0000000900508884","CT","110007252533","999999",41.87123,-73.08144,,"POF","Privately Owned Facility"
"B & C FINISHING","CT0000000900309096","CT","110002056471","337110",41.65218,-72.91414,,"POF","Privately Owned Facility"
"B & J ELEC MOTOR REPAIR CO","CT0000000900908712","CT","110001748191","335312",41.34609,-73.08437,,"POF","Privately Owned Facility"
"B & L FINISHING SHOP","CT0000000900300867","CT","110002056471","337110",41.65218,-72.91414,,"POF","Privately Owned Facility"
"B & L FINISHING SHOP, INC","CT0000000900309071","CT","110002056480","999999",41.649762,-72.910472,,"POF","Privately Owned Facility"
"B & M TRANSMISSION & AUTO SERVICE","CT0000000900908718","CT","110001733919","811121",41.554,-73.03014,,"POF","Privately Owned Facility"
"B H C COMPANY","CT0000000900108942","CT","110001747799","221310",41.243709,-73.253019,,"POF","Privately Owned Facility"
"B M I, INC","CT0000000900508870","CT","110002056499","999999",41.66935,-73.07774,,"POF","Privately Owned Facility"
"B/E AEROSPACE INC","CT0000000900500464","CT","110000610615","336413",41.724497,-73.226317,,"POF","Privately Owned Facility"
"BACKUS CORP","CT0000000901105031","CT","110001405667","999999",41.52444,-72.07524,,"POF","Privately Owned Facility"
"BACON ACADEMY HIGH SCHOOL","CT0000000901100103","CT","110021651069","611110",41.57472,-72.30142,,"CTG","Municipality"
"BAE SYSTEMS INERTIAL PRODUCTS","CT0000000900909916","CT","110016680206","334511",41.55188,-72.91815,,"POF","Privately Owned Facility"
"BALDOR/BOEHM CO","CT0000000900500649","CT","110001731485","335312",41.55782,-73.41012,,"POF","Privately Owned Facility"
"BALL AND SOCKET MFG CO OF DE","CT0000000900900702","CT","110011371112","339993",41.50768,-72.91264,,"POF","Privately Owned Facility"
"BANK OF BOSTON","CT0000000900308898","CT","110002056505","999999",41.871963,-72.673009,,"POF","Privately Owned Facility"
"BANTAM FALLS HOUSING","CT0000000900508875","CT","110001406327","925110",41.726652,-73.238015,,"POF","Privately Owned Facility"
"BANTAM FUEL SUPPLY","CT0000000900508919","CT","110012624794","999999",41.72148,-73.23453,,"POF","Privately Owned Facility"
"BAR-WORK MANUFACTURING CO., INC.","CT0000000900908663","CT","110001733429","332721",41.52602,-73.05088,,"POF","Privately Owned Facility"
"BARBOUR SCHOOL","CT0000000900303566","CT","110001729719","611110",41.79746,-72.66934,,"CTG","Municipality"
"BARKER STEEL LLC","01000000E000000009","CT","110070311142","999999",41.82895,-72.59654,,,
"BARNAM FEED STORE / GALLO ICE","CT0000000900108926","CT","110001406425","444130",41.39851,-73.45824,,"POF","Privately Owned Facility"
"BARNES AEROSPACE - WINDSOR DIVISION","CT0000000900308436","CT","110009067794","336412",41.86772,-72.63538,2,"POF","Privately Owned Facility"
"BARNES CONCRETE CO","CT0000000901501131","CT","110011369125","327320",41.91648,-71.80355,,"POF","Privately Owned Facility"
"BARNUM APARTMENTS, P T","CT0000000900100260","CT","110001402982","925110",41.159465,-73.212165,,"POF","Privately Owned Facility"
"BARON & YOUNG BUFFING & POLISH","CT0000000900307557","CT","110038040125","332813",41.65043,-72.91037,,"POF","Privately Owned Facility"
"BARRANTE'S CLEANERS","CT0000000900509001","CT","110001404098","812320",41.80801,-73.1213,,"POF","Privately Owned Facility"
"BARRIDON CORP","CT0000000900302986","CT","110001758205","999999",41.75807,-72.702,,"POF","Privately Owned Facility"
"BARRY BLAST","CT0000000900308988","CT","110001758713","238910",41.765252,-72.531614,,"POF","Privately Owned Facility"
"BASS PLATING COMPANY","CT0000000900309163","CT","110000315766","332813",41.86116,-72.69375,,"POF","Privately Owned Facility"
"BASSETT CO,  W E","CT0000000900908584","CT","110000316122","332211",41.32706,-73.10167,,"POF","Privately Owned Facility"
"BASSICK DIV","CT0000000900100079","CT","110038673245","111333",41.161993,-73.200364,,"POF","Privately Owned Facility"
"BASSICK HIGH SCHOOL","CT0000000900100205","CT","110020885522","611110",41.17396,-73.20713,,"POF","Privately Owned Facility"
"BATCHELDER SCHOOL","CT0000000900303558","CT","110001758125","611110",41.672288,-72.753197,,"CTG","Municipality"
"BATTISTON'S OF AVON, INC","CT0000000900309006","CT","110000845097","812320",41.70211,-72.84373,,"POF","Privately Owned Facility"
"BATTISTON'S OF SOUTH WINDSOR","CT0000000900300217","CT","110002479292","812320",41.8489,-72.57177,,"POF","Privately Owned Facility"
"BATTISTON'S OF WEST HARTFORD","CT0000000900307897","CT","110001731421","812320",41.73625,-72.72175,,"POF","Privately Owned Facility"
"BATTISTON'S OF WETHERSFIELD","CT0000000900300215","CT","110003013649","812320",41.70857,-72.66236,,"POF","Privately Owned Facility"
"BATTISTON'S OF WINDSOR","CT0000000900300216","CT","110005968747","812320",41.822397,-72.656425,,"POF","Privately Owned Facility"
"BAUER AEROSPACE DIV","CT0000000900308887","CT","110001406194","325191",41.80799,-72.84373,,"POF","Privately Owned Facility"
"BAYER CORP","CT0000000900309216","CT","110001409011","339112",41.596258,-72.750076,,"POF","Privately Owned Facility"
"BCY, INC.","CT0000000900109055","CT","110002056514","999999",41.1822,-73.19734,,"POF","Privately Owned Facility"
"BEACON INDUSTRIES, INC","CT0000000900308972","CT","110001406764","999999",41.80997,-72.70844,,"POF","Privately Owned Facility"
"BEAD INDUSTRIES, INC.","CT0000000900100253","CT","110011370444","332999",41.169711,-73.213311,,"POF","Privately Owned Facility"
"BEARD CONCRETE CO","CT0000000900908788","CT","110001408664","327320",41.226493,-73.100802,,"POF","Privately Owned Facility"
"BEARD CONCRETE CO OF DERBY","CT0000000900908784","CT","110001734865","212321 327320",41.318963,-73.081912,,"POF","Privately Owned Facility"
"BEAVER BROOK CIRCUITS, INC","CT0000000900108879","CT","110017374688","334412",41.379685,-73.425606,,"POF","Privately Owned Facility"
"BECKLEY CLEANERS","CT0000000900109012","CT","110001403473","812320",41.073288,-73.548983,,"POF","Privately Owned Facility"
"BECTON DICKINSON CO","CT0000000900500855","CT","110002474787","339112",42.01261,-73.33228,,"POF","Privately Owned Facility"
"BEDFORD TOWERS C/O PLAZA MGMT","CT0000000900106050","CT","110001747138","531110",41.05794,-73.53779,,"POF","Privately Owned Facility"
"BEDOUKIAN RESEARCH, INC","CT0000000900109062","CT","110001103118","325199",41.40824,-73.42469,252,"POF","Privately Owned Facility"
"BEEKLEY CORP","CT0000000900309082","CT","110007247274","323116",41.65523,-72.89648,,"POF","Privately Owned Facility"
"BEIERSDORF, INC.","CT0000000900100141","CT","110002005222","339112",41.084106,-73.428112,,"POF","Privately Owned Facility"
"BELDING CHEMICAL INDUSTRIES","CT0000000901502402","CT","110062722246","325211",41.9862351,-71.9033363,,"POF","Privately Owned Facility"
"BELDING CORTICELLI THREAD CO","CT0000000901500149","CT","110001404935","999999",41.9225,-71.90659,,"POF","Privately Owned Facility"
"BELLA CONSTRUCTION","CT0000000900309168","CT","110007080096","212319",41.6799,-72.97323,,"POF","Privately Owned Facility"
"BELLA VISTA APARTMENTS","CT0000000900904251","CT","110064131568","531110",41.31599,-72.87286,,"POF","Privately Owned Facility"
"BELLEVUE SQUARE PROJECT","CT0000000900302961","CT","110007252418","925110",41.77818,-72.6726,,"POF","Privately Owned Facility"
"BENEVENTO MOTORS","CT0000000900908843","CT","110001409191","811121",41.381363,-72.876632,,"POF","Privately Owned Facility"
"BENTON AUTO BODY, INC","CT0000000900309178","CT","110001735294","811121",41.747,-72.67705,,"POF","Privately Owned Facility"
"BERGER & STEVENS CLEANERS","CT0000000900103441","CT","110001405284","812320",41.02253,-73.62371,,"POF","Privately Owned Facility"
"BERGIN SCHOOL COMPLEX","CT0000000900907418","CT","110007078919","611110",41.545833,-72.979722,,"POF","Privately Owned Facility"
"BERKSHIRE COUNTRY STORE","CT0000000900508901","CT","110001733857","999999",41.84776,-73.31214,,"POF","Privately Owned Facility"
"BERKSHIRE INDUSTRIES, INC","CT0000000900309208","CT","110001735445","337920",41.66045,-72.75432,,"POF","Privately Owned Facility"
"BERKSHIRE TRANSFORMER CORP","CT0000000900508848","CT","110001731341","335311",41.7163,-73.47067,,"POF","Privately Owned Facility"
"BERLIN HEAT TREATING COMPANY, INC.","CT0000000900309165","CT","110001734847","332811",41.634628,-72.76679,,"POF","Privately Owned Facility"
"BERNIE'S AUTOMOTIVE SERVICE INC","CT0000000900109075","CT","110007079767","999999",41.17904,-73.20263,,"POF","Privately Owned Facility"
"BEROL USA","CT0000000900102263","CT","110005969229","339942",41.375181,-73.460348,,"POF","Privately Owned Facility"
"BEST EVER DRY CLEANING","CT0000000900109008","CT","110001729336","812320",41.145478,-73.495999,,"POF","Privately Owned Facility"
"BEST FRIENDS, INC","CT0000000900306415","CT","110002056523","332991",41.67141,-72.85499,,"POF","Privately Owned Facility"
"BESTECH, INC OF CONNECTICUT","CT0000000900109231","CT","110012596592","999999",41.042332,-73.55537,,"POF","Privately Owned Facility"
"BESTEVER CLEANERS, INC","CT0000000900109006","CT","110001729256","812320",41.029528,-73.62647,,"POF","Privately Owned Facility"
"BETHEL CAR WASH","CT0000000900108950","CT","110001406648","811192",41.374423,-73.422548,,"POF","Privately Owned Facility"
"BETHEL PUBLIC SCHOOLS","CT0000000900102919","CT","110070526536","611110",41.3697777,-73.3895032,,,
"BETHEL SAND & GRAVEL CO","CT0000000900109191","CT","110001748495","212321",41.37909,-73.40362,,"POF","Privately Owned Facility"
"BETTER CLEANERS","CT0000000900109014","CT","110038655620","812320",41.15274,-73.11224,,"POF","Privately Owned Facility"
"BETTER FORMED METALS","CT0000000900907534","CT","110002346373","332813",41.53378,-72.97179,,"POF","Privately Owned Facility"
"BETTER PACKAGES INC","CT0000000900109031","CT","110001733296","999999",41.32084,-73.09582,,"POF","Privately Owned Facility"
"BEVIN BROS MFG CO","CT0000000900700455","CT","110005969513","339992",41.577501,-72.501157,,"POF","Privately Owned Facility"
"BF GOODRICH AEROSPACE IPSD","CT0000000900709130","CT","110000786631","336413",41.54371,-72.68539,,"POF","Privately Owned Facility"
"BHC CO","CT0000000900108946","CT","110002438871","221310",41.15224,-73.33031,,"POF","Privately Owned Facility"
"BHC COMPANY","CT0000000900108901","CT","110001732607","221310",41.222152,-73.249574,,"POF","Privately Owned Facility"
"BHC COMPANY","CT0000000900108948","CT","110007247176","221310",41.1427521,-73.3436112,,"POF","Privately Owned Facility"
"BHC COMPANY","CT0000000900108949","CT","110001406620","221310",41.176005,-73.188508,,"POF","Privately Owned Facility"
"BHC COMPANY","CT0000000900108932","CT","110007242117","221310",41.173251,-73.27292,,"POF","Privately Owned Facility"
"BHC, INC","CT0000000900109220","CT","110012169116","221310",41.06321,-73.56173,,"POF","Privately Owned Facility"
"BIC CONSUMER PRODUCTS MANUFACTURING CO","CT0000000900902520","CT","110000316293","339999",41.221248,-73.101493,,"POF","Privately Owned Facility"
"BILCO CO","CT0000000900900045","CT","110001967266","332321",41.277263,-72.93845,,"POF","Privately Owned Facility"
"BILL'S AUTOMOTIVE","CT0000000900309057","CT","110001747922","999999",41.760382,-72.677487,,"POF","Privately Owned Facility"
"BIMBO BAKERIES USA","CT00000009001E0008","CT","110044800524","311812",41.04133,-73.56048,,"POF","Privately Owned Facility"
"BIMBO BAKERIES USA, INC.","CT0000000900100087","CT","110001728863","311812",41.01021,-73.64557,,"POF","Privately Owned Facility"
"BIODEL INC.","CT0000000900101550","CT","110039132453","325412",41.383079,-73.537038,,"POF","Privately Owned Facility"
"BIODIESEL ONE LTD","CT0000000900303660","CT","110061074395","325199",41.59106,-72.89812,,"POF","Privately Owned Facility"
"BIOPUR INC.","CT0000000900503556","CT","110041658630","325199",41.64929,-73.19544,,"POF","Privately Owned Facility"
"BIRKEN MANUFACTURING CO","CT0000000900300431","CT","110011371158","336412",41.85287,-72.70959,,"POF","Privately Owned Facility"
"BISHOP CORNER W % KONOVER MGT","CT0000000900307723","CT","110001404052","999999",41.784947,-72.746863,,"POF","Privately Owned Facility"
"BLACK ROCK COLUMN, INC.","CT0000000900100304","CT","110033182678","327390",41.16385,-73.22587,,"POF","Privately Owned Facility"
"BLACKHAM SCHOOL","CT0000000900100204","CT","110001728827","611110",41.20583,-73.21423,,"CTG","Municipality"
"BLAKESLEE ARPAIA CHAPMAN, INC","CT0000000900700272","CT","110007241868","212321",41.36772,-72.46622,,"POF","Privately Owned Facility"
"BLAKESLEE PRESTRESS, INC","CT0000000900903374","CT","110005969746","327390",41.302774,-72.775272,,"POF","Privately Owned Facility"
"BLASTING TECHNIQUES, INC","CT0000000900309142","CT","110001408129","999999",41.81057,-72.60671,,"POF","Privately Owned Facility"
"BLAS� MFG CO","CT0000000900109118","CT","110016682712","999999",41.17149,-73.1556,,"POF","Privately Owned Facility"
"BLJ MILLENNIUM LLC","CT0000000900709123","CT","110002056532","999999",41.58866,-72.72075,,"POF","Privately Owned Facility"
"BLOOMFIELD HIGH SCHOOL","CT0000000900300415","CT","110007246765","611110",41.82574,-72.72617,,"POF","Privately Owned Facility"
"BLOOMFIELD JUNIOR HIGH SCHOOL","CT0000000900300416","CT","110036042289","611110",41.82234,-72.71524,,"CTG","Municipality"
"BLOOMINGDALES DEPT STORE","CT0000000900105960","CT","110030414585","999999",41.05556,-73.54221,,"POF","Privately Owned Facility"
"BLUE BELL MATTRESS CO, INC","CT0000000900309069","CT","110001733777","999999",41.856205,-72.679635,,"POF","Privately Owned Facility"
"BLUE CIRCLE - ATLANTIC","CT0000000900900126","CT","110007078802","327310",41.30572,-72.90463,,"POF","Privately Owned Facility"
"BLUE JAY CLEANERS & DRY, INC","CT0000000900908586","CT","110013406215","812320",41.541605,-72.98148,,"POF","Privately Owned Facility"
"BOB'S AUTOBODY, INC","CT0000000900309298","CT","110003013738","811121",41.788942,-72.55388,,"POF","Privately Owned Facility"
"BOEHRINGER INGELHEIM PHARMACEUTICALS INC","CT0000000900102495","CT","110000317611","325412",41.377222,-73.5075,,"POF","Privately Owned Facility"
"BOGS LTD","CT0000000901105075","CT","110001732876","999999",41.56703,-72.04648,,"POF","Privately Owned Facility"
"BONDED TECHNOLOGY, INC","CT0000000900700155","CT","110001102226","336412",41.61053,-72.70974,,"POF","Privately Owned Facility"
"BONGIORNO G & J","CT0000000900109124","CT","110001408316","999999",41.04356,-73.55858,,"POF","Privately Owned Facility"
"BORAN BROS IMPORTS, INC","CT0000000900109136","CT","110001734838","811121",41.29472,-73.07329,,"POF","Privately Owned Facility"
"BOSTON CLEANERS","CT0000000900109017","CT","110001967202","812320",41.193402,-73.168381,,"POF","Privately Owned Facility"
"BOUTIN & SONS CONST CO, INC","CT0000000900309021","CT","110001733045","999999",41.8958,-72.54246,,"POF","Privately Owned Facility"
"BOVANO INDUSTRIES","CT0000000900908526","CT","110000748282","333512",41.48189,-72.90572,,"POF","Privately Owned Facility"
"BOZZUTO'S, INC.","CT0000000900908726","CT","110000517441","999999",41.54625,-72.89792,,"POF","Privately Owned Facility"
"BRADLEY AIR NATIONAL GUARD BASE","CT0000000900308937","CT","110009328851","928110",41.936339,-72.705876,,"POF","Privately Owned Facility"
"BRADLEY INTERNATIONAL AIRPORT","CT0000000900300026","CT","110020748529","488111",41.924861,-72.672175,,"STF","State Government"
"BRADLEY INTERNATIONAL AIRPORT / AMERESCO SELECT, INC.","CT0000000900309314","CT","110024824252","488119",41.924869,-72.671957,,"POF","Privately Owned Facility"
"BRADLEY MEMORIAL HOSPITAL","CT0000000900307006","CT","110030408048","622110",41.59593,-72.87634,,"POF","Privately Owned Facility"
"BRAND-NU LABORATORIES, INC","CT0000000900908716","CT","110000316202","999999",41.553908,-72.787863,,"POF","Privately Owned Facility"
"BRANFORD SR HIGH SCHOOL","CT0000000900908626","CT","110001407013","611110",41.28884,-72.80155,,"CTG","Municipality"
"BRAXTON MANUFACTURING CO., INC","CT0000000900508765","CT","110000498275","339993",41.6097,-73.08817,0,"POF","Privately Owned Facility"
"BREN DEN, INC","CT0000000900109042","CT","110001733544","999999",41.03767,-73.54885,,"POF","Privately Owned Facility"
"BRENNAN CONSTRUCTION","CT0000000900108966","CT","110001758580","212319",41.31093,-73.08285,,"POF","Privately Owned Facility"
"BRIAN'S USED APPLIANCES, INC","CT0000000900308957","CT","110001747744","999999",41.81739,-72.72268,,"POF","Privately Owned Facility"
"BRIDGEPORT /EAST SIDE INCIN","CT0000000900100190","CT","110007078937","999999",41.19907,-73.17507,,"CTG","Municipality"
"BRIDGEPORT /WEST SIDE INCIN","CT0000000900100001","CT","110038673209","999999",41.1543798,-73.2109323,,"CTG","Municipality"
"BRIDGEPORT AUTO RECYCLING","CT00000009001CFC05","CT","110030375573","336211",41.173325,-73.16546,,"POF","Privately Owned Facility"
"BRIDGEPORT BIODIESEL LLC","CT0000000900103555","CT","110061074386","325199",41.16536,-73.21701,,"POF","Privately Owned Facility"
"BRIDGEPORT CITY GARAGE","CT0000000900100159","CT","110007241341","921190",41.182493,-73.189751,,"CTG","Municipality"
"BRIDGEPORT CORRECTIONAL CENTER","CT0000000900108889","CT","110021383251","922140",41.18986,-73.199056,,"STF","State Government"
"BRIDGEPORT ENERGY LLC","CT0000000900109065","CT","110044916062","221119",41.168333,-73.185,,"POF","Privately Owned Facility"
"BRIDGEPORT FITTINGS, INC","CT0000000900109074","CT","110011370541","335932",41.16882,-73.14826,14,"POF","Privately Owned Facility"
"BRIDGEPORT GARDEN APARTMENTS, INC","CT0000000900109172","CT","110021315717","531110",41.157822,-73.224758,,"POF","Privately Owned Facility"
"BRIDGEPORT GARDEN APARTMENTS, INC.","CT0000000900100258","CT","110001409100","531110",41.15749,-73.22643,,"POF","Privately Owned Facility"
"BRIDGEPORT GATEWAY APT","CT0000000900100257","CT","110001402955","531110",41.183108,-73.158244,,"POF","Privately Owned Facility"
"BRIDGEPORT HEALTH CARE CENTER, INC","CT0000000900100244","CT","110001403099","623311",41.199771,-73.167358,,"POF","Privately Owned Facility"
"BRIDGEPORT HOSPITAL","CT0000000900100191","CT","110001728783","622110",41.188774,-73.16549,,"POF","Privately Owned Facility"
"BRIDGEPORT HOSPITAL - PARK CITY FACILITY","CT0000000900100306","CT","110001403222","622110",41.1713,-73.19588,,"POF","Privately Owned Facility"
"BRIDGEPORT HYDRAULIC CO","CT0000000900108947","CT","110007247167","221310",41.1427521,-73.3436112,,"POF","Privately Owned Facility"
"BRIDGEPORT HYDRAULIC CO","CT0000000900108943","CT","110030356665","221310",41.26467,-73.13869,,"POF","Privately Owned Facility"
"BRIDGEPORT INSULATED WIRE COMPANY","CT0000000900108010","CT","110000316685","331491",41.17807,-73.15145,,"POF","Privately Owned Facility"
"BRIDGEPORT MACHINES, INC.","CT0000000900100007","CT","110000611151","333512",41.198453,-73.196342,,"POF","Privately Owned Facility"
"BRIDGEPORT METAL GOODS MFG CO","CT0000000900100170","CT","110000317005","326199 999999",41.16623,-73.21521,,"POF","Privately Owned Facility"
"BRIDGEPORT PLATING CO","CT0000000900100438","CT","110038673307","332813",41.16526,-73.21031,,"POF","Privately Owned Facility"
"BRIDGEPORT POLICE DEPARTMENT","CT0000000900109212","CT","110005970388","922120",41.18149,-73.19274,,"CTG","Municipality"
"BRIDGEPORT WEB CO","CT0000000900100327","CT","110001403259","313221",41.18238,-73.18235,,"POF","Privately Owned Facility"
"BRIDGEPORT WILMOT APT % HOTCHK","CT0000000900100255","CT","110001403115","531110",41.18159,-73.1622,,"POF","Privately Owned Facility"
"BRIDGEPORT WPCF","CT0000000900109131","CT","110000759518","221320",41.17299,-73.171325,,"CTG","Municipality"
"BRIDGEWATER, TOWN OF","CT0000000900509009","CT","110012143796","921190",41.520294,-73.361093,,"CTG","Municipality"
"BRIGHT FEEDS","CT0000000900300213","CT","110071958137","311119",41.63423,-72.74489,,,
"BRISTOL / DPW","CT0000000900309012","CT","110007006989","924110",41.6815776,-72.9407487,,"CTG","Municipality"
"BRISTOL / DPW","CT0000000900308993","CT","110001758795","921190",41.65774,-72.91898,,"CTG","Municipality"
"BRISTOL BABCOCK INC., DIV OF EMERSON","CT0000000900508869","CT","110000787159","334513",41.61319,-73.09607,,"POF","Privately Owned Facility"
"BRISTOL BABCOCK INSTRUMENTS","CT0000000900905018","CT","110025319965","339113",41.519039,-73.054208,,"POF","Privately Owned Facility"
"BRISTOL DPW - WPC","CT0000000900300903","CT","110002051993","221320",41.66049,-72.9197,,"CTG","Municipality"
"BRISTOL HOSPITAL, INCORPORATED","CT0000000900300713","CT","110002474812","622110",41.67551,-72.936017,,"POF","Privately Owned Facility"
"BRISTOL MEMORIAL WORKS, INC","CT0000000900309138","CT","110001408094","327991",41.68999,-72.92582,,"POF","Privately Owned Facility"
"BRISTOL SPRING MFG CO","CT0000000900306420","CT","110001729826","332611",41.66496,-72.8671,,"POF","Privately Owned Facility"
"BRISTOL TECHNICAL EDUCATION CENTER","CT0000000900308959","CT","110002367812","999999",41.69045,-72.99101,,"STF","State Government"
"BRISTOL-MYERS SQUIBB CO","CT0000000900900016","CT","110000787079","325412",41.48027,-72.76475,,"POF","Privately Owned Facility"
"BROAD BROOK CENTER, INC","CT0000000900302031","CT","110010337634","999999",41.916832,-72.545921,,"POF","Privately Owned Facility"
"BROAD STORE CORP","CT0000000900908764","CT","110001408334","999999",41.4627236,-72.8050714,,"POF","Privately Owned Facility"
"BROADBRIDGE AUTO SERVICE, INC","CT0000000900109051","CT","110001747940","447190",41.2076,-73.15022,,"POF","Privately Owned Facility"
"BROADWAY CLEANERS","CT0000000900909905","CT","110001730734","812320",41.34029,-72.86338,,"POF","Privately Owned Facility"
"BROADWAY SERVICE INC","CT0000000900309024","CT","110005971608","999999",41.67349,-72.78308,,"POF","Privately Owned Facility"
"BRODACH BUILDERS, INC","CT0000000900908644","CT","110001407335","999999",41.51005,-72.89946,,"POF","Privately Owned Facility"
"BRONSON CO, HOMER D","CT0000000900900203","CT","110000879979","332813",41.445403,-73.065419,,"POF","Privately Owned Facility"
"BROOK & WHITTLE, LTD","CT0000000900902018","CT","110043534734","323111",41.29307,-72.66742,,,
"BROOKFIELD AUTO BODY & SALES, INC","CT0000000900309188","CT","110001735383","811121",41.75267,-72.69942,,"POF","Privately Owned Facility"
"BROOKLYN CORRECTIONAL INSTITUTE","CT0000000901501132","CT","110001406283","922140",41.786,-71.95442,,"STF","State Government"
"BROOKSIDE DRY CLEANERS, INC","CT0000000900100017","CT","110001404962","812320",41.221434,-73.217803,,"POF","Privately Owned Facility"
"BROOKWOOD LAMINATING, INC.","CT0000000901502255","CT","110031020142","313311",41.73801,-71.90427,8217,"POF","Privately Owned Facility"
"BROTHERS DRY CLEANING CO","CT0000000900309007","CT","110001731225","812320",41.67397,-72.774408,,"POF","Privately Owned Facility"
"BROTHERS EAST SIDE SUNOCO","CT0000000900908763","CT","110001408325","999999",41.4627236,-72.8050714,,"POF","Privately Owned Facility"
"BROWNELL & COMPANY, INCORPORATED","CT0000000900701490","CT","110000316364","314991",41.50213,-72.45283,,"POF","Privately Owned Facility"
"BROWNSTEIN REALTY","CT0000000900907008","CT","110007078900","999999",41.59057,-73.05286,,"POF","Privately Owned Facility"
"BRUCE MFG & MOLDING CO, INC","CT0000000900308938","CT","110011369296","331528",41.57774,-72.89752,,"POF","Privately Owned Facility"
"BRUNALLI CONSTRUCTION COMPANY","CT0000000900309294","CT","110012143634","237310",41.7324411,-72.7337901,,"POF","Privately Owned Facility"
"BRUNO'S CUSTOM KITCHENS & BATH","CT0000000900508914","CT","110007080078","337110",41.59755,-73.07488,,"POF","Privately Owned Facility"
"BRUNSWICK SCHOOL, THE","CT0000000900109204","CT","110002351730","611110",41.06859,-73.69725,,"POF","Privately Owned Facility"
"BRYON'S AUTOBODY","CT0000000900309183","CT","110001735347","811121",41.74569,-72.67326,,"POF","Privately Owned Facility"
"BUBBLE AND SQUEAK LAUNDRY","CT0000000900902013","CT","110071894239","812320",41.321229,-72.909406,,"POF","Privately Owned Facility"
"BUCHANAN MARINE L.P. ","CT0000000900902008","CT","110069557893","336612",41.300534,-72.89154,,,
"BUCKEYE PIPE LINE CO, LP","CT0000000900908693","CT","110001733740","486910",41.30145,-72.88976,,"POF","Privately Owned Facility"
"BUCKEYE PT TERMINALS, L.P. - FORBES AVENUE TERMINAL","CT0000000900900009","CT","110001729960","424710",41.29529,-72.90082,,"POF","Privately Owned Facility"
"BUCKEYE PT TERMINALS, L.P. - WATERFRONT STREET TERMINAL","CT0000000900900020","CT","110032893457","424710",41.293073,-72.902305,,"POF","Privately Owned Facility"
"BUCKEYE TERMINALS, LLC","CT0000000900300195","CT","110000315659","424710",41.718249,-72.649365,,"POF","Privately Owned Facility"
"BUCKEYE TERMINALS, LLC - GROTON TERMINAL","CT0000000901100606","CT","110000315882","424710",41.335846,-72.076413,,"POF","Privately Owned Facility"
"BUCKLAND CLEANERS","CT0000000900300015","CT","110001405051","812320",41.824189,-72.55295,,"POF","Privately Owned Facility"
"BUD'S FISH MARKET","CT0000000900908685","CT","110007242377","999999",41.269253,-72.805343,,"POF","Privately Owned Facility"
"BUDGET ONE HOUR CLEANERS","CT0000000900309028","CT","110001733134","812320",41.767722,-72.698762,,"POF","Privately Owned Facility"
"BUELL'S GREENHOUSE, INC","CT0000000901500405","CT","110005971957","999999",41.90281,-72.09004,,"POF","Privately Owned Facility"
"BUILDERS CONCRETE / MANCHESTER","CT0000000900300003","CT","110024421570","327320",41.79354,-72.5523,,"POF","Privately Owned Facility"
"BUILDERS CONCRETE EAST, LLC","CT0000000901500010","CT","110015784560","327390",41.72431,-72.19185,,,
"BULKELEY HIGH SCHOOL","CT0000000900303476","CT","110021613565","611110",41.7478,-72.6735,,"POF","Privately Owned Facility"
"BULL METAL PRODUCTS, INC","CT0000000900700004","CT","110001731136","332116",41.546486,-72.633272,,"POF","Privately Owned Facility"
"BULLARD-HAVENS RVTS SCHOOL","CT0000000900108939","CT","110001747824","611519",41.2002,-73.16507,,"STF","State Government"
"BUNKER RAMO INFORMATION SYSTEM","CT0000000900108968","CT","110062700938","333319",41.23916,-73.14625,,"POF","Privately Owned Facility"
"BUNKER RAMO INFORMATION SYSTEM","CT0000000900108457","CT","110002056578","333319",41.24149,-73.14881,,"POF","Privately Owned Facility"
"BUNNELL HIGH SCHOOL","CT0000000900107978","CT","110001729318","611110",41.2054753,-73.128152,,"CTG","Municipality"
"BUNNELL ST % AM FABRICS CO","CT0000000900100179","CT","110025283672","999999",41.18486,-73.16811,,"POF","Privately Owned Facility"
"BUNNELL'S AUTO BODY, INC","CT0000000901105129","CT","110002353391","811121",41.45282,-72.15642,,"POF","Privately Owned Facility"
"BURGHARDT MOTORS","CT0000000900709120","CT","110001967444","999999",41.35765,-72.55026,,"POF","Privately Owned Facility"
"BURLINGTON CONST. DBA SEGA READY MIX","CT0000000900901738","CT","110022447501","327320",41.590055,-73.057521,,"POF","Privately Owned Facility"
"BURNDY CORP","CT0000000900105006","CT","110001729005","335931",41.092398,-73.450632,,"POF","Privately Owned Facility"
"BURNDY CORP","CT0000000900908786","CT","110000610795","334417",41.58246,-73.06493,,"POF","Privately Owned Facility"
"BURNDY LLC","CT0000000900108857","CT","110000739773","331528",41.3586,-73.41901,,"POF","Privately Owned Facility"
"BURR DIST ELEMENTARY SCHOOL","CT0000000900701503","CT","110021626551","611110",41.44428,-72.55565,,"CTG","Municipality"
"BURR SCHOOL","CT0000000900303563","CT","110001729693","611110",41.74482,-72.67312,,"CTG","Municipality"
"BUSHNELL CENTER FOR THE PERFORMING ARTS","CT0000000900302989","CT","110001758214","999999",41.76238,-72.68067,,"POF","Privately Owned Facility"
"BUZZY'S GETTY","CT0000000900109122","CT","110001408183","999999",41.2156,-73.21294,,"POF","Privately Owned Facility"
"BYK-CHEMIE USA, INC","CT0000000900908672","CT","110000316630","325510",41.4425,-72.83477,3021,"POF","Privately Owned Facility"
"BYRAM ELEMENTARY SCHOOL","CT0000000900103429","CT","110001403446","611110",41.01434,-73.65266,,"CTG","Municipality"
"C & M CORP","CT0000000901501113","CT","110000316033","335929",41.74428,-71.91212,,"POF","Privately Owned Facility"
"C F D NEW ENGLAND","CT0000000900908024","CT","110001731608","339113",41.27695,-72.93805,,"POF","Privately Owned Facility"
"C. COWLES & COMPANY","CT0000000900903323","CT","110001404427","332111",41.30085,-72.91608,,"POF","Privately Owned Facility"
"C.L. & P. - NEWTOWN AREA WORK CENTER","CT0000000900109234","CT","110012596609","999999",41.426579,-73.342583,,"POF","Privately Owned Facility"
"C.L. & P. - WATERBURY AREA WORK CENTER","CT0000000900909930","CT","110011393278","221122",41.5537,-73.05148,,"POF","Privately Owned Facility"
"CAAP COMPANY INC","CT0000000900905099","CT","110000316300","325510",41.23099,-73.01975,1509,"POF","Privately Owned Facility"
"CABINETS BY DARRIN","CT0000000900908792","CT","110001408691","337125",41.3408,-72.92958,,"POF","Privately Owned Facility"
"CABLEVISION OF CONNECTICUT","CT0000000900109071","CT","110007353997","334220",41.12009,-73.41574,,"POF","Privately Owned Facility"
"CALDOR","CT0000000900104215","CT","110001728934","999999",41.14354,-73.4281,,"POF","Privately Owned Facility"
"CAMCO FITTINGS CO","CT0000000900908710","CT","110000316863","332996",41.37738,-72.91494,,"POF","Privately Owned Facility"
"CAMEROTA SCRAP RECYCLING CO","CT0000000900308970","CT","110001406755","999999",42.01369,-72.526,,"POF","Privately Owned Facility"
"CAMETOID TECHNOLOGIES, INC.","CT0000000900309177","CT","110000786944","332812",41.80023,-72.50695,,"POF","Privately Owned Facility"
"CAMPBELL ENGINEER SUP SERV, INC","CT0000000901105078","CT","110007242251","999999",41.348837,-72.1020288,,"POF","Privately Owned Facility"
"CAMPUS OFFICE PARK ASSOC LLC","CT0000000900108855","CT","110001747361","531120",41.187132,-73.179963,,"POF","Privately Owned Facility"
"CANDID 1-HR CLEANERS","CT0000000900900028","CT","110003012819","812320",41.39517,-72.85617,,"POF","Privately Owned Facility"
"CANTERBURY SCHOOL, INC","CT0000000900500618","CT","110010383995","611110",41.58704,-73.41268,,"POF","Privately Owned Facility"
"CANTON MIDDLE SCHOOL","CT0000000900301320","CT","110001967211","611110",41.82227,-72.91985,,"CTG","Municipality"
"CANTON VILLAGE CONSTRUCTION CO","CT0000000900309261","CT","110005970422","212319",41.83643,-72.93588,,"POF","Privately Owned Facility"
"CAPEWELL COMPONENTS / RIPLEY CO","CT0000000900702972","CT","110001731314","332212",41.61069,-72.64497,,"POF","Privately Owned Facility"
"CAPEWELL COMPONENTS CO","CT0000000900302956","CT","110001403856","332212",41.77087,-72.64575,,"POF","Privately Owned Facility"
"CAPEWELL COMPONENTS CORP","CT0000000900309046","CT","110001407291","332212",41.82353,-72.6057,,"POF","Privately Owned Facility"
"CAPEWELL HORSE NAILS, INC","CT0000000900309206","CT","110001735427","999999",41.86481,-72.71687,,"POF","Privately Owned Facility"
"CAPITAL COMMUNITY COLLEGE","CT0000000900303492","CT","110001758107","611310",41.77117,-72.7012,,"POF","Privately Owned Facility"
"CAPITOL DISTRICT ENERGY CTR COGENERATION","CT0000000900300920","CT","110001403749","221330",41.763878,-72.691975,,"POF","Privately Owned Facility"
"CAPITOL PRODUCTS CO, INC","CT0000000900508860","CT","110001731724","335221",41.9205,-73.069752,,"POF","Privately Owned Facility"
"CAPITOL SHELL FOOD MART, INC","CT0000000900309227","CT","110001735766","999999",41.763729,-72.686784,,"POF","Privately Owned Facility"
"CAPITOL TOWERS, INC","CT0000000900309162","CT","110001408441","324122",41.763381,-72.686734,,"POF","Privately Owned Facility"
"CAR QUART, INC","CT0000000900309259","CT","110005970413","999999",41.66648,-72.79852,,"POF","Privately Owned Facility"
"CARABETTA FLORIST","CT0000000900902105","CT","110002056603","453110",41.55284,-72.79306,,"POF","Privately Owned Facility"
"CARAUSTAR CUSTOM PACKAGING GROUP, INC","CT0000000901109002","CT","110000316024","322130",41.623709,-72.043131,,"POF","Privately Owned Facility"
"CARBOLABS, INC","CT0000000900908714","CT","110000786846","325199",41.4428,-72.99406,,"POF","Privately Owned Facility"
"CARE FREE BUILDING CO","CT0000000901105116","CT","110001409075","321992",41.58927,-72.39642,,"POF","Privately Owned Facility"
"CAREY INDUSTRIES, INC","CT0000000900102318","CT","110011616536","325510",41.39068,-73.43584,,"POF","Privately Owned Facility"
"CAREY INDUSTRIES, INC","CT0000000900108906","CT","110001732224","325510",41.39947,-73.44358,,"POF","Privately Owned Facility"
"CARGILL ANIMAL NUTRITION DBA K& L FEED","CT0000000901105057","CT","110007079357","311119",41.578214,-72.13254,,"POF","Privately Owned Facility"
"CARL MASSAFRA'S AUTO REPAIR","CT0000000900908805","CT","110013398224","811121",41.211797,-73.09327,,"POF","Privately Owned Facility"
"CARLING TECHNOLOGIES, INC.","CT0000000900301111","CT","110002489129","335931",41.69142,-72.86813,,"POF","Privately Owned Facility"
"CARLON PRODUCTS COMPANY","CT0000000900900933","CT","110001405505","326299",41.32012,-73.08643,,"POF","Privately Owned Facility"
"CARLYLE JOHNSON MACHINE CO, LLC THE","CT0000000900309110","CT","110001734179","332312",41.89805,-72.64691,,"POF","Privately Owned Facility"
"CARMON FUNERAL HOMES, INC.","CT0000000900305859","CT","110070072160","812220",41.85655,-72.6809,,,
"CARNIVAL TOYS, INC","CT0000000900108848","CT","110038657986","999999",41.166681,-73.210542,,"POF","Privately Owned Facility"
"CARPIN MFG, INC","CT0000000900908736","CT","110001734277","337125",41.53471,-72.97754,,"POF","Privately Owned Facility"
"CARRIS REELS OF CONNECTICUT, INC.","CT0000000900302101","CT","110002077092","321999",41.98652,-72.5297,,"POF","Privately Owned Facility"
"CARTRIGHT TOWERS CONDO ASSOC","CT0000000900109067","CT","110001407647","531110",41.17862,-73.21948,,"POF","Privately Owned Facility"
"CASALE ASSOCIATES AUTO BODY, INC","CT0000000900109192","CT","110001748547","811121",41.10096,-73.40942,,"POF","Privately Owned Facility"
"CASCADES HOLDING US INC.","CT0000000900104106","CT","110008053701","322211",41.41745,-73.29306,,"POF","Privately Owned Facility"
"CASCO PRODUCTS CORP","CT0000000900100161","CT","110000863619","441310",41.16741,-73.210662,,"POF","Privately Owned Facility"
"CASCO PRODUCTS CORPORATION","CT0000000900108930","CT","110009128979","423120",41.20312,-73.17704,,"POF","Privately Owned Facility"
"CASIMIR PULASKI SCHOOL","CT0000000900901931","CT","110001730084","611110",41.52332,-72.80444,,"CTG","Municipality"
"CASTAGNA BROS CUSTOM KITCHENS","CT0000000900109046","CT","110001733385","337110",41.17,-73.21551,,"POF","Privately Owned Facility"
"CATOONAH ST TEXACO","CT0000000900109063","CT","110001733713","999999",41.28136,-73.50083,,"POF","Privately Owned Facility"
"CAVAL TOOL DIV","CT0000000900309064","CT","110001733688","999999",41.65881,-72.73073,,"POF","Privately Owned Facility"
"CAVAL TOOL DIV","CT0000000900309140","CT","110030384974","336412",41.67283,-72.75007,,"POF","Privately Owned Facility"
"CBS PUBLICATIONS DIV","CT0000000900103422","CT","110038657806","999999",41.02338,-73.62506,,"POF","Privately Owned Facility"
"CCC OF CT, INC","CT0000000900108975","CT","110021304248","999999",41.32397,-73.47503,,"POF","Privately Owned Facility"
"CCL LABEL, INC","CT0000000900108984","CT","110000845113","561910",41.28319,-73.10834,,"POF","Privately Owned Facility"
"CEDAR HILL CEMETARY","CT0000000900300208","CT","110030380825","812220",41.727408,-72.691134,,,
"CEDARCREST HOSPITAL","CT0000000900306104","CT","110033644929","621112",41.708085,-72.707454,,"POF","Privately Owned Facility"
"CENTER SCHOOL (E HAMPTON BOE)","CT0000000900709131","CT","110022665481","611110",41.57654,-72.50131,,"POF","Privately Owned Facility"
"CENTERBROOK TEXACO","CT0000000900709118","CT","110001967435","999999",41.35244,-72.3891,,"POF","Privately Owned Facility"
"CENTRAL CONN CO-OP FARMERS ASSO, INC","CT0000000900308984","CT","110001732750","999999",41.794716,-72.521366,,"POF","Privately Owned Facility"
"CENTRAL CONNECTICUT STATE UNIVERSITY","CT0000000900305845","CT","110001729657","611310",41.69004,-72.7708,,"STF","State Government"
"CENTRAL HIGH SCHOOL","CT0000000900100243","CT","110001403080","611110",41.18936,-73.20742,,"POF","Privately Owned Facility"
"CENTRAL HIGH SCHOOL","CT0000000900300873","CT","110002482153","611110",41.66021,-72.95921,,"POF","Privately Owned Facility"
"CENTRAL JUNIOR HIGH SCHOOL","CT0000000900103428","CT","110007078508","611110",41.047828,-73.607837,,"CTG","Municipality"
"CENTRAL METAL PRODUCTS CO","CT0000000900303671","CT","110001732965","332813",41.9129,-72.60783,,"POF","Privately Owned Facility"
"CENTURY FIREPLACE FURNISHINGS","CT0000000900906664","CT","110038663504","999999",41.45125,-72.84256,,"POF","Privately Owned Facility"
"CHAMBERLAIN SCHOOL","CT0000000900305816","CT","110007252463","611110",41.67163,-72.75965,,"CTG","Municipality"
"CHAMBERS & SON INC,  M S","CT0000000901105102","CT","110000315855","332812",41.617112,-72.091591,,"POF","Privately Owned Facility"
"CHAMPION MFG INC","CT0000000900701489","CT","110001407317","999999",41.39381,-72.439,,"POF","Privately Owned Facility"
"CHAMPION TOOL & DIE CO, INC","CT0000000900701511","CT","110001407317","999999",41.39381,-72.439,,"POF","Privately Owned Facility"
"CHAMPION WORLD HDQTS","CT0000000900106670","CT","110001729265","561210",41.05079,-73.53954,,"POF","Privately Owned Facility"
"CHAMPLIN CO","CT0000000900309022","CT","110001733269","321920",41.75645,-72.70302,,"POF","Privately Owned Facility"
"CHAPCO, INC","CT0000000900709121","CT","110001734552","999999",41.42458,-72.44446,,"POF","Privately Owned Facility"
"CHAPMAN CHRUSHING SERVICE, INC","CT0000000900309066","CT","110001733722","324121",41.645627,-72.677859,,"POF","Privately Owned Facility"
"CHAPMAN PROPERTIES - JOHNNY ORCHARD","CT0000000901300845","CT","110010320811","999999",41.83972,-72.49225,,"POF","Privately Owned Facility"
"CHARLES BATCHELDER CO","CT0000000900100009","CT","110038673236","331312",41.5797842,-72.7466666,,"POF","Privately Owned Facility"
"CHARLES J DICKGIESSER & CO, INC","CT0000000900908850","CT","110002353435","332312",41.3268,-73.10109,,"POF","Privately Owned Facility"
"CHARLOTTE HUNGERFORD HOSPITAL","CT0000000900508850","CT","110001747469","622110",41.79082,-73.13306,,"POF","Privately Owned Facility"
"CHARMBRIK & STONE, INC","CT0000000900908767","CT","110001734543","999999",41.254743,-72.877994,,"POF","Privately Owned Facility"
"CHAS W HOUSE & SONS, INC","CT0000000900302403","CT","110000315506","313310",41.758896,-72.890756,,"POF","Privately Owned Facility"
"CHASE WASTE MATERIALS CORPORATION","CT0000000900902016","CT","110045347353","423510",41.325155,-72.880736,,"POF","Privately Owned Facility"
"CHEM-TECH RUBBER, INC","CT0000000900900123","CT","110001404267","326299",41.296375,-72.956046,,"POF","Privately Owned Facility"
"CHEM-TECH RUBBER, INC","CT0000000900905007","CT","110002056612","326299",41.30055,-72.88866,,"POF","Privately Owned Facility"
"CHEM-TRON PAINTING & POWDER COATING INC","CT0000000900109050","CT","110001747904","332813 999999",41.396045,-73.439362,,"POF","Privately Owned Facility"
"CHEMETAL CORP","CT0000000900108923","CT","110001732448","331419",41.273342,-73.134508,,"POF","Privately Owned Facility"
"CHEMICAL EQUIPMENT LABS OF DE, INC.","CT0000000900902012","CT","110071876458","212393",41.29466,-72.89983,,,
"CHEMICAL LEAMAN TANK LINES","CT0000000900908543","CT","110002056621","488490",41.299572,-72.76992,,"POF","Privately Owned Facility"
"CHEMTURA  CORPORATION","CT0000000900909935","CT","110013313869","561210 999999",41.49665,-73.1487,,"POF","Privately Owned Facility"
"CHEMTURA USA","CT0000000900902401","CT","110011614235","551114",41.497198,-73.149998,,"POF","Privately Owned Facility"
"CHENEY R.V.T. SCHOOL, HOWELL","CT0000000900308963","CT","110001747842","999999",41.78112,-72.56022,,"STF","State Government"
"CHENEY R.V.T. SCHOOL, HOWELL","CT0000000900308960","CT","110007247194","999999",42.00002,-72.57062,,"STF","State Government"
"CHERENZIA EXCAVATION CORP","CT0000000901105125","CT","110007080149","999999",41.37234,-72.154161,,"POF","Privately Owned Facility"
"CHEROKEE SOUTHINGTON LLC","CT0000000900309311","CT","110000610713","336412 999999",41.63959,-72.87744,,"POF","Privately Owned Facility"
"CHERRY HILL CONSTRUCTION","CT0000000900993343","CT","110002367787","999999",41.35612,-72.92803,,"POF","Privately Owned Facility"
"CHESHIRE AUTO BODY, INC","CT0000000900908595","CT","110001747771","811121",41.508321,-72.914425,,"POF","Privately Owned Facility"
"CHESHIRE CORRECTIONAL COMPLEX","CT0000000900900764","CT","110038102460","922140",41.52626,-72.90169,,"STF","State Government"
"CHESHIRE HIGH SCHOOL","CT0000000900900747","CT","110036441669","611110",41.48965,-72.90475,,"CTG","Municipality"
"CHESTNUT STREET STAIR CO., LLC","CT0000000900306500","CT","110039132480","321918 999999",41.28858,-73.07838,,"POF","Privately Owned Facility"
"CHESTNUT STREET STAIR CO., LLC","CT0000000900106500","CT","110039132480","321918 999999",41.28858,-73.07838,,"POF","Privately Owned Facility"
"CHEVRON USA INC","CT0000000900701488","CT","110038661720","324122",41.571332,-72.645254,,"POF","Privately Owned Facility"
"CHOATE ROSEMARY HALL SCHOOL","CT0000000900906510","CT","110002083469","611110",41.456765,-72.807206,,"POF","Privately Owned Facility"
"CHRISTYS FOOD & FUEL","CT0000000900300922","CT","110001733508","999999",41.77847,-72.585714,,"POF","Privately Owned Facility"
"CHROMALLOY CONNECTICUT","CT0000000900308619","CT","110039064268","999999",41.87483,-72.68669,,"POF","Privately Owned Facility"
"CHROMIUM PROCESS CO","CT0000000900105416","CT","110000316550","332813",41.316935,-73.091758,,"POF","Privately Owned Facility"
"CHRONICLE, THE","CT0000000901501172","CT","110001735230","999999",41.71659,-72.23673,,"POF","Privately Owned Facility"
"CHUCK & EDDIE'S AUTO PARTS","CT0000000900300207","CT","110071274051","423140",41.58365,-72.88217,,,
"CIARLO MONUMENTAL WORKS, INC","CT0000000900908530","CT","110002056630","327991",41.543945,-73.005129,,"POF","Privately Owned Facility"
"CIDERMILL SCHOOL","CT0000000900108831","CT","110022666079","611110",41.20599,-73.4309,,"CTG","Municipality"
"CIGNA CORP","CT0000000900308931","CT","110001732493","524128",41.88137,-72.73218,,"POF","Privately Owned Facility"
"CIGNA CORPORATION","CT0000000900300407","CT","110044176049","524128",41.81678,-72.742285,,"POF","Privately Owned Facility"
"CILCO TERMINAL","CT0000000900108922","CT","110001732439","999999",41.17082,-73.17183,,"POF","Privately Owned Facility"
"CIRCON ACMI","CT0000000900109047","CT","110000317728","333512",41.053857,-73.557395,,"POF","Privately Owned Facility"
"CIRCUIT-WISE, INC.","CT0000000900905008","CT","110011370248","334412",41.36776,-72.87861,,"POF","Privately Owned Facility"
"CITGO","CT0000000900908760","CT","110001408263","999999",41.54663,-73.01731,,"POF","Privately Owned Facility"
"CITGO PETROLEUM CORP","CT0000000900300912","CT","110000863646","999999",41.653395,-72.630953,,"POF","Privately Owned Facility"
"CITY AUTO PARTS, INC.","CT00000009003E0100","CT","110030408084","423930",41.79512,-72.66177,,,
"CITY CEMENT BLOCK CO","CT0000000900109059","CT","110001733642","327331",41.199858,-73.189793,,"POF","Privately Owned Facility"
"CITY GAS FOOD MART LLC","CT0000000900908641","CT","110001733367","999999",41.533404,-73.034705,,"POF","Privately Owned Facility"
"CITY LINE AUTO BODY","CT0000000900109036","CT","110007242313","811121",41.190293,-73.155449,,"POF","Privately Owned Facility"
"CITY OF DANBURY - PUBLIC WORKS COMPLEX","CT0000000900109040","CT","110000880119","924110",41.40296,-73.41443,,"CTG","Municipality"
"CITY OF NORWALK 3RD TAXING DISTRICT","CT0000000900308842","CT","110027373296","221122",41.11034,-73.39452,,"CTG","Municipality"
"CITY OF WATERBURY WPCF","CT0000000900909036","CT","110002057513","221320",41.52161,-73.04427,,"CTG","Municipality"
"CITY PLACE I % JONES LANG LASALLE","CT0000000900308922","CT","110001732019","999999",41.76724,-72.67658,,"POF","Privately Owned Facility"
"CITY PLACE II","CT0000000900308921","CT","110001732019","999999",41.76724,-72.67658,,"POF","Privately Owned Facility"
"CITY READY MIXED CONCRETE","CT0000000900908534","CT","110001731788","327320",41.528767,-73.024289,,"POF","Privately Owned Facility"
"CITY TIRE CO, INC","CT0000000900701492","CT","110001405649","999999",41.55707,-72.64482,,"POF","Privately Owned Facility"
"CL & P - PLAINFIELD LINE SHOP","CT0000000901502976","CT","110012624810","999999",41.687301,-71.920792,,"POF","Privately Owned Facility"
"CL & P - WILLIMANTIC AREA WORK CENTER","CT0000000901502977","CT","110002479997","221122",41.71479,-72.22789,,"POF","Privately Owned Facility"
"CLARK SCHOOL","CT0000000900303562","CT","110001758143","611110",41.78706,-72.67734,,"CTG","Municipality"
"CLASSIC AUTO","CT0000000900109135","CT","110001735025","811121",41.02266,-73.62373,,"POF","Privately Owned Facility"
"CLASSIC CRUISER CT, INC","CT0000000900908699","CT","110007079749","811121",41.54569,-73.03409,,"POF","Privately Owned Facility"
"CLASSIC DRY CLEANERS","CT0000000900109023","CT","110001731190","812320",41.07186,-73.52388,,"POF","Privately Owned Facility"
"CLEAN BREEZE","01000000E000000010","CT","110001747904","332813 999999",41.396045,-73.439362,,,
"CLEAN HARBORS OF CONNECTICUT, INC","CT0000000900308982","CT","110002083478","924110",41.652505,-72.908155,0,"POF","Privately Owned Facility"
"CLEAN SHOP INC, THE","CT0000000900909907","CT","110001730752","812320",41.55029,-73.010967,,"POF","Privately Owned Facility"
"CLECO MFG, INC","CT0000000900908751","CT","110001748137","332312",41.45789,-72.83522,,"POF","Privately Owned Facility"
"CLINTON AVE SCHOOL","CT0000000900904000","CT","110001730379","611110",41.31862,-72.89271,,"CTG","Municipality"
"CLINTON IRON WORKS, INC","CT0000000900309011","CT","110001731261","332323",41.77108,-72.66041,,"POF","Privately Owned Facility"
"CLINTON NURSERY PRODUCTS, INC","CT0000000900709109","CT","110001408548","325314",41.27747,-72.54117,,"POF","Privately Owned Facility"
"CLOONAN MIDDLE SCHOOL","CT0000000900106020","CT","110001747085","611110",41.05898,-73.54693,,"POF","Privately Owned Facility"
"CLY-DEL MANUFACTURING COMPANY","CT0000000900907070","CT","110030354006","332116",41.5687,-72.99808,,"POF","Privately Owned Facility"
"CMEEC - JOHN ST","CT0000000900905973","CT","110006547870","221122",41.446465,-72.834704,,"POF","Privately Owned Facility"
"CMEEC - S. CHERRY","CT0000000900905972","CT","110027373955","221122",41.4627236,-72.8050714,,"POF","Privately Owned Facility"
"COASTAL","CT0000000900908687","CT","110002005437","999999",41.34067,-72.86291,,"POF","Privately Owned Facility"
"COASTLINE TERMINALS OF CONN, INC","CT0000000900908858","CT","110007032344","999999",41.29085,-72.90273,,"POF","Privately Owned Facility"
"COATING SCIENCES INC","CT0000000900300491","CT","110067041141","322222",41.86321,-72.70238,,"POF","Privately Owned Facility"
"COATS NORTH AMERICA","CT0000000900502023","CT","110001731500","999999",41.95092,-73.04908,,"POF","Privately Owned Facility"
"COCA-COLA BOTTLING OF NY","CT0000000900108888","CT","110038658020","999999",41.1646,-73.22722,,"POF","Privately Owned Facility"
"COHERENT INC.","CT0000500026793100","CT","110030324762","335921",41.93763,-72.70753,,,
"COL-LAR ENTERPRISES","CT0000000900104503","CT","110039132462","339932",41.38447,-73.42072,,"POF","Privately Owned Facility"
"COLBURN'S SERVICE STATION","CT0000000900908821","CT","110001735855","999999",41.26892,-72.80477,,"POF","Privately Owned Facility"
"COLD METAL PRODUCTS CO","CT0000000900309239","CT","110000315329","331221",41.666798,-72.798008,,"POF","Privately Owned Facility"
"COLLINS PROSPECT LLC","CT0000000900108982","CT","110001406906","531110",41.058237,-73.536418,,"POF","Privately Owned Facility"
"COLONIAL BRONZE COMPANY","CT0000000900509004","CT","110011370257","332510",41.82634,-73.11242,,"POF","Privately Owned Facility"
"COLONIAL COATINGS INC","CT0000000900902005","CT","110002492197","333517",41.21822,-73.0771,,,
"COLONIAL LITHOGRAPH, INC","CT0000000900108908","CT","110001732064","999999",41.10421,-73.41117,,"POF","Privately Owned Facility"
"COLONIAL VILLAGE","CT0000000900104222","CT","110007241412","925110",41.106634,-73.438094,,"CTG","Municipality"
"COLONNADE ONE & TWO","CT0000000900103444","CT","110038657815","999999",41.03531,-73.56374,,"POF","Privately Owned Facility"
"COLONY FORD","CT0000000900908723","CT","110001408076","811121",41.525599,-72.764038,,"POF","Privately Owned Facility"
"COLORALL TECHNOLOGIES","CT0000000900109092","CT","110001733893","811121",41.23697,-73.13493,,"POF","Privately Owned Facility"
"COLT'S MANUFACTURING CO, INC","CT0000000900303201","CT","110000610740","332994",41.75523,-72.66379,,"POF","Privately Owned Facility"
"COLT'S MANUFACTURING COMPANY, INC.","CT0000000900309247","CT","110010707930","332994",41.754125,-72.73818,9,"POF","Privately Owned Facility"
"COLT'S PLASTICS COMPANY, INC.","CT0000000901580020","CT","110005968845","326160",41.83187,-71.8768,,"POF","Privately Owned Facility"
"COLTSVILLE HERITAGE PARK, INC","CT0000000900309270","CT","110006646246","531120",41.7555,-72.6641,,"POF","Privately Owned Facility"
"COLUMBUS LLC","CT0000000900308958","CT","110001747753","999999",41.668796,-72.78539,,"POF","Privately Owned Facility"
"COLUMBUS SCHOOL","CT0000000900100212","CT","110001402991","611110",41.18579,-73.19825,,"CTG","Municipality"
"COLUMBUS SQUARE AUTO","CT0000000901105093","CT","110001407692","811121",41.350653,-72.100826,,"POF","Privately Owned Facility"
"COMASEC SAFETY, INC","CT0000000900302205","CT","110001758465","999999",41.97891,-72.57633,,"POF","Privately Owned Facility"
"COMBUSTION ENGINEERING, INC.","CT0000000900309278","CT","110000610759","541330",41.87799,-72.71594,,"POF","Privately Owned Facility"
"COMEAU AUTO SALES","CT0000000901501143","CT","110001406693","811121",41.70056,-71.90737,,"POF","Privately Owned Facility"
"COMMERCIAL FOUNDRY CO","CT0000000900309038","CT","110001407406","331524",41.65323,-72.76246,,"POF","Privately Owned Facility"
"COMMUNITY AVE ASSOCIATES, LTD","CT0000000901501149","CT","110001758571","999999",41.67353,-71.91882,,"POF","Privately Owned Facility"
"COMMUNITY PLAYTHINGS","CT0000000900500803","CT","110001731494","339932",41.98089,-73.20731,,"POF","Privately Owned Facility"
"COMPLETE CONSTRUCTION CO, INC","CT0000000900908812","CT","110010337947","999999",41.3525,-73.088333,,"POF","Privately Owned Facility"
"COMPLETE ENVIRONMENTAL TESTING, INC.","CT0000000900108198","CT","110055434917","541380",41.1872,-73.13836,,,
"COMPO BROS RIGGING & HAULING","CT0000000900109177","CT","110001735882","999999",41.06101,-73.54548,,"POF","Privately Owned Facility"
"COMPONENT TECHNOLOGIES","CT0000000900309876","CT","110000763184","332813",41.70994,-72.74357,,"POF","Privately Owned Facility"
"COMPUTER SCIENCES CORPORATION","CT0000000900908557","CT","110001732135","541511",41.50043,-72.76161,,"POF","Privately Owned Facility"
"CONARC, INC.","CT0000000900508849","CT","110007353880","326199",41.67377,-72.99258,,"POF","Privately Owned Facility"
"CONARD CORPORATION","CT0000000900309283","CT","110016683310","325992",41.70973,-72.58813,,"POF","Privately Owned Facility"
"CONCO MEDICAL CO","CT0000000900100881","CT","110002056649","999999",41.20312,-73.17704,,"POF","Privately Owned Facility"
"CONKLIN LIMESTONE CO, INC","CT0000000900505017","CT","110007078697","212312",41.999102,-73.34581,,"POF","Privately Owned Facility"
"CONN AGGREGATES","CT0000000900906237","CT","110062733010","212319",41.5988341,-72.589071,,"POF","Privately Owned Facility"
"CONN ANODIZING & FINISHING CO","CT0000000900109056","CT","110016679931","332813",41.17681,-73.15906,0,"POF","Privately Owned Facility"
"CONN BANK & TRUST CO","CT0000000900106472","CT","110038657959","999999",41.05517,-73.53911,,"POF","Privately Owned Facility"
"CONN BRASS CORP, THE","CT0000000901105109","CT","110001408628","331528",41.48868,-72.03215,,"POF","Privately Owned Facility"
"CONN CHARCOAL CO","CT0000000901300054","CT","110002005277","325191",41.99747,-72.15255,,"POF","Privately Owned Facility"
"CONN CHILDREN'S MEDICAL CENTER","CT0000000900309174","CT","110001408888","622110",41.75382,-72.68282,,"POF","Privately Owned Facility"
"CONN COLLISION","CT0000000900109149","CT","110001408824","811121",41.05109,-73.52723,,"POF","Privately Owned Facility"
"CONN DAS / GENERAL SERVICES","CT0000000900700888","CT","110001729871","921190",41.557302,-72.621581,,"POF","Privately Owned Facility"
"CONN DEPT CHILD & YOUTH SERVICES","CT0000000900302009","CT","110021382788","999999",41.93156,-72.61515,,"STF","State Government"
"CONN DEPT CORR / CCI MED SECURITY","CT0000000900302160","CT","110013406545","922140",42.014218,-72.518801,,"STF","State Government"
"CONN DEPT CORR / JB GATES","CT0000000901105047","CT","110022665631","922140",41.333397,-72.240614,,"STF","State Government"
"CONN DEPT CORR / MANSON","CT0000000900908527","CT","110062722102","922140",41.52626,-72.90169,,"STF","State Government"
"CONN DEPT CORR / NORTHEAST","CT0000000901300818","CT","110030339747","922140",41.81384,-72.29479,,"STF","State Government"
"CONN DEPT CORR / ROBINSON","CT0000000900309237","CT","110021676471","922140",42.014093,-72.520509,,"STF","State Government"
"CONN DEPT OF CHILD & FAMILIES","CT0000000900908679","CT","110001747977","999999",41.35917,-72.89645,,"POF","Privately Owned Facility"
"CONN DEPT OF MOTOR VEHICLES","CT0000000900308253","CT","110001403927","999999",41.71839,-72.65767,,"POF","Privately Owned Facility"
"CONN DEPT OF PUBLIC SAFETY","CT0000000900908511","CT","110001747441","921190",41.54524,-72.79672,,"POF","Privately Owned Facility"
"CONN DEPT OF TRANSPORTATION HDQTRS","CT0000000900309152","CT","110030351116","999999",41.671653,-72.716672,,"POF","Privately Owned Facility"
"CONN DOT ROCKY HILL SIGN SHOP","CT0000000900309086","CT","110001734071","999999",41.640676,-72.676758,,"STF","State Government"
"CONN DPW - LEGIST OFFICE BLDG","CT0000000900308948","CT","110001406461","921190",41.762712,-72.68189,,"POF","Privately Owned Facility"
"CONN DPW / CHILDREN & FAMILIES","CT0000000900308894","CT","110001406032","921190",41.75668,-72.67875,,"POF","Privately Owned Facility"
"CONN DPW / STATE CAPITOL BLDG","CT0000000900308947","CT","110001406461","921190",41.762712,-72.68189,,"POF","Privately Owned Facility"
"CONN DPW / STATE OFFICE BLDG","CT0000000900303425","CT","110038656567","921190",41.76257,-72.68132,,"STF","State Government"
"CONN DPW C/O SERVUS MANAGEMENT","CT0000000900309099","CT","110001407870","921110",41.7606,-72.68205,,"POF","Privately Owned Facility"
"CONN EDUCATION ASSOC, INC","CT0000000900308923","CT","110001732028","813930",41.76234,-72.68417,,"POF","Privately Owned Facility"
"CONN ELEC SWITCH MFG","CT0000000900500453","CT","110007241822","335313",41.720278,-73.2375,,"POF","Privately Owned Facility"
"CONN ENGINEERING ASSOC CORP","CT0000000900108914","CT","110009271830","999999",41.41653,-73.26706,,"POF","Privately Owned Facility"
"CONN HUMANE SOCIETY","CT0000000900309156","CT","110001408361","999999",41.69989,-72.70559,,"POF","Privately Owned Facility"
"CONN LIGHT & POWER CO","CT0000000901501123","CT","110038640708","999999",41.884509,-71.892574,,"POF","Privately Owned Facility"
"CONN LIGHT & POWER CO","CT0000000900303057","CT","110001758330","999999",41.75919,-72.66676,,"POF","Privately Owned Facility"
"CONN MENTAL HEALTH CENTER","CT0000000900908772","CT","110001734767","622210",41.30516,-72.93627,,"POF","Privately Owned Facility"
"CONN ON-LINE COMPUTER CTR TRUST, INC","CT0000000900308888","CT","110001406050","999999",41.806187,-72.840934,,"POF","Privately Owned Facility"
"CONN PHOTO ENGRAVING CO","CT0000000900308974","CT","110001406513","999999",41.75869,-72.89627,,"POF","Privately Owned Facility"
"CONN PREC ELECTO PLATING, INC","CT0000000900908631","CT","110001732992","332813",41.557215,-73.034759,,"POF","Privately Owned Facility"
"CONN PRECAST CORP","CT0000000900109027","CT","110001733223","999999",41.35734,-73.23638,,"POF","Privately Owned Facility"
"CONN PRINTERS INC","CT0000000900300204","CT","110002332752","323110",41.81355,-72.70884,,"POF","Privately Owned Facility"
"CONN SPRING & STAMPING CORPORATION","CT0000000900302401","CT","110000315169","332612",41.70187,-72.87083,,"POF","Privately Owned Facility"
"CONN STEEL CORP","CT0000000900906650","CT","110000316649","331111",41.429568,-72.842255,0,"POF","Privately Owned Facility"
"CONN TRANSIT INC","CT0000000900302994","CT","110001758223","999999",41.75127,-72.68681,,"POF","Privately Owned Facility"
"CONN WASTE OIL CO","CT0000000900908671","CT","110001747879","454311",41.50703,-72.81661,,"POF","Privately Owned Facility"
"CONN. NATURAL GAS CORP. - LNG PLANT","CT0000000900300004","CT","110030397130","221210",41.63357,-72.67574,,"POF","Privately Owned Facility"
"CONNECTICUT AUTO BODY, INC","CT0000000900508904","CT","110001967408","811121",41.53541,-73.42291,,"POF","Privately Owned Facility"
"CONNECTICUT CLEANERS","CT0000000900309001","CT","110003013970","812320",41.77474,-72.63544,,"POF","Privately Owned Facility"
"CONNECTICUT COLLEGE","CT0000000901100172","CT","110001747343","611310",41.378484,-72.103632,,"POF","Privately Owned Facility"
"CONNECTICUT COLOR, INC.","CT0000000900901813","CT","110030350108","323111",41.52248,-72.76506,,,
"CONNECTICUT DEPT OF MENTAL RETARDATION","CT0000000900909917","CT","110012169170","999999",41.551176,-72.818091,,"STF","State Government"
"CONNECTICUT DEPT OF VETERANS AFFAIRS","CT0000000900306745","CT","110001729835","622310",41.65334,-72.65088,,"POF","Privately Owned Facility"
"CONNECTICUT DMHAS / CT VALLEY HOSPITAL","CT0000000900700107","CT","110002496978","622210",41.557839,-72.621232,,"STF","State Government"
"CONNECTICUT JET POWER - BRANFORD STATION","CT0000000900907518","CT","110010383343","221122",41.29224,-72.79352,,"POF","Privately Owned Facility"
"CONNECTICUT JET POWER - COS COB STATION","CT0000000900100088","CT","110001731010","221122",41.029336,-73.598885,,"POF","Privately Owned Facility"
"CONNECTICUT JET POWER - FRANKLIN DRIVE STATION","CT0000000900505014","CT","110002484678","221122",41.800586,-73.116486,,"POF","Privately Owned Facility"
"CONNECTICUT JET POWER - TORRINGTON TERMINAL","CT0000000900508847","CT","110002475045","221122",41.77608,-73.12018,,"POF","Privately Owned Facility"
"CONNECTICUT JUDICIAL ADMIN OFFICES","CT0000000900308954","CT","110001732705","922110",41.99772,-72.58768,,"STF","State Government"
"CONNECTICUT LIMO","CT00000009009E0003","CT","110003012597","999999",41.2314,-73.02866,,"POF","Privately Owned Facility"
"CONNECTICUT MUNICIPAL ELECTRIC ENERGY COOPERATIVE","CT0000000901100013","CT","110067159238","221122",41.54044,-72.09415,,,
"CONNECTICUT MUNICIPAL ELECTRIC ENERGY COOPERATIVE","CT0000000901100014","CT","110067158453","221122",41.567993,-72.11649,,,
"CONNECTICUT MUNICIPAL ELECTRIC ENERGY COOPERATIVE - BRIDGE STREET SITE","CT0000000901100015","CT","110067160253","221122",41.36258,-72.08214,,,
"CONNECTICUT MUNICIPAL ELECTRIC ENERGY COOPERATIVE - GARY COURT SUBSTATION","CT0000000901100016","CT","110067160217","221122",41.33687,-72.02011,,,
"CONNECTICUT MUNICIPAL ELECTRIC ENERGY COOPERATIVE - JEWETT CITY SITE","CT0000000901100012","CT","110067159461","221122",41.605513,-71.981925,,,
"CONNECTICUT MUNICIPAL ELECTRIC ENERGY COOPERATIVE - LEBANON PINES SITE","CT0000000901100002","CT","110067160538","221122",41.56787,-72.23182,,,
"CONNECTICUT MUNICIPAL ELECTRIC ENERGY COOPERATIVE - WATER TREATMENT PLANT","CT0000000901100017","CT","110067157267","221122",41.354409,-72.040266,,,
"CONNECTICUT POST","CT0000000900109145","CT","110007242563","999999",41.17415,-73.197309,,"POF","Privately Owned Facility"
"CONNECTICUT RESOURCES RECOVERY AUTHORITY","CT00000009003E0007","CT","110016703405","999999",41.73927,-72.65372,,"POF","Privately Owned Facility"
"CONNECTICUT RUBBER MOLDING CORP","CT0000000901501144","CT","110001406540","326299",41.8033,-71.88231,,"POF","Privately Owned Facility"
"CONNECTICUT SCRAP, LLC","CT0000000901100132","CT","110002493631","423930 999999",41.44292,-72.12117,,,
"CONNECTICUT TRANSIT INC - HARTFORD","CT0000000900303637","CT","110000863726","488490",41.78485,-72.65702,,"POF","Privately Owned Facility"
"CONNECTICUT TRANSIT INC - NEW HAVEN","CT0000000900903370","CT","110000787015","488490",41.315,-72.90411,,"POF","Privately Owned Facility"
"CONNECTICUT YANKEE - HADDAM NECK PLANT","CT0000000900700653","CT","110000880217","238910",41.47997,-72.48995,,"POF","Privately Owned Facility"
"CONOPCO D/B/A UNILEVER HPC","CT0000000900109079","CT","110000786935","999999",41.24061,-73.14618,,"POF","Privately Owned Facility"
"CONSOLIDATED INDUSTRIES ACQUISITION CORP","CT0000000900900701","CT","110016682829","336411",41.5222,-72.93373,0,"POF","Privately Owned Facility"
"CONSOLIDATED LAUNDRIES","CT0000000900903309","CT","110038662337","812332",41.310139,-72.910915,,"POF","Privately Owned Facility"
"CONSOLIDATED SCRAP IRON","CT0000000900908634","CT","110024523381","999999",41.586185,-73.073129,,"POF","Privately Owned Facility"
"CONSOLIDATED SCRAP IRON, LLC","CT0000000900900456","CT","110024523381","999999",41.586185,-73.073129,,"POF","Privately Owned Facility"
"CONSUMERS PETROLEUM OF CT","CT0000000900109174","CT","110005973722","999999",41.14737,-73.2488,,"POF","Privately Owned Facility"
"CONTE CAREER EDUC CENTER","CT0000000900904034","CT","110001730431","611110",41.304807,-72.917059,,"POF","Privately Owned Facility"
"CONTE SCHOOL","CT0000000900902002","CT","110064026085","611110",41.303704,-72.915645,,,
"CONTINENTAL AUTO BODY","CT0000000900709107","CT","110001407709","811121",41.56932,-72.62272,,"POF","Privately Owned Facility"
"CONTRACT PLATING CO","CT0000000900107960","CT","110011370275","332813",41.19901,-73.12424,,"POF","Privately Owned Facility"
"CONTRACTORS SUPPLY LLC","CT0000000900908621","CT","110001406871","999999",41.573466,-73.057511,,"POF","Privately Owned Facility"
"COON & SON, WILLIAM INC","CT0000000901105070","CT","110001406880","999999",41.454722,-71.946389,,"POF","Privately Owned Facility"
"COON & SON, WILLIAM INC","CT0000000901105081","CT","110062704248","999999",41.44134,-71.94409,,"POF","Privately Owned Facility"
"COOPER SURGICAL","CT0000000900108958","CT","110001732787","999999",41.29006,-73.10431,,"POF","Privately Owned Facility"
"COOPER TANK LLC DBA EAST COAST CONTAINER LLC","CT0000000900502957","CT","110018853828","332439 424130",41.581654,-73.065276,,"POF","Privately Owned Facility"
"CORBIN RUSSWIN, INC","CT0000000900300025","CT","110016683551","332999",41.64752,-72.73615,40,"POF","Privately Owned Facility"
"CORESLAB STRUCTURES (CONN), INC","CT0000000900508929","CT","110001409039","327390",41.63679,-73.07731,,"POF","Privately Owned Facility"
"CORNWALL & PATTERSON CO","CT0000000900102754","CT","110011370471","332212",41.16818,-73.20697,,"POF","Privately Owned Facility"
"CORRIGAN-RADGOWSKI CORR. INSTITUTE","CT0000000901105044","CT","110001732153","922140",41.452145,-72.107332,,"STF","State Government"
"COS COB CLEANERS & TAILORS","CT0000000900109007","CT","110003014611","812320",41.0567304,-73.5920204,,"POF","Privately Owned Facility"
"COS COB ELEMENTARY SCHOOL","CT0000000900103430","CT","110007078517","611110",41.029673,-73.596324,,"CTG","Municipality"
"COURIER-CITIZEN","CT0000000900901387","CT","110001404800","999999",41.358051,-72.926497,,"POF","Privately Owned Facility"
"COVANTA PROJECTS OF WALLINGFORD, L.P.","CT0000000900909910","CT","110001731234","562920",41.440278,-72.834722,,"POF","Privately Owned Facility"
"COVE CLEANERS","CT0000000900109019","CT","110001405266","812320",41.04896,-73.51202,,"POF","Privately Owned Facility"
"COVIDIEN LP","CT0000000900905468","CT","110000316417","339112",41.3383,-72.8701,55,"POF","Privately Owned Facility"
"COWAN-MANELL INC","CT0000000900180038","CT","110001403525","331512",41.452231,-73.400254,,"POF","Privately Owned Facility"
"COXE CAGE","CT0000000900908656","CT","110010383441","611310",41.30966,-72.96266,,"POF","Privately Owned Facility"
"COZ PLASTICS","CT0000000901500607","CT","110010337769","999999",41.847022,-71.817985,,"POF","Privately Owned Facility"
"CPV TOWANTIC, LLC","CT0000000900907825","CT","110070236290","221112",41.479021,-73.12118,,,
"CRAFTSMEN LITHO","CT0000000900908561","CT","110007242019","999999",41.53545,-73.03941,,"POF","Privately Owned Facility"
"CRAMER CO","CT0000000900309255","CT","110005973170","335312",41.77162,-72.84983,,"POF","Privately Owned Facility"
"CRAMER COMPANY","CT0000000900701352","CT","110000610768","335312",41.301856,-72.382423,,"POF","Privately Owned Facility"
"CRANBERRY AUTO SERVICE","CT0000000900109183","CT","110001735917","999999",41.14607,-73.39488,,"POF","Privately Owned Facility"
"CRAW & DIMARCO VETERINARIANS","CT0000000900109116","CT","110001748306","541940",41.17912,-73.40664,,"POF","Privately Owned Facility"
"CRAWFORD MANOR","CT0000000900903818","CT","110001730324","925110",41.306327,-72.935424,,"POF","Privately Owned Facility"
"CRC CHROME","CT0000000900908779","CT","110001408584","332813",41.539829,-72.795221,,"POF","Privately Owned Facility"
"CREED MONARCH, INC","CT0000000900309121","CT","110000315258","332721",41.66038,-72.77301,,"POF","Privately Owned Facility"
"CROMPTON CORP","CT0000000900908746","CT","110001734473","541711",41.3962,-73.00079,,"POF","Privately Owned Facility"
"CROMPTON CORPORATION","CT0000000900900018","CT","110016683490","325411",41.479542,-73.052944,,"POF","Privately Owned Facility"
"CROMWELL CONCRETE PRODUCTS, INC","CT0000000900709122","CT","110001408557","327320",41.63237,-72.64975,,"POF","Privately Owned Facility"
"CROMWELL GROWERS, INC","CT0000000900701507","CT","110030359975","111421",41.60481,-72.64744,,"POF","Privately Owned Facility"
"CROMWELL MIDDLE SCHOOL","CT0000000900709110","CT","110001733928","611110",41.6275,-72.65583,,"CTG","Municipality"
"CROP PRODUCTION SERVICES, INC","CT0000000900309019","CT","110001733018","325314",41.897984,-72.551721,,"POF","Privately Owned Facility"
"CROSS HIGH SCHOOL, WILBUR","CT0000000900904011","CT","110001730388","611110",41.32151,-72.9059,,"POF","Privately Owned Facility"
"CROSSWINDS CONDO C/O J BARNEY","CT0000000900106638","CT","110007079133","531110",41.05635,-73.52927,,"POF","Privately Owned Facility"
"CROUSE-HINDS AIRPORT LIGHTING PRODUCTS","CT0000000900300016","CT","110001405211","335311",41.89703,-72.65231,,"POF","Privately Owned Facility"
"CROWLEY BUICK OLDSMOBILE LLC","CT0000000900309264","CT","110003011785","811121",41.69951,-72.894,,"POF","Privately Owned Facility"
"CROWN CLEANERS","CT0000000900309029","CT","110007242288","812320",41.742204,-72.676203,,"POF","Privately Owned Facility"
"CROWN MANUFACTURING CORPORATION","CT0000000901105082","CT","110001407371","332322",41.37919,-72.16045,,"POF","Privately Owned Facility"
"CRRA / ELLINGTON LANDFILL","CT0000000901300825","CT","110007079295","999999",41.926783,-72.508953,,"POF","Privately Owned Facility"
"CRRA SOUTH MEADOW STATION","CT0000000900300096","CT","110062725608","221122",41.7651028,-72.6707563,,"POF","Privately Owned Facility"
"CRYSTAL CLEANERS","CT0000000900109005","CT","110001729247","812320",41.17807,-73.24259,,"POF","Privately Owned Facility"
"CRYSTAL HANGER CLEANERS","CT0000000900902024","CT","110072142077","812320",41.360654,-72.631684,,"POF","Privately Owned Facility"
"CRYSTAL HANGER CLEANERS","CT0000000900902025","CT","110072141976","812320",41.49058,-72.81517,,"POF","Privately Owned Facility"
"CRYSTAL HANGER CLEANERS","CT0000000900902023","CT","110072142007","812320",41.288707,-72.677659,,"POF","Privately Owned Facility"
"CRYSTAL HANGER CLEANERS","CT0000000900902022","CT","110072142006","812320",41.28285,-72.87801,,"POF","Privately Owned Facility"
"CSC 65 PROSPECT STREET LLP","CT0000000900105974","CT","110001746987","531110",41.05802,-73.5367,,"POF","Privately Owned Facility"
"CSR NEW ENGLAND PIPE","CT0000000900309249","CT","110002353444","327320",41.70566,-72.81926,,"POF","Privately Owned Facility"
"CT ACQUISITIONS LLC DBA DANVER","CT0000000900908519","CT","110000316658","337214",41.45431,-72.82771,,"POF","Privately Owned Facility"
