"AIRName","SourceID","AIRState","RegistryID","AIRNAICS","FacLat","FacLong","FacTRIAIRReleases","AIRFacilityTypeCode","AIRFacilityTypeDesc"
"123NET","MI00000000000P1634","MI","110072129374","518210",42.47092,-83.23874,,,
"16TH STREET PARTNERS","MI00000000000A5933","MI","110009597016","335312",42.783188,-86.082053,,"POF","Privately Owned Facility"
"2/90 SIGN SYSTEMS","MI00000000000N1511","MI","110003707944","339950",42.866612,-85.540794,,,
"2600 WBB, LLC","MI00000000000P0376","MI","110056435889","522110",42.56157,-83.18013,,,
"3M DETROIT ABRASIVES","MI00000000000N2999","MI","110000593055","327910",42.4489,-83.00238,851,,
"42 DEGREES PROCESSING, LLC","MI00000000000P1215","MI","110071312793","325411",44.7328,-85.166436,,,
"A & A CUSTOM CRUSHING","MI00000000000N7389","MI","110041216680","212321",41.8945,-84.0633,,"POF","Privately Owned Facility"
"A & E AGG. INC. (PLANT 2-PONTIAC CRUSHED CEMENT","MI00000000000N7444","MI","110040497049","212321",42.29015,-83.32612,,,
"A & K CREMATION SERVICES","MI00000000000N5647","MI","110045484365","812220",45.769299,-87.080358,,"POF","Privately Owned Facility"
"A & K FINISHING, INC.","MI00000000000N5155","MI","110012601194","336390",42.8863,-85.556,,,
"A & K FINISHING, INC.","MI00000000000N2585","MI","110000411787","336390",42.8875,-85.55233,,,
"A & L IRON & METAL - GAYLORD DIVISION","0500026137R5001","MI","110070690205","423930",45.0037,-84.709776,,,
"A C FOUNDRY INC","MI00000000000A0614","MI","110001842524","331524",42.33,-85.14098,,"POF","Privately Owned Facility"
"A G SIMPSON (USA), INC.","MI00000000000N2432","MI","110000405062","332813",42.54346,-83.04073,12,,
"A J CREMATION SERVICES INC","MI00000000000N5950","MI","110001300538","812220",42.6870157,-83.3886216,,"POF","Privately Owned Facility"
"A O SMITH ELECTRICAL PRODUCTS CO","MI00000000000B2657","MI","110000408407","335312",42.99117,-84.17307,,"POF","Privately Owned Facility"
"A T & T","MI00000000000M4787","MI","110003719138","517110",42.358607,-83.47529,,"POF","Privately Owned Facility"
"A W CUSTOM CHROME INC","MI00000000000N6394","MI","110007371806","332813",42.46512,-82.93822,,"POF","Privately Owned Facility"
"A1 TRUCK PARTS INC","MI00000000000N1254","MI","110062731370","441310",43.59609,-83.88926,,"POF","Privately Owned Facility"
"A123 SYSTEMS","MI00000000000P0024","MI","110054841374","335911",42.251712,-83.414788,,,
"AAA ASSOCIATES INC","MI00000000000B6618","MI","110001846931","325991",41.77258,-86.25493,,"POF","Privately Owned Facility"
"AACTRON INC","MI00000000000N0072","MI","110001442010","332813",42.5087,-83.11811,,,
"AALBERTS SURFACE TECHNOLOGIES AA, LLC N2473)","MI00000000000N2473","MI","110040905946","332811",42.71193,-84.55457,,,
"AAR MOBILITY SYSTEMS","MI00000000000B4197","MI","110000412009","332311",44.2511,-85.408,2416,,
"AAR MOBILITY SYSTEMS","MI00000000000N6420","MI","110021096044","332999",44.2607,-85.418,,,
"ABB INC.","MI00000000000N3359","MI","110008450489","332812",42.70784,-83.27349,,"POF","Privately Owned Facility"
"ABBOTT NUTRITION","MI00000000000A6380","MI","110017421226","311514",41.8095,-85.426,38922,,
"ABC BEVERAGE MANAGEMENT (7-UP OF DETROIT","0500000026163R0071","MI","110003615062","325412",42.37589,-83.2951,,"POF","Privately Owned Facility"
"ABLE WELDING INC","MI00000000000N5322","MI","110001843649","336390",43.34729,-84.14129,,"POF","Privately Owned Facility"
"ABSOLUTAIRE INC","MI00000000000N6518","MI","110001829344","332999",42.34012,-85.55796,,"POF","Privately Owned Facility"
"ACCESS BUSINESS GROUP, LLC","MI00000000000A2402","MI","110000410305","325611",42.955455,-85.479053,191,,
"ACCURATE TRUCK REPAIR","0500026081R5001","MI","110070226491","811111",42.882,-85.67802,,,
"ACE ASPHALT & PAVING CO INC","MI00000000000A1084","MI","110001825437","324121",43.09053,-83.66874,,"POF","Privately Owned Facility"
"ACE ASPHALT & PAVING CO. INC. - PLANT 4","MI00000000000N2626","MI","110015892060","324121",42.95855,-82.502153,,,
"ACE COMPANIES LLC","MI00000000000B8708","MI","110010306677","331314",42.139696,-86.438047,,,
"ACE-SAGINAW PAVING CO. - PLANT 10","MI00000000000N6439","MI","110028007537","324121",43.2507,-83.4289,,,
"ACE-SAGINAW PAVING CO. - PLANT 2","MI00000000000N1596","MI","110021091682","324121",43.44933,-83.93887,,,
"ACE-SAGINAW PAVING CO. - PLANT 4","MI00000000000N5597","MI","110040497058","324121",43.739816,-82.909509,,,
"ACE-SAGINAW PAVING CO. PLANT 3","MI00000000000B1597","MI","110001825446","324121",42.9685,-83.6465,,,
"ACE-SAGINAW PAVING COMPANY","MI00000000000N5403","MI","110063002272","324121",42.788378,-83.52908,0,,
"ACE-SAGINAW PAVING COMPANY - PLANT 9","MI00000000000N1580","MI","110001841909","324121",43.4616,-83.9172,,,
"ACME MFG CO","MI00000000000N5832","MI","110007275867","333518",42.50458,-83.11219,,"POF","Privately Owned Facility"
"ACORE DOOR CO","MI00000000000N6204","MI","110003597625","332321",41.935614,-85.020494,,"POF","Privately Owned Facility"
"ACORE DOOR COMPANY","MI00000000000B8716","MI","110009597310","332321",41.93061,-85.0279,,"POF","Privately Owned Facility"
"ACORN WINDOW SYSTEMS INC","MI00000000000B8715","MI","110000779881","332321",41.94635,-84.88708,,"POF","Privately Owned Facility"
"ACT TEST PANELS LLC","MI00000000000N1122","MI","110000409987","332812",41.9402,-84.6538,,,
"ACTION PACKAGING","MI00000000000N3293","MI","110007275894","322211",42.23096,-84.36763,,,
"ACUTEX, INC. DBA HILITE INTERNATIONAL","MI00000000000A4302","MI","110031510274","541380",43.21487,-86.2457,,,
"ADA COGENERATION LLC","MI00000000000N1784","MI","110061855381","221112",42.955455,-85.479053,,,
"ADAC AUTOMOTIVE MUSKEGON PLANTS","MI00000000000B6528","MI","110000899975","336390",43.21511,-86.19582,,,
"ADAC AUTOMOTIVE SARANAC PLANT","MI00000000000N5658","MI","110003692291","336399",42.934265,-85.1959,,"POF","Privately Owned Facility"
"ADAMO DEMOLITION CO - FINTEC 1107 CRUSHER","MI00000000000P0558","MI","110067012066","212319",42.432322,-83.100079,,,
"ADAMS PLATING","MI00000000000N0024","MI","110007371502","332813",42.739439,-84.587781,,"POF","Privately Owned Facility"
"ADC INC","MI00000000000N6351","MI","110021109334","327390",42.432322,-83.100079,,,
"ADELANTE MANUFACTURING","MI00000000000N5701","MI","110012600587","326140",41.88248,-84.03171,,"POF","Privately Owned Facility"
"ADHESIVE SYSTEMS INC","0500000026163R5010","MI","110000890769","325520",42.403757,-83.115446,,"POF","Privately Owned Facility"
"ADIENT ROMULUS","MI00000000000M4492","MI","110000406187","326150",42.186111,-83.3925,0,,
"ADIENT US, LLC","MI00000000000N5864","MI","110000406025","336360",42.38337,-83.5278,,,
"ADM GRAIN CO","MI00000000000B4311","MI","110007224823","424510",41.797209,-83.708743,,"POF","Privately Owned Facility"
"ADM GRAIN COMPANY","MI00000000000M3912","MI","110040854741","424510",42.77037,-84.73954,,"POF","Privately Owned Facility"
"ADRIAN ENERGY ASSOCIATES","MI00000000000P0426","MI","110056285693","221118",41.8911,-83.9929,,,
"ADRIAN FABRICATORS INC.","MI00000000000A2862","MI","110000409870","332618",41.889451,-84.040956,,,
"ADRIAN LANDFILL","MI00000000000N2369","MI","110001300020","562212",41.890683,-83.992445,,,
"ADRIAN RACK CO INC","MI00000000000A2868","MI","110001320197","332313",41.88801,-84.03367,,"POF","Privately Owned Facility"
"ADRIAN STEEL CO","MI00000000000B2288","MI","110001320204","332999",41.88733,-84.02549,1,"POF","Privately Owned Facility"
"ADS US INCORPORATED","MI00000000000M4247","MI","110041994036","323113",43.287772,-83.530773,,"POF","Privately Owned Facility"
"ADVANCE CENTRAL SERVICES MICHIGAN","MI00000000000P0104","MI","110020477624","511110",43.0226,-85.72625,,,
"ADVANCE ENGINEERING CO","MI00000000000A7469","MI","110001845424","332119",42.37372,-83.28233,,"POF","Privately Owned Facility"
"ADVANCE ENGINEERING CO.","MI00000000000P0687","MI","110069993338","332119",42.339562,-83.453684,,,
"ADVANCE PACKAGING CORP","MI00000000000B6041","MI","110003585004","322211",42.89803,-85.55695,,"POF","Privately Owned Facility"
"ADVANCE PLATING & FINISHING","MI00000000000B7841","MI","110000411527","332813",42.93641,-85.66713,,"POF","Privately Owned Facility"
"ADVANCE PLATING & FINISHING INC.","MI00000000000N1305","MI","110002472404","332813",42.93546,-85.64727,,"POF","Privately Owned Facility"
"ADVANCED ARCHITECTURAL PRODUCTS","MI00000000000P0686","MI","110069992970","326140",42.666073,-85.993009,,,
"ADVANCED FIBERMOLDING INC","MI00000000000N5085","MI","110000593304","326199",43.74256,-85.48356,,"POF","Privately Owned Facility"
"ADVANCED FIBERMOLDING INCORPORATED","MI00000000000N6515","MI","110002472217","326199",44.017074,-85.558497,42774,,
"ADVANCED HEAT TREAT CORPORATION","MI00000000000N6452","MI","110000405972","332811",41.92047,-83.36854,11398,,
"ADVANCED MICRONUTRIENT PRODUCTS, INC.","MI00000000000B1989","MI","110000407970","325314",43.44184,-83.75072,7702,,
"ADVANCED PAVING CO INC","MI00000000000N1502","MI","110002026824","324121",42.662503,-84.674347,,"POF","Privately Owned Facility"
"ADVANCED RESOURCE RECOVERY","MI00000000000B3244","MI","110000614381","562219",42.29002,-83.30648,,"POF","Privately Owned Facility"
"ADVANCED RESOURCE RECOVERY","0500000026163R0064","MI","110000614381","562219",42.29002,-83.30648,,"POF","Privately Owned Facility"
"AEP COOK NUCLEAR PLANT","MI00000000000B4252","MI","110009598774","221113",41.97761,-86.54291,,,
"AERO MOTIVE MFG CO","MI00000000000A2158","MI","110000767457","333612",42.266642,-85.517944,,"POF","Privately Owned Facility"
"AEROQUIP CORP","MI00000000000B7353","MI","110002026744","336413",42.59002,-83.05495,,"POF","Privately Owned Facility"
"AEVITAS SPECIALTY SERVICES CORP","0500026163R5010","MI","110042013889","562213",42.365441,-82.966067,,,
"AFTM CORP","MI00000000000N1775","MI","110022904892","327320",42.57908,-83.87991,,"POF","Privately Owned Facility"
"AGCO, INC","MI00000000000N5101","MI","110054256880","326191",43.572561,-85.085853,10600,,
"AGET MANUFACTURING CO","MI00000000000B2289","MI","110000409898","333413",41.8961,-84.01659,,,
"AGGREGATE & DEVELOPING LLC","MI00000000000N5816","MI","110045485462","212321",42.50207,-85.79213,,"POF","Privately Owned Facility"
"AGGREGATE INDUSTRIES","MI00000000000N3177","MI","110001849144","212321",42.26502,-85.6569,,"POF","Privately Owned Facility"
"AGGREGATE INDUSTRIES - AC1 PORTABLE PLAN","MI00000000000N6283","MI","110045489538","212321",42.282531,-85.55367,,"POF","Privately Owned Facility"
"AGGREGATE INDUSTRIES - CHELSEA PLANT","MI00000000000N5436","MI","110013868172","212321",42.32172,-84.13137,,"POF","Privately Owned Facility"
"AGGREGATE INDUSTRIES - WAYLAND PLANT","MI00000000000N6046","MI","110013844643","212321",42.707499,-85.545297,,"POF","Privately Owned Facility"
"AGRITEK","MI00000000000B6681","MI","110007275368","425120",42.13507,-84.80866,,"POF","Privately Owned Facility"
"AIR BOSS, INC","MI00000000000M3884","MI","110009596614","326211",42.38198,-86.2755,,"POF","Privately Owned Facility"
"AIR PRODUCTS AND CHEMICALS - DETROIT HYDROGEN FACILITY MARATHON REFINERY","0500026163R5017","MI","110054838459","325120",42.28689,-83.15642,4795,"POF","Privately Owned Facility"
"AIR PRODUCTS AND CHEMICALS, INC.","MI00000000000P1533","MI","110071992815","325120",42.286907,-83.156339,,,
"AIR PRODUCTS AND CHEMICALS, INC.","MI00000000000P1487","MI","110000534431","325120",43.59616,-84.20775,,,
"AIRGAS GREAT LAKES-MIDLAND","0500000026111R5002","MI","110063166327","325120",43.58342,-84.20091,,"POF","Privately Owned Facility"
"AIS CONSTRUCTION EQUIPMENT CORP","MI00000000000N6400","MI","110012601130","325510",42.76527,-84.58536,,"POF","Privately Owned Facility"
"AISIN WORLD CORP OF AMERICA, INC.","MI00000000000N8232","MI","110041891307","541380",42.2919,-83.6764,,,
"AJAX MATERIALS CORP","MI0000002616305713","MI","110039636123","324121",42.06686,-83.23543,,"POF","Privately Owned Facility"
"AJAX MATERIALS CORP","MI0000002616363039","MI","110039636123","324121",42.06686,-83.23543,,"POF","Privately Owned Facility"
"AJAX MATERIALS CORP","MI00000000000M4601","MI","110001680217","324121",42.066898,-83.233999,,,
"AJAX MATERIALS CORP.","MI00000000000B5529","MI","110015840287","324121",42.44422,-83.2335,,"POF","Privately Owned Facility"
"AJAX MATERIALS CORPORATION","MI00000000000B1956","MI","110008449385","324121",42.70883,-83.232596,,,
"AJAX MATERIALS CORPORATION","MI00000000000B4137","MI","110007275288","212312 324121",42.64581,-83.17896,,,
"AJAX MATERIALS CORPORATION","MI00000000000B4138","MI","110001298881","324121",42.48768,-83.041626,,,
"AJAX MATERIALS CORPORATION","MI00000000000N6579","MI","110015797583","324121",42.7217,-82.80086,,,
"AJAX MATERIALS CORPORATION","MI00000000000B3120","MI","110001680761","324121",42.2438,-83.3107,,,
"AJAX MATERIALS CORPORATION - PLANT 4","MI00000000000P1171","MI","110071219873","324121",43.078572,-83.668731,,,
"AJAX MATERIALS CORPORATION - PLANT 6","MI00000000000B5823","MI","110001298809","324121",42.4973,-83.6943,,,
"AJAX METAL PROCESSING INC.","MI00000000000B5830","MI","110000406551","332813",42.369,-83.0222,14049,,
"AJAX PAVING INDUSTRIES - PLANT M-522","MI00000000000P0392","MI","110072112044","237310 812220",42.53377,-83.17808,,,
"AJAX PAVING INDUSTRIES INC","MI00000000000N3744","MI","110010392397","327390",42.5755792,-83.9233806,,"POF","Privately Owned Facility"
"AKWEL CADILLAC USA, INC.","MI00000000000A9365","MI","110000411947","326299",44.26082,-85.416615,2486,,
"AKZONOBEL COATINGS INC.","MI00000000000B4145","MI","110015888912","325510",42.6263,-83.2891,3500,,
"ALBA CPF CHESTONIA 27","MI00000000000N7217","MI","110021121187","211130",44.9728,-85.0275,,,
"ALBAR INDUSTRIES, INC.","MI00000000000N0802","MI","110017433534","326199",43.04136,-83.30771,2966,,
"ALBRECHT SAND AND GRAVEL","MI00000000000N1656","MI","110002026815","324121",43.417365,-82.979907,,,
"ALCO NVC, INC","0500000026163R0022","MI","110000406800","325510",42.36286,-82.96788,250,"POF","Privately Owned Facility"
"ALCOTEC WIRE CORP","MI00000000000N3945","MI","110001852460","331319",44.74322,-85.56745,,"POF","Privately Owned Facility"
"ALDRICH OIL CO","MI00000000000M4037","MI","110001847164","424710",41.89459,-84.0197,,"POF","Privately Owned Facility"
"ALEXIS MANUFACTURING CO","MI00000000000A2243","MI","110001852585","337122",42.98857,-85.6755,,"POF","Privately Owned Facility"
"ALGONAC CAST PRODUCTS, INC.","MI00000000000A6260","MI","110000404492","331525",42.62939,-82.54479,,"POF","Privately Owned Facility"
"ALL COTE COATING","MI00000000000N6714","MI","110002375233","332812",42.46208,-83.03501,,"POF","Privately Owned Facility"
"ALLEGIANCE HEALTH","MI00000000000E2236","MI","110021161446","622110",42.25007,-84.39352,,"POF","Privately Owned Facility"
"ALLIED CHUCKER & ENG","MI00000000000N5543","MI","110001852549","332710",42.258996,-84.407206,,"POF","Privately Owned Facility"
"ALLIED CONCRETE PRODUCTS INC","MI00000000000B6641","MI","110001441583","212321",43.61103,-84.20337,,"POF","Privately Owned Facility"
"ALLIED FINISHING INC","MI00000000000B6196","MI","110000411625","332813",42.88889,-85.56933,65,"POF","Privately Owned Facility"
"ALLIED KELITE PRO DV","MI00000000000B0184","MI","110001680798","325998",42.40672,-83.1126,,"POF","Privately Owned Facility"
"ALLIED MOTION OWOSSO","MI00000000000H2781","MI","110000408425","335312",42.9902,-84.2046,,,
"ALLNEX USA INC.","MI00000000000B1677","MI","110000408746","325199",42.269722,-85.545556,6681,,
"ALLOY RESOURCE CORPORATION","MI00000000000N7888","MI","110070331144","331314",43.21431,-86.1957,339,,
"ALMA PRODUCTS CO","MI00000000000B2487","MI","110001680547","336399",43.37596,-84.65377,,"POF","Privately Owned Facility"
"ALMA PRODUCTS I INC","MI00000000000B4373","MI","110002463076","336399",43.38873,-84.63352,,"POF","Privately Owned Facility"
"ALMOND PRODUCT, INC.","MI00000000000B8718","MI","110001441725","332812",43.20143,-86.21409,,"POF","Privately Owned Facility"
"ALMOND PRODUCTS INC","MI00000000000N6578","MI","110011125415","332812",43.0807,-86.1547,,,
"ALPENA POWER GENERATION","MI00000000000N7524","MI","110064259813","221112",45.104514,-83.411738,,"POF","Privately Owned Facility"
"ALPENA POWER GENERATION, L.L.C., CALCITE","MI00000000000N6607","MI","110007396932","221112",45.415495,-83.802419,,"POF","Privately Owned Facility"
"ALPENA POWER GENERATION, L.L.C., DEVERE","MI00000000000N6766","MI","110021109655","221112",45.065436,-83.483059,,"POF","Privately Owned Facility"
"ALPENA POWER GENERATION, L.L.C., FORD AV","MI00000000000N7527","MI","110028258141","221112",45.074037,-83.403884,,"POF","Privately Owned Facility"
"ALPENA POWER GENERATION, L.L.C., LONG LA","MI00000000000N6596","MI","110013868332","221112",45.088712,-83.431529,,"POF","Privately Owned Facility"
"ALPENA POWER GENERATION, L.L.C., ROCKPOR","MI00000000000N6597","MI","110012162783","221112",45.18571,-83.40247,,"POF","Privately Owned Facility"
"ALPENA POWER GENERATION-S","MI00000000000N6919","MI","110024417521","221112",45.0943065,-83.476214,,"POF","Privately Owned Facility"
"ALPHA BIOENERGY, LLC","0500026125R5001","MI","110069993069","424720",42.55801,-83.3084,,,
"ALPHA RESOURCES, INC.","MI00000000000N6951","MI","110006175968","334515",42.00722,-86.52455,,"POF","Privately Owned Facility"
"ALPHA-TECHNOLOGY CORP","MI00000000000A2933","MI","110001441128","331522",42.60022,-83.93672,,"POF","Privately Owned Facility"
"ALTA LIFT TRUCK SERVICES, INC","MI00000000000N6319","MI","110044977442","336399",42.50206,-83.5161,,"POF","Privately Owned Facility"
"ALTO LP GAS INC.","0500026081R5008","MI","110067214464","424720",42.85556,-85.3705,,,
"ALUMINUM FABRICATION CORPORATION","MI00000000000N2191","MI","110001845157","336390",42.89802,-85.57282,,,
"ALUTECH, LLC","MI00000000000P0340","MI","110031411657","331523",42.1371,-86.44184,4,"POF","Privately Owned Facility"
"ALUTECH, LLC","MI00000000000N0804","MI","110000409665","331523",42.01055,-86.52113,5,"POF","Privately Owned Facility"
"AMCANE SUGAR LLC","MI00000000000M4732","MI","110031371236","311312",42.26256,-83.24136,,"POF","Privately Owned Facility"
"AMERASTAR, INC.","MI00000000000A3938","MI","110001840839","332999",43.951489,-86.44778,,"POF","Privately Owned Facility"
"AMERESCO WOODLAND MEADOWS ROMULUS LLC","MI00000000000P0317","MI","110055597778","486990",42.272909,-83.426852,,,
"AMERICAN AGGREGATES OF MICHIGAN INC","MI00000000000N2939","MI","110001845308","212321",42.76333,-83.09176,,"POF","Privately Owned Facility"
"AMERICAN AGGREGATES OF MICHIGAN INC HIGH","MI00000000000N6023","MI","110040890961","212321",42.68886,-83.6651,,"POF","Privately Owned Facility"
"AMERICAN AGGREGATES OF MICHIGAN INC OXFO","MI00000000000B7204","MI","110001679648","212321",42.8519,-83.2899,,"POF","Privately Owned Facility"
"AMERICAN AUTOCOAT INC","MI00000000000N7174","MI","110015325227","336390",42.8532,-85.87072,1207,,
"AMERICAN AXLE & MFG","MI00000000000B2150","MI","110000406757","336350",42.3889,-83.0628,,"POF","Privately Owned Facility"
"AMERICAN AXLE & MFG INC","MI00000000000B3289","MI","110002379480","332111",42.384985,-83.058234,,"POF","Privately Owned Facility"
"AMERICAN CHEMICAL SOLUTIONS, LLC","MI00000000000B4302","MI","110000410984","325130",43.208602,-86.214648,,,
"AMERICAN COIL SPRING CO","MI00000000000A4261","MI","110001679737","332116",43.21587,-86.21809,,"POF","Privately Owned Facility"
"AMERICAN COLLOID CO","MI00000000000B7010","MI","110015680084","327992",42.254316,-84.765348,,"POF","Privately Owned Facility"
"AMERICAN COMPOUNDING SPECIALTIES","MI00000000000N7969","MI","110031321175","325991",42.65827,-84.0772,,"POF","Privately Owned Facility"
"AMERICAN COMPOUNDING SPECIALTIES","MI00000000000P0310","MI","110044813896","325991",42.519085,-83.764221,,"POF","Privately Owned Facility"
"AMERICAN CUTTER & ENGINEERING CORP","MI00000000000A3233","MI","110001441324","333514",42.52415,-83.04725,,"POF","Privately Owned Facility"
"AMERICAN FIBERGLASS TECH","MI00000000000N6499","MI","110001825776","326130",42.102197,-84.406887,,"POF","Privately Owned Facility"
"AMERICAN JETWAY CORPORATION","0500026163R5014","MI","110003560913","325998",42.281272,-83.361885,5150,,
"AMERICAN LITHO","MI00000000000N7316","MI","110020486838","323111",42.24234,-83.4455,,,
"AMERICAN PORCELAIN ENAMEL","MI00000000000B1900","MI","110001679755","325998",43.21588,-86.21258,,"POF","Privately Owned Facility"
"AMERICAN RACK COMPANY","MI00000000000P0384","MI","110055573696","332812",42.87354,-85.52826,,,
"AMERICAN RHEINMETALL","MI00000000000A1640","MI","110000614265","336992",42.75263,-84.5446,,,
"AMERICAN SEATING COMPANY","MI00000000000B1713","MI","110000411420","337127",42.9801,-85.6801,,,
"AMERICAN STEEL CORP","MI00000000000A4771","MI","110000779890","331221",42.41938,-83.02936,,"POF","Privately Owned Facility"
"AMERICAN TEMPERATURE SERVICE, INC.","0500000026125R0003","MI","110064161053","486210",42.48696,-83.50312,,"POF","Privately Owned Facility"
"AMERICAN TIMBER HOMES INC","MI00000000000B1571","MI","110007270764","321992",45.7741013,-87.1362904,,"POF","Privately Owned Facility"
"AMERICAN WOODCRAFT INC","MI00000000000C5773","MI","110008453271","337110",42.075059,-85.138956,,"POF","Privately Owned Facility"
"AMERICHEM SALES CORPORATION","MI00000000000M3648","MI","110056954620","325998",42.58425,-84.448115,1944,,
"AMERIKAM","MI00000000000A2677","MI","110003583088","332721",42.93895,-85.70103,,,
"AMERITI MANUFACTURING COMPANY","MI00000000000A8892","MI","110070740392","331110",42.43647,-83.03784,,,
"AMERIWOOD INDUSTRIES","MI00000000000A0749","MI","110000409175","337122 493110",41.98225,-86.10485,,,
"AMERIWOOD INDUSTRIES","0500026027R5001","MI","110000409175","337122 493110",41.98225,-86.10485,,,
"AMOCO DOME","MI00000000000N6220","MI","110009595517","211112",45.943436,-86.97199,,"POF","Privately Owned Facility"
"AMOCO OIL & GAS INC","MI00000000000B8972","MI","110043783340","221210",44.69818,-85.19514,,"POF","Privately Owned Facility"
"AMOCO PRODUCTION COMPANY","MI00000000000B5583","MI","110002026673","221210",44.512762,-85.402106,,"POF","Privately Owned Facility"
"AMP INDUSTRIES","MI00000000000N0092","MI","110001300057","326199",42.6035,-82.85562,,"POF","Privately Owned Facility"
"AMRIZE BUILDING ENVELOPE LLC","MI00000000000N1749","MI","110001683054","313310",43.418855,-83.8679,88,,
"AMRIZE BUILDING ENVELOPE LLC","MI00000000000B2013","MI","110012601318","322130",41.8404,-85.6517,0,,
"AMRIZE CEMENT INC.","MI00000000000B1477","MI","110015742605","327310",45.0722,-83.4048,103027,,
"AMRIZE GREAT LAKES INC.","MI00000000000M1891","MI","110000733065","212312",45.2903,-83.4262,,,
"AMSTORE CORP","MI00000000000N0833","MI","110011688450","337212",43.21587,-86.21409,,"POF","Privately Owned Facility"
"ANCAST INC.","MI00000000000N7276","MI","110020518527","331513",42.0724,-86.38063,,,
"ANCHOR COUPLING INC","MI00000000000N0668","MI","110027375418","332912",45.147695,-87.617667,0,"POF","Privately Owned Facility"
"ANDERSON DEVELOPMENT COMPANY","MI00000000000A2851","MI","110000607843","325211",41.894444,-84.016389,3411,,
"ANDRONACO INDUSTRIES","MI00000000000N5535","MI","110001827186","326122",42.8835,-85.56159,,,
"ANGELO'S CRUSHED CONCRETE, INC","MI00000000000B6613","MI","110001298792","324121",42.524461,-83.583982,,,
"ANR -- RAPID RIVER COMPRESSOR STATION","MI00000000000B7197","MI","110001840456","486210",44.771871,-85.129396,,,
"ANR PIPELINE - CENTRAL CHARLTON COMPRESSOR STATION","MI00000000000B7390","MI","110007271424","486210",45.01296,-84.3819,,,
"ANR PIPELINE - REED CITY COMPRESSOR STATION","MI00000000000B3721","MI","110001847869","486210",43.925667,-85.542577,,,
"ANR PIPELINE CO -  WOOLFOLK COMPRESSOR STATION","MI00000000000B7220","MI","110040962303","486210",43.6249,-85.3844,,,
"ANR PIPELINE CO. -  WINFIELD COMPRESSOR STATION","MI00000000000N5578","MI","110001847832","486210",43.4386,-85.5141,,,
"ANR PIPELINE CO. - GOODWELL COMPRESSOR STATION","MI00000000000N5576","MI","110041987758","486210",43.6284,-85.632,,,
"ANR PIPELINE CO.-MUTTONVILLE COMPRESSOR STATION","MI00000000000B8337","MI","110007595904","486210",42.76499,-82.7468,,,
"ANR PIPELINE COMPANY - BRIDGMAN COMPRESSOR STATION","MI00000000000N5575","MI","110022883003","486210",41.897126,-86.534271,,,
"ANR PIPELINE COMPANY - CAPAC COMPRESSOR STATION","MI00000000000B6481","MI","110001843006","486210",43.03757,-82.94916,,,
"ANR PIPELINE COMPANY - HAMILTON COMPRESSOR STATION","MI00000000000N5574","MI","110001847734","486210",42.66621,-85.95642,,,
"ANR PIPELINE COMPANY LINCOLN COMPRESSOR STATION","MI00000000000N5586","MI","110002027869","486210",43.942122,-84.93902,,,
"ANR PIPELINE COMPANY WINFIELD DEHY PLANT","MI00000000000N6245","MI","110012601283","486210",43.449247,-85.432207,,,
"ANR PIPELINE COMPANY, SOUTH CHESTER COMPRESSOR STATION","MI00000000000B7219","MI","110008449839","486210",44.9119,-84.5404,,,
"ANR PIPELINE-COLD SPRINGS12 /BLUE LAKE/ COLD SPRINGS 1","MI00000000000B7198","MI","110013860526","486210",44.84469,-84.96916,,,
"ANR STORAGE COMPANY - EXCELSIOR COMPRESSOR STATION","MI00000000000B7196","MI","110001840447","486210",44.7717,-85.073345,,,
"ANTHONY AND CO INC","MI00000000000A0878","MI","110001825393","321999",45.76468,-87.07973,,"POF","Privately Owned Facility"
"AP PARTS CO","MI00000000000B2482","MI","110001679586","336399",43.85326,-83.95811,,"POF","Privately Owned Facility"
"APEX MARINE","0500000026057R0002","MI","110024519788","334511",43.39542,-84.61169,,"POF","Privately Owned Facility"
"APEX RACK AND COATING CO","MI00000000000A2645","MI","110001826800","332812",42.935486,-85.649455,,"POF","Privately Owned Facility"
"APPLIED COATINGS  INC","MI00000000000N1487","MI","110001852567","332812",42.27412,-85.55644,,"POF","Privately Owned Facility"
"APTERA MOTORS","MI00000000000P0108","MI","110062742643","336360",42.898297,-85.641005,,,
"AQUATIC CO","MI00000000000B2025","MI","110010302163","326191",41.93265,-85.64453,65114,,
"ARAMCO AMERICAS COMPANY","MI00000000000P0445","MI","110056513349","541715",42.512769,-83.509475,,,
"ARAUCO NORTH AMERICA","MI00000000000P0699","MI","110070380218","321219",44.6026,-84.6826,,,
"ARBOR HILLS ENERGY, LLC","MI00000000000N1504","MI","110071992817","221118",42.39161,-83.5573,,,
"ARBOR HILLS LANDFILL, INC.","MI00000000000N2688","MI","110015815402","221118 562212",42.406821,-83.556249,,,
"ARBOR OPERATING GRAND CANYON CPF","MI00000000000P0268","MI","110055597750","221210",45.1172,-84.7075,,,
"ARCHITECTURAL DOOR AND MILLWORK, INC.","MI00000000000N1513","MI","110038458059","321911",42.51121,-83.596,,,
"ARCO ALLOYS CORP","MI00000000000B2159","MI","110000406677","331492",42.37438,-83.05386,235,"POF","Privately Owned Facility"
"ARETE INDUSTRIES INCORPORATED","MI00000000000N2239","MI","110045446013","321999",45.2076,-84.98951,,,
"ARGONICS INC","MI00000000000N3954","MI","110001843943","326113",46.564,-87.41108,,"POF","Privately Owned Facility"
"ARISTO-COTE INC.","MI00000000000N6938","MI","110002357002","332312",42.60978,-82.85776,,,
"ARKEMA, INC.","MI00000000000E4569","MI","110000411572","325211",42.93843,-85.67562,7707,,
"ARKTO VENTURES","MI00000000000P0423","MI","110003672017","333618",42.522746,-83.588906,,,
"ARMADA RUBBER MANUFACTURING CO","MI00000000000N5696","MI","110000404508","326299",42.84574,-82.86929,0,"POF","Privately Owned Facility"
"ARMALY SPONGE COMPANY","MI00000000000N3409","MI","110000405259","326150",42.542486,-83.463794,21,,
"ARMORCLAD, INC.","MI00000000000N6362","MI","110001848920","332813",42.470703,-83.391617,,"POF","Privately Owned Facility"
"ARVRON INC","MI00000000000N5296","MI","110001843881","326140",42.87855,-85.67784,,,
"ASAHI KASEI PLASTICS NORTH AMERICA, INC.","MI00000000000N6707","MI","110017844154","325991",42.64952,-84.05751,0,,
"ASAMA COLDWATER MANUFACTURING, INC.","MI00000000000N5814","MI","110013287399","331511",41.9494,-84.975,22,,
"ASC INC","MI00000000000M4397","MI","110001845567","336211",42.38028,-83.38104,,,
"ASC INC","MI00000000000N0698","MI","110002472226","336211",42.74831,-84.57865,,"POF","Privately Owned Facility"
"ASC INCORPORATED","MI00000000000N7322","MI","110024887185","336211 336350",42.10506,-83.22004,,,
"ASCENSION GENESYS HOSPITAL","MI00000000000N6016","MI","110003700120","622110",42.89262,-83.6414,,,
"ASCENSION ST. JOHN HOSPITAL","MI00000000000M1812","MI","110003603413","622110",42.41897,-82.91492,,,
"ASCENTION PROVIDENCE SOUTHFIELD HOSPITAL","MI00000000000M1967","MI","110007371717","622110",42.45922,-83.2053,,,
"ASH STEVENS LLC","MI00000000000N7519","MI","110000406445","325412",42.17201,-83.17414,449,,
"ASHER OIL AZTEC PLANT","MI00000000000B7093","MI","110001840633","211130",44.26343,-86.32291,,,
"ASPEN LUMBER CO","MI00000000000N0625","MI","110001680690","321113",46.0732203,-88.0472616,,"POF","Privately Owned Facility"
"ASPHALT PAVING, INC","MI00000000000B1893","MI","110001841017","324121",43.2055,-86.2184,,,
"ASPHALT PAVING, INC.","MI00000000000P1209","MI","110071524426","324121",43.252565,-86.223792,,,
"ASPHALT PRODUCTS CORP","MI00000000000N0675","MI","110002025763","324121",42.72429,-83.48174,,"POF","Privately Owned Facility"
"ASTRO CAP MFG","MI00000000000B8895","MI","110000405650","326199",42.32659,-83.96253,,"POF","Privately Owned Facility"
"AT&T","MI00000000000M4785","MI","110003611048","517110",42.332503,-83.05163,,"POF","Privately Owned Facility"
"ATCON INTERNATIONAL, LTD.","MI00000000000N6878","MI","110002356539","332721",42.85013,-86.09871,,"POF","Privately Owned Facility"
"ATI CASTING SERVICE LLC","MI00000000000A0095","MI","110056656774","331511",45.06714,-83.44842,,,
"ATLANTIC PACKAGING","MI00000000000B6608","MI","110000409031","322220",42.12242,-86.42801,,,
"ATLAS EPS, A DIVISION OF ATLAS ROOFING CORP.","MI00000000000N1794","MI","110001845148","326140",42.81524,-85.72302,,,
"ATLAS GAS & OIL - NORTH RUST NEVER SLEEP","MI00000000000N6117","MI","110040859185","211111",44.9096,-83.9769,,"POF","Privately Owned Facility"
"ATLAS GAS & OIL COMPANY - BRUSH LIMBAUGH","MI00000000000N8255","MI","110045489002","211111",45.0284,-83.9425,,"POF","Privately Owned Facility"
"ATLAS GAS & OIL COMPANY - LOUDBERT","MI00000000000N6106","MI","110013838268","211111",44.9391,-84.123,,"POF","Privately Owned Facility"
"ATLAS GAS AND OIL COMPANY - JORDAN 35","MI00000000000N6055","MI","110043284068","211111",45.0364,-85.0119,,"POF","Privately Owned Facility"
"ATLAS GAS AND OIL COMPANY - WARNER 13","MI00000000000N6057","MI","110013860562","211111",45.0645,-84.8561,,"POF","Privately Owned Facility"
"ATMOSPHERE ANNEALING INC","MI00000000000N0478","MI","110000408586","332811",42.75345,-84.575635,,"POF","Privately Owned Facility"
"ATRON","MI00000000000N3993","MI","110001295027","313221",43.01875,-85.71608,,"POF","Privately Owned Facility"
"ATTWOOD CORP","MI00000000000A2470","MI","110001320017","326121",42.94396,-85.33906,,"POF","Privately Owned Facility"
"AUDETTE CADILLAC,  INC.","MI00000000000N3772","MI","110001853423","811111",42.53364,-83.36034,,"POF","Privately Owned Facility"
"AUGAT INC","MI00000000000N0093","MI","110001441404","326299",42.62919,-82.88069,,"POF","Privately Owned Facility"
"AUNT MILLIE'S BAKERIES, PLYMOUTH","MI00000000000N8040","MI","110054205855","311812",42.38774,-83.49607,,,
"AURORIUM ZEELAND LLC","MI00000000000B2817","MI","110000411206","325199",42.815845,-86.00946,97617,,
"AUTO ANODICS","MI00000000000B7281","MI","110000404866","332813",42.95817,-82.44204,0,"POF","Privately Owned Facility"
"AUTO CAM","MI00000000000A0746","MI","110009597720","332721",41.991161,-86.097013,,"POF","Privately Owned Facility"
"AUTOLIGN MFG GROUP","MI00000000000N5154","MI","110000500306","811121",42.07329,-83.69539,655,"POF","Privately Owned Facility"
"AUTOMATIC SPRING PRODUCTS CORP","MI00000000000N5261","MI","110001680235","332116",43.05171,-86.2229,,"POF","Privately Owned Facility"
"AUTOMATIC VALVE CORPORATION ","MI00000000000N2949","MI","110038031439","326199",42.45462,-83.46783,,,
"AUTOMETRIC COLLISION","0500000026125R0031","MI","110044319387","811121",42.4593218,-83.2932048,,"POF","Privately Owned Facility"
"AUTOMOTIVE COMPONENTS HOLDINGS, LLC - CHESTERFIELD","MI00000000000B6043","MI","110015895959","336360",42.67406,-82.84302,,,
"AUTOMOTIVE COMPONENTS HOLDINGS, LLC - MONROE PLANT","MI00000000000A4127","MI","110000405936","336390",41.902664,-83.358337,,,
"AUTOMOTIVE COMPONENTS HOLDINGS, LLC - UTICA PLANT","MI00000000000A3568","MI","110017415607","336390",42.66591,-83.05344,,,
"AUTOMOTIVE COMPONENTS HOLDINGS, LLC HEAD","MI00000000000B7071","MI","110031169820","541380",42.29874,-83.20538,,"POF","Privately Owned Facility"
"AUTOMOTIVE COMPONENTS HOLDINGS-MILAN","MI00000000000B6113","MI","110000405909","336390",42.084383,-83.668947,,,
"AUTOMOTIVE COMPONENTS HOLDINGS-YPSILANTI","MI00000000000B2901","MI","110000406454","336390",42.234116,-83.611603,,,
"AUTOMOTIVE CONCEPT","MI00000000000N3632","MI","110001301476","811111",42.219437,-85.574699,,"POF","Privately Owned Facility"
"AUTOTEK SEALANTS, INC.","MI00000000000N2321","MI","110028007591","325520",42.46239,-83.42845,,"POF","Privately Owned Facility"
"AVANCEZ HIGHLAND PARK","MI00000000000P1217","MI","110071378064","811198",42.4763,-83.090566,,,
"AVATAR, INC","MI00000000000N7424","MI","110031469541","332812",42.80928,-82.74983,,,
"AVL POWERTRAIN ENGINEERING","MI00000000000N6989","MI","110020901112","541380",42.229771,-83.720944,,,
"AVL POWERTRAIN ENGINEERING INC","MI00000000000N7146","MI","110040874765","333618 541380",42.38475,-83.51253,,,
"AWREY BAKERIES, INC.","MI00000000000B4569","MI","110001294723","311813",42.37431,-83.37247,,,
"AWTEC","MI00000000000M4505","MI","110024887185","336211 336350",42.10506,-83.22004,,,
"AXALTA COATING SYSTEMS USA LLC","MI00000000000A3569","MI","110000404624","325510",42.61433,-82.88836,13335,,
"AXCHEM","MI00000000000N6584","MI","110000412107","325998",44.25912,-86.32317,,"POF","Privately Owned Facility"
"AXIUM GROUP LLC","MI00000000000A0703","MI","110042285390","337122",41.906137,-86.002207,,,
"AZON USA INC","0500000026077R5001","MI","110000408826","325991",42.31038,-85.61678,0,"POF","Privately Owned Facility"
"B & B TRUCKING INC","MI00000000000N1979","MI","110001844381","488490",42.26685,-85.54604,,"POF","Privately Owned Facility"
"B & P PROCESS EQUIPMENT AND SYSTEMS  LLC","MI00000000000A6153","MI","110001442154","333220",43.4004,-83.95157,,"POF","Privately Owned Facility"
"B & W COOP INC","MI00000000000B1619","MI","110011784113","493130",43.409154,-84.477362,,"POF","Privately Owned Facility"
"B L SIMS CO","MI00000000000M3409","MI","110007315164","452990",42.30585,-83.24556,,"POF","Privately Owned Facility"
"B&D COLD HEADED PRODUCTS","MI00000000000P1532","MI","110072102091","332811",42.218957,-83.278565,,,
"B&L PLATING, INC.","MI00000000000N0058","MI","110001679425","332813",42.45371,-83,,"POF","Privately Owned Facility"
"B. C. COBB PLANT","MI00000000000B2836","MI","110000411037","221112",43.254978,-86.241827,,,
"B.O.P. FEDERAL CORRECTIONAL INSTITUTE","MI00000000000K2688","MI","110027227249","922140",42.098802,-83.673484,0,,
"BABY OIL AND GAS","MI00000000000N7341","MI","110069992950","211130",45.1408,-84.5834,,,
"BACCO CONSTRUCTION CO  PLANT 12","MI00000000000B6451","MI","110045486595","324121",45.8645,-88.0635,,,
"BACCO CONSTRUCTION CO PLANT PUC-10250","MI00000000000P0781","MI","110070526379","324121",45.851295,-88.053435,,,
"BACCO CONSTRUCTION COMPANY - PLANT 25","MI00000000000N1363","MI","110045487834","324121",45.8502,-88.0521,,,
"BAILER AND DESHAW","MI00000000000N0963","MI","110007315146","211111",43.586877,-83.5578265,,"POF","Privately Owned Facility"
"BAKELITE CHEMICALS LLC","MI00000000000N1237","MI","110000593359","325211",44.598333,-84.691667,1782,,
"BAKER FURNITURE CO","MI00000000000B1974","MI","110001841133","337122",42.77583,-86.09941,,"POF","Privately Owned Facility"
"BAKER FURNITURE CO","MI00000000000B1730","MI","110001320053","337211",42.99369,-85.67048,,"POF","Privately Owned Facility"
"BALKEMA EXCAVATING","0500000026077R0006","MI","110007393052","212321",42.32169,-85.53015,,"POF","Privately Owned Facility"
"BALKEMA EXCAVATING","0500000026077R0004","MI","110007393061","212321",42.1245798,-85.6762259,,"POF","Privately Owned Facility"
"BANDIT INDUSTRIES","MI00000000000N5223","MI","110002027501","325510 333120",43.552393,-84.9823,,,
"BANKS HARDWOODS, INC.","MI00000000000N2206","MI","110007393016","321912",41.781241,-85.767546,,,
"BARAGA COUNTY CONCRETE CO","MI00000000000B5265","MI","110045485453","327320",46.7581523,-88.5632778,,"POF","Privately Owned Facility"
"BARAGA COUNTY ROAD COMMISSION","MI00000000000B6128","MI","110045485667","324121",46.7278166,-88.3325272,,"POF","Privately Owned Facility"
"BARBER STEEL FOUNDRY CORPORATION","MI00000000000B1961","MI","110000411064","331513",43.50692,-86.34214,,,
"BARK RIVER CONCRETE","MI00000000000A0891","MI","110007275420","327331",45.6992318,-87.2932309,,"POF","Privately Owned Facility"
"BARNES AEROSPACE","MI00000000000A1614","MI","110070069391","336412",42.680009,-84.523505,,,
"BARRETT PAVING MATERIALS  INC","MI00000000000B1745","MI","110001847208","324121",43.01928,-83.18527,,"POF","Privately Owned Facility"
"BARRETT PAVING MATERIALS INC","MI00000000000B4020","MI","110001840045","324121",43.03586,-83.65364,,,
"BARRETT PAVING MATERIALS INC","MI00000000000B2039","MI","110001841384","324121",42.974093,-82.536372,,,
"BARRETT PAVING MATERIALS, INC","MI00000000000N1406","MI","110015885844","324121",42.9575,-83.6554,,,
"BARRON CAST, INC.","MI00000000000B6391","MI","110001679602","331512",42.833562,-83.25942,,"POF","Privately Owned Facility"
"BARRON CAST, INC.","MI00000000000N2631","MI","110045483874","331512",42.86677,-83.29353,,"POF","Privately Owned Facility"
"BARYAMES CLEANERS INC","MI00000000000N5470","MI","110001845674","812320",42.70632,-84.54801,,,
"BASF CORP","MI00000000000B2075","MI","110001139036","325510",42.3473,-83.12793,,"POF","Privately Owned Facility"
"BASF CORP","MI00000000000N1060","MI","110017411834","325211",42.3625,-83.4,0,,
"BASF CORPORATION","MI00000000000N1336","MI","110001300002","541380",42.48453,-83.28537,,,
"BASF CORPORATION","MI00000000000N7238","MI","110000494019","325199 325991 326121 541715",42.2183,-83.1459,12919,,
"BASF CORPORATION - CHEMICAL PLANTS","MI00000000000B4359","MI","110000494019","325199 325991 326121 541715",42.2183,-83.1459,12919,,
"BASF CORPORATION - LABS AND APPLICATION CENTERS","MI00000000000M4808","MI","110000494019","325199 325991 326121 541715",42.2183,-83.1459,12919,,
"BASF CORPORATION - PLASTICS PLANTS","MI00000000000M4777","MI","110000494019","325199 325991 326121 541715",42.2183,-83.1459,12919,,
"BASF TODA AMERICA INC","0500026025R5002","MI","110043413696","325180",42.33679,-85.27469,0,,
"BASF TODA AMERICA LLC","MI00000000000P0089","MI","110043413696","325180",42.33679,-85.27469,0,,
"BASIC MARINE INC","MI00000000000N2969","MI","110001680618","336611",45.748911,-87.061108,,"POF","Privately Owned Facility"
"BATTLE CREEK GRAVEL COMPANY","MI00000000000N6924","MI","110040852707","212321",42.32222,-85.26006,,"POF","Privately Owned Facility"
"BATTLE CREEK HEALTH SYSTEMS","MI00000000000N3655","MI","110003696411","221330",42.33058,-85.18039,,"POF","Privately Owned Facility"
"BATTLE CREEK NEUROREHABILITATION CENTER","MI00000000000K2256","MI","110001842640","813930",42.37638,-85.17791,,"POF","Privately Owned Facility"
"BATTS INC","MI00000000000B7096","MI","110001442136","326199",42.81523,-86.02884,,"POF","Privately Owned Facility"
"BAXTER BIOSCIENCE","MI00000000000B8907","MI","110000407248","325414",42.6878,-83.11482,,"POF","Privately Owned Facility"
"BAY CAST INC","MI00000000000A0233","MI","110000407872","331513",43.57665,-83.89776,782,"POF","Privately Owned Facility"
"BAY CITY ELECTRIC LIGHT & POWER","MI00000000000B7529","MI","110009597481","221118",43.58315,-83.89553,,,
"BAY CITY ELECTRIC LIGHT & POWER","MI00000000000N3195","MI","110040970722","221118",43.595817,-83.900286,,,
"BAY CITY WASTEWATER TREATMENT PLANT","MI00000000000B1486","MI","110000544796","221320",43.60883,-83.86841,,,
"BAY MEDICAL CENTER","MI00000000000M2039","MI","110001825419","622110",43.5894,-83.86903,,"POF","Privately Owned Facility"
"BAY VALLEY FOODS, LLC","MI00000000000N6012","MI","110022920259","311514",42.67761,-85.65214,,"POF","Privately Owned Facility"
"BAY VIEW FOOD PRODUCTS","0500000026017R5002","MI","110070328518","445299",43.81377,-83.96685,,"POF","Privately Owned Facility"
"BAYER MIDWEST PRODUCTION CO., LLC","MI00000000000N6177","MI","110007371799","111199",41.813577,-85.66259,,,
"BBI ENTERPRISES GROUP, INC.","MI00000000000B6555","MI","110009597640","336360",42.86339,-86.11257,,"POF","Privately Owned Facility"
"BDGN - DBA AMERICAN AUTOCOAT","MI00000000000N2283","MI","110064844922","325510 326199",42.894185,-85.653217,,,
"BEAR LAKE 1 CPF","MI00000000000N6216","MI","110001826748","211111",44.420503,-86.068565,,"POF","Privately Owned Facility"
"BEAUMONT HOSPITAL - DEARBORN","MI00000000000J4912","MI","110028029577","622110",42.29186,-83.21173,,,
"BEAUMONT HOSPITAL FARMINGTON HILLS","MI00000000000K2729","MI","110037991929","622110",42.4466,-83.3228,,,
"BECKER & SCRIVENS CONCRET","MI00000000000N6668","MI","110002356593","327320",41.9451,-84.65448,,"POF","Privately Owned Facility"
"BECKER GROUP INC","MI00000000000B4127","MI","110007274895","326199",42.48004,-82.93451,,"POF","Privately Owned Facility"
"BECKER METAL WORKS INC","0500026147R5001","MI","110009601145","331512",42.817364,-82.493577,,,
"BECKER MFG INC","MI00000000000N2022","MI","110001130366","326199",43.005536,-84.206201,,"POF","Privately Owned Facility"
"BEKAERT CORP","MI00000000000B7175","MI","110000410822","331222",43.21406,-86.18992,104,"POF","Privately Owned Facility"
"BELDING TANK TECHNOLOGIES, INC.","MI00000000000N3748","MI","110000408069","326199",43.10004,-85.21301,51735,,
"BELL MEMORIAL HOSPITAL","MI00000000000M2012","MI","110001441431","622110",46.489388,-87.664014,,"POF","Privately Owned Facility"
"BELL SITE DEVELOPMENT","MI00000000000P1360","MI","110072000420","212319",42.68645,-83.39188,,,
"BELLEVUE PROCESSING CORP","MI00000000000A8125","MI","110015912798","332813",42.37307,-83.02455,,"POF","Privately Owned Facility"
"BELMONT ENGINEERED PLASTICS, LLC","MI00000000000N2011","MI","110001844130","326199",43.06875,-85.63174,,,
"BELT POWER, LLC","MI00000000000P1156","MI","110071176722","326220",42.87376,-85.52827,,,
"BENNET PUMP","MI00000000000N6441","MI","110001679292","333911",43.14135,-86.21353,,"POF","Privately Owned Facility"
"BENNO'S WOODWORKING","MI00000000000N3546","MI","110001829237","811420",42.27247,-85.58295,,"POF","Privately Owned Facility"
"BENT TUBE INC","MI00000000000N7722","MI","110030761708","332996",42.64311,-84.10417,,,
"BENTELER AUTOMOTIVE INCORPORATED","MI00000000000N2525","MI","110003577157","336390",42.89697,-85.65711,447,,
"BERNE ENTERPRISES INC","MI00000000000A1453","MI","110070313754","331511",43.844627,-83.267859,,,
"BERNIER CAST METAL INC","MI00000000000N5324","MI","110001843658","331511",43.40037,-83.93197,,"POF","Privately Owned Facility"
"BESSEMER PLYWOOD CORP","MI00000000000N1393","MI","110001826846","321212",46.46813,-90.0664,,,
"BEST FRIENDS PET CARE, INC.","MI00000000000M4226","MI","110045483829","812220",42.5436,-82.87928,,"POF","Privately Owned Facility"
"BEST RECYCLE CORP","MI00000000000N5264","MI","110010391557","212321",42.445278,-82.927222,,"POF","Privately Owned Facility"
"BETTEN FRIENDLY MOTORS","MI0000002612109003","MI","110001299835","811111",43.19472,-86.26336,,"POF","Privately Owned Facility"
"BETZ INDUSTRIES, INC.","MI00000000000B1716","MI","110002378882","331511",43.00276,-85.7081,,,
"BF ENTERPRISES","0500000026163R0095","MI","110035843442","331491",42.41924,-83.03504,,"POF","Privately Owned Facility"
"BH92 TRUCKING","0500026081R5005","MI","110070507593","484121",42.9006,-85.65832,,,
"BI RITE TRANSMISSIONS","MI00000000000M4703","MI","110007224841","811113",42.33137,-83.07816,,"POF","Privately Owned Facility"
"BICHLER GRAVEL & CONCRETE","MI00000000000D0066","MI","110003584354","327320",45.796085,-87.082545,,"POF","Privately Owned Facility"
"BIEWER SAWMILL INC.","MI00000000000N1722","MI","110001679835","321113",44.202373,-85.217033,,,
"BIG RAPIDS COMPONENTS  WOOD PLANT","MI00000000000N5786","MI","110000797978","337211",43.707047,-85.462917,,"POF","Privately Owned Facility"
"BILLCO PRODUCTS INC","MI00000000000A5826","MI","110001679666","337110",42.81788,-85.99963,,"POF","Privately Owned Facility"
"BILLERUD ESCANABA LLC","MI00000000000A0884","MI","110070295128","322120",45.804799,-87.08978,576375,,
"BILLERUD QUINNESEC LLC","MI00000000000B7192","MI","110017422467","322120",45.803102,-87.963891,232473,,
"BIMBO BAKERIES USA, INC.","MI00000000000B4394","MI","110012601185","311812",42.91293,-85.66261,,,
"BINGHAM BOAT WORKS LTD","MI00000000000N4050","MI","110001294019","336612",46.5610685,-87.4514177,,"POF","Privately Owned Facility"
"BIOLAB INC","MI00000000000B2311","MI","110008447724","325199",41.893611,-84.0175,,,
"BISSELL INC US DIV","MI00000000000A2586","MI","110001840544","333311",43.00773,-85.72139,,"POF","Privately Owned Facility"
"BIX FURNITURE SERVICE EAST","MI00000000000N0465","MI","110003668166","811420",42.49896,-82.89775,,,
"BLACK GOLD TRANSPORT, INC.","MI00000000000P1138","MI","110071155251","237310",42.67155,-85.65186,,,
"BLACKMORE CO","MI00000000000N3010","MI","110001848813","326199",42.19684,-83.54661,,"POF","Privately Owned Facility"
"BLASKA'S AUTOMOTIVE PAINT REPAIR","0500000026049R0006","MI","110054889983","811111",42.69864,-83.64457,,"POF","Privately Owned Facility"
"BLUE BAY OIL & GAS, PLEASANTON 26","MI00000000000N8311","MI","110044321070","211130",44.4485,-86.0813,,,
"BLUE SKIES ENERGY","MI00000000000P1510","MI","110070240531","562212",43.125805,-83.494509,,,
"BLUE WATER AGGREGATES CO.","MI00000000000N7004","MI","110012162603","423320",42.92442,-82.46295,,"POF","Privately Owned Facility"
"BLUE WATER RENEWABLES","MI00000000000P0262","MI","110045008326","221118",42.917534,-82.592501,,,
"BLUE WATER RENEWABLES","MI00000026147P0262","MI","110045008326","221118",42.917534,-82.592501,,"POF","Privately Owned Facility"
"BLUEWATER GAS STORAGE FACILITY - COLUMBUS","MI00000000000N7303","MI","110027255002","486210",42.890488,-82.674799,,,
"BLUEWATER GAS STORAGE LLC","MI00000000000N8044","MI","110040756205","486210",42.7622,-82.8692,,"POF","Privately Owned Facility"
"BLUEWATER GAS STORAGE LLC - OMO ROAD","0500000026023R5001","MI","110071361284","486210",42.801113,-82.862837,,,
"BMC GLOBAL, LLC DBA BLISSFIELD MANUFACTURING","MI00000000000A2889","MI","110001140676","332999",41.82391,-83.86006,,,
"BMC MFG INC","MI00000000000B4637","MI","110001298934","452111",42.37356,-83.46044,,"POF","Privately Owned Facility"
"BOARSHEAD PROVISIONS, INC.","MI00000000000N5797","MI","110001846637","311612",42.80342,-86.09651,0,"POF","Privately Owned Facility"
"BOB EVANS FOOD - HILLSDALE PLANT","0500000026059R5001","MI","110063132408","311612",41.92193,-84.61716,,"POF","Privately Owned Facility"
"BODYCOTE THERMAL PROCESSING","MI00000000000B7609","MI","110000917269","423930",42.74832,-84.58027,,"POF","Privately Owned Facility"
"BOHNING CO LTD","MI00000000000N2989","MI","110007275572","339920",44.442625,-85.074859,,"POF","Privately Owned Facility"
"BOLD FURNITURE COMPANY","MI00000000000N8204","MI","110038524291","321211",43.207664,-86.187499,,,
"BOLEN ASPHALT PAVING, INC.","MI00000000000B4164","MI","110040884399","237310",44.351426,-84.226639,,,
"BOLEN ASPHALT PAVING, INC.","MI00000000000N1905","MI","110002027271","324121",45.055,-83.708889,,,
"BONNETTE DESIGN INTERNATIONAL INC","MI00000000000N5943","MI","110001848056","336612",42.76711,-86.06789,,"POF","Privately Owned Facility"
"BORG WARNER AIR/FLUID","MI00000000000A5990","MI","110009600342","339113",43.11035,-86.21311,,"POF","Privately Owned Facility"
"BORG WARNER AUTOMOTIVE","MI00000000000M3308","MI","110038958768","336399",42.6120739,-83.0534892,,"POF","Privately Owned Facility"
"BORG WARNER, AFS DIVISION","MI00000000000B4272","MI","110021161598","541712",42.46352,-83.00323,,"POF","Privately Owned Facility"
"BORGWARNER THERMAL SYSTEMS, INC.","MI00000000000B4198","MI","110009597445","336399",44.2568,-85.4226,,"POF","Privately Owned Facility"
"BORIDE PRODUCTS INC","MI00000000000N1548","MI","110001843747","332117",44.74316,-85.56347,,"POF","Privately Owned Facility"
"BORROUGHS CORPORATION","MI00000000000A2005","MI","110000408782","337214",42.32255,-85.58385,,"POF","Privately Owned Facility"
"BOSS PRODUCTS DIVISION IRON MT","0500026043R5001","MI","110067604523","332999",45.844313,-88.04579,,"POF","Privately Owned Facility"
"BOSTIK  INC","MI00000000000B7623","MI","110000409237","325520",42.246541,-84.961368,,,
"BOWERS MANUFACTURING CO","MI00000000000B5280","MI","110001295535","332813",42.28356,-85.52742,,"POF","Privately Owned Facility"
"BOWERS MANUFACTURING CO","MI00000000000N2170","MI","110000408657","332813",42.22367,-85.54049,,"POF","Privately Owned Facility"
"BOYSVILLE OF MICHIGAN INC","MI00000000000E8807","MI","110001320231","611110",42.06669,-83.85795,,"POF","Privately Owned Facility"
"BRADE READY MIX CONCRETE","MI00000000000A1448","MI","110001680388","327320",43.935927,-83.005042,,"POF","Privately Owned Facility"
"BRADFORD WHITE CORPORATION","MI00000000000A0169","MI","110000410190","335220",42.71829,-85.46324,704,,
"BRANCH COUNTY ROAD COMMISSION","MI00000000000B5579","MI","110064184895","324121",41.94073,-85.07087,,,
"BRAVO LOGISTICS LLC","0500026099R5008","MI","110071241297","541611",42.560335,-82.919544,,"POF","Privately Owned Facility"
"BRAZEWAY INC","MI00000000000A2864","MI","110000409861","331316",41.89172,-84.00594,,"POF","Privately Owned Facility"
"BRECHTEEN CO LTD","MI00000000000N5705","MI","110001679773","322220",42.67106,-82.84493,,"POF","Privately Owned Facility"
"BREITBURN ENERGY COMPANY, LP","MI00000000000N6110","MI","110013836956","211111",44.9828378,-84.4301669,,"POF","Privately Owned Facility"
"BREITBURN OPERATING CO, LP - USA KALKASK","MI00000000000N6470","MI","110045489645","211111",44.7199972,-85.0364558,,"POF","Privately Owned Facility"
"BREITBURN OPERATING CO, LP -USA KALKASKA","MI00000000000N6467","MI","110013868877","211111",44.7198,-85.3081,,"POF","Privately Owned Facility"
"BREITBURN OPERATING COMPANY LP - ST. KAL","MI00000000000N6466","MI","110041118484","211111",44.7462,-85.2694,,"POF","Privately Owned Facility"
"BREITBURN OPERATING LP","MI00000000000N7851","MI","110045491179","211111",44.8197355,-84.0206126,,"POF","Privately Owned Facility"
"BREITBURN OPERATING LP","MI00000000000N6469","MI","110045491302","211111",44.4327399,-85.8583428,,"POF","Privately Owned Facility"
"BREITBURN OPERATING LP -  DOVER 35 CPF","MI00000000000N6140","MI","110054892238","211111",45.041,-84.5181,,"POF","Privately Owned Facility"
"BREITBURN OPERATING LP - ALL STATE STAR","MI00000000000N7455","MI","110027227061","211130",45.0181,-84.9097,,,
"BREITBURN OPERATING LP - CHESTER 7-11","MI00000000000N6127","MI","110024519868","211111 211130",44.978,-84.641,,,
"BREITBURN OPERATING LP - CHESTER EAST 1-","MI00000000000N6062","MI","110045492953","211111",45.027297,-84.606754,,"POF","Privately Owned Facility"
"BREITBURN OPERATING LP - GARFIELD 1-10","MI00000000000N8334","MI","110044321356","211111",44.579584,-84.91315,,"POF","Privately Owned Facility"
"BREITBURN OPERATING LP - GARFIELD 1-8 CP","MI00000000000N6345","MI","110045490839","211111",44.6922886,-84.5951125,,"POF","Privately Owned Facility"
"BREITBURN OPERATING LP - HAYES 10","MI00000000000N6061","MI","110045492944","211111",44.998087,-84.6701637,,"POF","Privately Owned Facility"
"BREITBURN OPERATING LP - LUCKY 16","MI00000000000N7456","MI","110028258294","211130",45.0324,-84.7679,,,
"BREITBURN OPERATING LP - NADV 7","MI00000000000N7458","MI","110028258285","211130",45.0306,-84.8385,,,
"BREITBURN OPERATING LP - NORTH HAYES 6 BSTR","MI00000000000N7468","MI","110038063314","211130",45.004,-84.7722,,,
"BREITBURN OPERATING LP - SKEBA CAPLE","MI00000000000N6111","MI","110045492837","211111",44.8821,-84.7969,,"POF","Privately Owned Facility"
"BREITBURN OPERATING LP - SOUTH CAPLE RAN","MI00000000000N6112","MI","110045492971","211111",44.998087,-84.6701637,,"POF","Privately Owned Facility"
"BREITBURN OPERATING LP- CHARLTON 8","MI00000000000N6122","MI","110045491080","211111",44.9828378,-84.4301669,,"POF","Privately Owned Facility"
"BREITBURN OPERATING LP-BAGLEY EAST/LIVIN","MI00000000000N6063","MI","110045492846","211111",44.998087,-84.6701637,,"POF","Privately Owned Facility"
"BREITBURN OPERATING LP. - LOVELLS 27 CPF","MI00000000000N5938","MI","110040951510","211111",44.6983,-84.4208,,"POF","Privately Owned Facility"
"BREITBURN OPERATING LP. - PLEASANT VALLEY","MI00000000000N7459","MI","110041891263","211130",45.0548,-84.002,,,
"BREITBURN OPERATING- WINTER ANTRIM","MI00000000000N7466","MI","110028258301","211130",45.0295,-84.5675,,,
"BREITBURN OPRATING COMPANY, LP-STATE KAL","MI00000000000N6059","MI","110037980833","211111",44.733998,-85.283235,,"POF","Privately Owned Facility"
"BREMBO NORTH AMERICA, INC.","MI00000000000N6226","MI","110000783082","336340",42.1655,-84.7138,15247,,
"BRENT RUN LANDFILL","MI00000000000N5987","MI","110001848305","562212",43.173752,-83.839145,,,
"BREWER SAND & GRAVEL","MI00000000000N3312","MI","110038097724","212312",42.799602,-86.072589,,"POF","Privately Owned Facility"
"BRIGHTMARK CROSSROADS RNG, LLC","MI00000000000P1207","MI","110072081381","221210",42.717729,-85.553831,,,
"BROAD VOGT & CONANT INC","MI00000000000M3860","MI","110001130277","332312",42.27744,-83.14149,,"POF","Privately Owned Facility"
"BRONSON PLASTICS","MI00000000000B6392","MI","110009596632","326199",41.87535,-85.20096,,"POF","Privately Owned Facility"
"BRONSON PLATING COMPANY","MI00000000000A0547","MI","110000409068","332813",41.87954,-85.19427,0,"POF","Privately Owned Facility"
"BROOK & SCENIC RNG, LLC","MI00000000000P1497","MI","110072081454","221210",42.52669,-86.14948,,,
"BROWN MACHINE CO","MI00000000000A1247","MI","110001680510","333514",43.879947,-84.4853,,"POF","Privately Owned Facility"
"BRUNSWICK BOWLING AND BILLIARDS","MI00000000000B1904","MI","110000410911","339920",43.21982,-86.25811,,"POF","Privately Owned Facility"
"BUCHANAN AGRONOMY - KEYSTONE COOPERATIVE, INC.","0500000026021R5001","MI","110000554392","115116",41.815186,-86.387562,,,
"BUCHANAN INDUSTRIES INC","MI00000000000M4242","MI","110001848127","331521",41.831781,-86.356289,,"POF","Privately Owned Facility"
"BUCKEYE PARTNER'S, L.P. EAST TERMINAL","MI00000000000N0506","MI","110000856805","493110",42.25531,-83.27511,,,
"BUCKEYE PIPE LINE HOLDINGS, L.P.- TAYLOR TERMINAL","MI00000000000B9036","MI","110032890780","493110",42.25519,-83.2782,,,
"BUCKEYE TERMINALS  LLC -DETROIT TAYLOR TERMINAL","MI00000000000B9050","MI","110000493993","493110",42.24938,-83.2891,,,
"BUCKEYE TERMINALS - NILES WEST TERMINAL","MI00000000000B9085","MI","110042029694","493110",41.798602,-86.25456,,,
"BUCKEYE TERMINALS, LLC","MI00000000000B4380","MI","110000410065","424710",42.16717,-84.2604,,,
"BUCKEYE TERMINALS, LLC - FERRYSBURG TERMINAL","MI00000000000B7778","MI","110010306800","493110",43.08459,-86.22988,,,
"BUCKEYE TERMINALS, LLC - FLINT TERMINAL","MI00000000000B9081","MI","110032899503","493190",43.086,-83.6728,,,
"BUCKEYE TERMINALS, LLC - MARSHALL TERMINAL","MI00000000000B9052","MI","110032895160","493110",42.24975,-84.96443,,,
"BUCKEYE TERMINALS, LLC - NILES TERMINAL","MI00000000000B9132","MI","110041000546","493110",41.78528,-86.25478,,,
"BUCKEYE TERMINALS, LLC - RIVER ROUGE TERMINAL","MI00000000000B2987","MI","110002379453","493190",42.27654,-83.12583,,,
"BUCKEYE TERMINALS, LLC - WOODHAVEN TERMINAL","MI00000000000B2158","MI","110007371441","493110",42.1359,-83.2337,,,
"BUCKEYE TERMINALS, LLC-DETROIT TERMINAL","MI00000000000B2247","MI","110000406846","493110",42.28304,-83.14116,,,
"BUCKEYE TERMINALS-JACKSON","MI00000000000B9131","MI","110009595688","424710 493110",42.30998,-84.426,,,
"BULMAN PRODUCTS INC.","MI00000000000A2208","MI","110001294992","332119",42.99398,-85.68729,,,
"BUNDY CORP","MI00000000000B2373","MI","110002472422","331210",42.46366,-82.99838,,"POF","Privately Owned Facility"
"BURGESS-NORTON MFG. CO. / STD.  AUTO PAR","MI00000000000B1097","MI","110009598104","331511",43.22442,-86.22786,,"POF","Privately Owned Facility"
"BURNS FABRICATING CO","MI00000000000M1125","MI","110001301154","332999",42.36059,-83.14746,,"POF","Privately Owned Facility"
"BURTEK ENTERPRISES INC.","MI00000000000N5836","MI","110003599035","336992",42.668853,-82.841046,,,
"BURWOOD PRODUCTS CO","MI00000000000A1278","MI","110038956751","334518",44.75304,-85.58066,,"POF","Privately Owned Facility"
"BUSKIRK LUMBER CO","MI00000000000A6428","MI","110001842301","321113",42.76694,-85.31101,,"POF","Privately Owned Facility"
"C & S CARTON DIV CHELSEA MILLING CO","MI00000000000A6809","MI","110001847805","323111",42.246557,-84.962648,,"POF","Privately Owned Facility"
"C AND B ENTERPRISES","MI00000000000B7548","MI","110009597613","332811",42.71588,-82.50944,,"POF","Privately Owned Facility"
"C L K PUBLIC SCHOOLS","MI00000000000N2467","MI","110045486700","611110",47.24079,-88.45085,,"POF","Privately Owned Facility"
"C L RIECKHOFF CO","MI00000000000M3716","MI","110000406221","332999",42.21123,-83.29403,,,
"C REISS COAL CO","MI00000000000D0053","MI","110045484114","423520",45.7741013,-87.1362904,,"POF","Privately Owned Facility"
"C&C ENERGY LLC","MI00000000000P0222","MI","110007275812","221118",42.356606,-85.004899,,,
"C&C EXPANDED SANITARY LANDFILL","MI00000000000N2896","MI","110043782500","562212",42.356243,-85.009915,,,
"C&C SCREENING/CONKLIN AGGREGATES","0500000026049R0001","MI","110038956742","811121",42.77701,-83.77828,,"POF","Privately Owned Facility"
"CABOT CORPORATION","MI00000000000N6251","MI","110002343367","325180",43.59616,-84.20775,5889,,
"CADENCE INNOVATION HILLSDALE (FORMERLY BAILEY MFG)","MI00000000000B7035","MI","110000767590","326199",41.92207,-84.62088,,,
"CADENCE INNOVATION HOLLY ROAD","MI00000000000N1683","MI","110017403415","336390",42.8811,-83.635,,,
"CADENCE INNOVATIONS","MI00000000000N7620","MI","110000592902","423110",42.67462,-82.84809,,,
"CADILLAC ASHPALT, LLC","MI00000000000B4287","MI","110001298925","324121",42.70628,-83.44176,1,,
"CADILLAC ASPHALT - SHELBY PLANT","MI00000000000N0989","MI","110033178040","324121",42.669864,-83.006907,,,
"CADILLAC ASPHALT LLC, RAWSONVILLE","MI00000000000B4280","MI","110001830261","324121",42.220483,-83.547056,1,,
"CADILLAC ASPHALT LLC., WIXOM","MI00000000000B1960","MI","110016725935","324121",42.492734,-83.561334,1,,
"CADILLAC ASPHALT PRODUCTS, DIX","MI00000000000B3195","MI","110001830181","324121",42.29146,-83.15566,,,
"CADILLAC ASPHALT, L.L.C.","MI00000000000B2284","MI","110040858202","324121",42.395037,-83.769111,,,
"CADILLAC ASPHALT, LLC","MI00000000000N5778","MI","110012162532","324121",41.8935,-83.4349,0,,
"CADILLAC ASPHALT, LLC, ANN ARBOR","MI00000000000B4265","MI","110001841589","324121",42.2723,-83.7983,1,,
"CADILLAC ASPHALT, LLC, MT. CLEMENS","MI00000000000A3352","MI","110001298649","324121",42.601,-82.8927,0,,
"CADILLAC ASPHALT, LLC, ROMULUS","MI00000000000B2174","MI","110001830172","324121",42.20456,-83.40441,0,,
"CADILLAC ASPHALT, LLC, TROY","MI00000000000B4134","MI","110001298916","324121",42.55206,-83.15904,0,,
"CADILLAC CASTING, INC","MI00000000000B2178","MI","110000411956","331511",44.2655,-85.4097,0,,
"CADILLAC ENAMELING WORKS INC","MI00000000000B3300","MI","110001299121","332813",42.42254,-83.03357,,"POF","Privately Owned Facility"
"CADILLAC PRODUCTS","MI00000000000A3048","MI","110007095062","322211",42.55096,-83.03684,,"POF","Privately Owned Facility"
"CADILLAC PRODUCTS AUTOMOTIVE CO.","MI00000000000N1754","MI","110006625143","336390",45.34913,-83.741053,,,
"CADILLAC RENEWABLE ENERGY FACILITY","MI00000000000N1395","MI","110009393370","221118",44.261606,-85.435047,,,
"CADON ACQUISITIONS LLC","MI00000000000A7972","MI","110000494028","332813",42.19478,-83.1663,8534,,
"CALHOUN FOUNDRY CO","MI00000000000A0617","MI","110001825302","331511",42.141509,-84.804284,11,"POF","Privately Owned Facility"
"CALIBER COLLISION","MI00000000000N2642","MI","110001843550","811121",42.48558,-82.94449,,,
"CALUMET ELECTRONICS CORP","MI00000000000A1430","MI","110000858199","334412",47.24048,-88.45022,1931,"POF","Privately Owned Facility"
"CAMBRIDGE INDUSTRIES","MI00000000000N6215","MI","110000404991","326199",42.50917,-83.11851,,"POF","Privately Owned Facility"
"CANTON AUTO REPAIR & EXHAUST, INC.","0500000026163R0026","MI","110007371940","325510",42.27585,-83.4674,,"POF","Privately Owned Facility"
"CANTON RENEWABLES LLC","MI00000000000P0270","MI","110055448993","221210",42.276682,-83.456429,,,
"CAPITAL REGION AIRPORT AUTHORITY","MI00000000000N8035","MI","110070887533","488119",42.7836,-84.5881,,,
"CAR WORLD COLLISION CENTER","0500000026099R0018","MI","110046462635","811121",42.674268,-82.994812,,"POF","Privately Owned Facility"
"CARACO PHARMACEUTICAL LABORATORIES, LTD.","0500000026163R0067","MI","110003568666","325412",42.362251,-83.07917,,"POF","Privately Owned Facility"
"CARBOLOY INC","MI00000000000B1775","MI","110018942778","333515",42.44876,-83.01379,,,
"CARBON GREEN BIOENERGY","MI00000000000N7412","MI","110025336580","325193",42.76601,-85.07428,13595,,
"CARE-FREE WINDOWS","MI00000000000D0856","MI","110001298596","332321",42.54949,-84.85297,,"POF","Privately Owned Facility"
"CARGILL SALT - HERSEY","MI00000000000N2954","MI","110001842436","212390",43.834338,-85.354062,,,
"CARGILL SALT - ST. CLAIR","MI00000000000A6240","MI","110000733010","311942",42.8184,-82.4858,,,
"CARGO TRAILERS","MI00000000000B8639","MI","110001301537","811111",42.27829,-85.55489,,"POF","Privately Owned Facility"
"CARIBBEAN POOL & FIBERGLASS PRODUCTS, INC.","MI00000000000P0578","MI","110067013118","326199",42.96021,-85.35554,,,
"CARLETON FARMS LANDFILL","MI00000000000N5986","MI","110009595367","562212",42.093,-83.428,,,
"CARMEUSE LIME INC,  RIVER ROUGE OPERATION","MI00000000000B2169","MI","110008058369","327410",42.2774,-83.128,2,,
"CARMEUSE/DETROIT LIME","MI00000000000B3520","MI","110001680903","327410",42.29591,-83.15134,,"POF","Privately Owned Facility"
"CARPENTER CO.","MI00000000000P0583","MI","110046088103","326150",42.63938,-83.19528,,,
"CARROLL PRODUCTS, INC.","MI00000000000N3143","MI","110001844210","323111",42.6176,-83.0426,,,
"CARROM COMPANY","MI00000000000N1988","MI","110001679808","339930",43.9494,-86.4452,,,
"CASCADE ENGINEERING, INC","MI00000000000N2854","MI","110040855125","326199",42.89823,-85.54051,,"POF","Privately Owned Facility"
"CASE SYSTEMS","MI00000000000A4020","MI","110062747559","337127",43.667042,-84.3099,,"POF","Privately Owned Facility"
"CASMER & SONS MFG INC","MI00000000000B7312","MI","110007371584","325991",43.107778,-83.695,,"POF","Privately Owned Facility"
"CASS COUNTY ROAD COMMISSION","MI00000000000N1643","MI","110045485499","324121",41.9366,-86.011,,"CNG","County Government"
"CAST COATINGS INC.","MI00000000000N6282","MI","110001848172","332812",42.022073,-86.515419,,,
"CASTEX INDUSTRIES  INC","MI00000000000N2906","MI","110001299407","333312",42.728286,-86.115513,,"POF","Privately Owned Facility"
"CASTING TECHNOLOGIES COMPANY","MI00000000000B6261","MI","110045483455","331524",43.1509642,-86.114307,,"POF","Privately Owned Facility"
"CATO GLENWOOD FACILITY","MI00000000000N6321","MI","110040496861","211130",43.4352724,-85.2460605,,,
"CAYMAN CHEMICAL CO.","MI00000000000M4210","MI","110069993312","325199",42.22971,-83.72445,,,
"CBS BORING MACHINE COMPANY INC","MI00000000000N6484","MI","110001825856","336211",42.5498,-82.94146,,"POF","Privately Owned Facility"
"CDC MARYSVILLE, LLC","MI00000000000B2813","MI","110000404580","221112",42.9258,-82.4606,,,
"CECIL COMPOSITES, LLC","MI00000000000B1772","MI","110071378286","326199",42.60936,-82.88855,,,
"CEDAR RIVER LUMBER CO INC","MI00000000000N1405","MI","110045485364","321113",45.69369,-87.52168,,"POF","Privately Owned Facility"
"CEDARLINE LLC - CHESTONIA 17","MI00000000000N5694","MI","110045491393","211111",44.99706,-85.06996,,"POF","Privately Owned Facility"
"CENTRAL ASPHALT INC.","MI00000000000B1620","MI","110001998287","324121",43.59608,-84.801336,,,
"CENTRAL CONVEYOR","MI00000000000P0982","MI","110067551562","333922",42.52333,-83.57381,,,
"CENTRAL METAL PRODUCTS","MI00000000000N5700","MI","110007224798","332439",42.44926,-82.99981,,"POF","Privately Owned Facility"
"CENTRAL MICHIGAN CREMATOR","MI00000000000M4120","MI","110007271647","812210",42.2991758,-85.2292672,,"POF","Privately Owned Facility"
"CENTRAL MICHIGAN HARDWOOD","MI00000000000N6929","MI","110002456798","321999",43.05683,-85.94714,,"POF","Privately Owned Facility"
"CENTRAL MICHIGAN UNIVERSITY","MI00000000000K2460","MI","110003718344","611310",43.58581,-84.7712,,,
"CENTRAL SANITARY LANDFILL","MI00000000000N2804","MI","110022477835","562212",43.33033,-85.509633,,,
"CENTRAL WAYNE ENERGY RECOVERY","MI00000000000B4281","MI","110002379514","562213",42.27329,-83.30921,,"POF","Privately Owned Facility"
"CENTURION MEDICAL PRODUCTS","MI00000000000N5109","MI","110003629191","339113",42.60479,-83.91447,,,
"CENTURION STERILIZATION SERVICES","0500000026093R0004","MI","110055618595","339113",42.60387,-83.91448,,"POF","Privately Owned Facility"
"CENTURY SUN METAL TREATING","MI00000000000N2213","MI","110000412125","332811",44.74486,-85.57468,2746,"POF","Privately Owned Facility"
"CERATIZIT USA, INC.","MI00000000000B7089","MI","110000405277","333515",42.47061,-83.01001,,,
"CERTAINTEED CEILINGS CORPORATION","MI00000000000B1479","MI","110001825231","327999",46.75663,-88.456086,0,,
"CERTAINTEED CORP","MI00000000000N1651","MI","110009904693","326199",42.102188,-84.408626,18,,
"CHAMPION CONCRETE INC","MI00000000000N2513","MI","110045485612","327320",45.80594,-88.01796,,"POF","Privately Owned Facility"
"CHAMPION SPARK PLUG CO","MI00000000000B2164","MI","110027375828","336322",42.442019,-83.018566,,"POF","Privately Owned Facility"
"CHARLES RIVER LABORATORIES","MI00000000000B2050","MI","110000852319","541714 541715",42.2196,-85.7806,,,
"CHEM TREND INC","MI00000000000N1862","MI","110000408309","325998",42.6047,-83.94886,1,"POF","Privately Owned Facility"
"CHEM TREND INC","MI00000000000B2303","MI","110000408265","325998",42.59255,-83.88993,,"POF","Privately Owned Facility"
"CHEMCAST CORP","MI00000000000N2791","MI","110001299238","326199",42.53236,-83.10163,,"POF","Privately Owned Facility"
"CHEMETALL US, INC.","MI00000000000B4813","MI","110000406123","325611",42.20777,-83.40455,,"POF","Privately Owned Facility"
"CHEMICAL PROCESSING INC","MI00000000000B5785","MI","110000406659","332813",42.376381,-83.02513,,,
"CHENEY LIMESTONE CO","MI00000000000N5720","MI","110001847084","212312",42.43025,-85.03662,,,
"CHEROKEE BOATS, INC.","MI00000000000N2360","MI","110009393584","336612",44.37701,-86.01356,,,
"CHERRY GROWERS INC","0500026055R5001","MI","110016798875","311421",44.66506,-85.702468,,,
"CHEVRON MICHIGAN, LLC - CLEARWATER 2 CPF","MI00000026079N7092","MI","110041062925","211111 211130",44.8453,-85.2362,,"POF","Privately Owned Facility"
"CHEVRON MICHIGAN, LLC - CLEARWATER CENTR","MI00000026079P0043","MI","110062703070","211111",44.8634641,-85.2249219,,"POF","Privately Owned Facility"
"CHEVRON RED ARROW RNG, LLC","MI00000000000P1159","MI","110071641324","221210 325120",42.168525,-86.166447,,,
"CHIEFTAIN COATING, LLC.","MI00000000000B6067","MI","110003714883","332812",42.55556,-82.93032,,,
"CHIPPEWA ANIMAL CLINIC","MI00000000000N5900","MI","110045485621","541940",46.463031,-84.332768,,"POF","Privately Owned Facility"
"CHRISTENSEN FIBERGLASS, LLC","MI00000000000N5883","MI","110045485916","336612",42.801415,-86.127152,,"POF","Privately Owned Facility"
"CHROME CRAFT CORP","MI00000000000A8830","MI","110000406515","332813",42.40787,-83.11232,,"POF","Privately Owned Facility"
"CHRYSLER LLC - DETROIT AXLE","MI00000000000B3160","MI","110000407104","336350",42.40488,-83.03037,,,
"CIMAREX ENERGY (OEHRLI 1-30)","MI00000000000P0735","MI","110069993358","211130",43.8324,-85.441,,,
"CINTAS CORPORATION","MI00000000000P0698","MI","110003598401","812331 812332",43.62273,-84.22453,,,
"CINTAS CORPORATION","MI00000000000P0693","MI","110003647821","812331 812332",42.33082,-83.42705,,,
"CINTAS CORPORATION","MI00000000000P0697","MI","110061957832","812331 812332",43.02266,-85.78565,,,
"CINTAS CORPORATION","MI00000000000P1050","MI","110070666957","812331 812332",42.707492,-84.662075,,,
"CINTAS CORPORATION","MI00000000000P0696","MI","110062088609","812331 812332",42.67602,-82.96337,,,
"CINTAS CORPORATION","MI00000000000P0694","MI","110037410913","812331 812332",42.52508,-83.09576,,,
"CIRCLE ENVIRONMENTAL","MI00000000000N6571","MI","110002357011","812332",42.50171,-83.51313,,"POF","Privately Owned Facility"
"CITGO PETROLEUM CORP","MI00000000000B9041","MI","110001681136","424710",42.30998,-84.42088,,,
"CITGO PETROLEUM CORPORATION","MI00000000000B9043","MI","110001839912","424710",41.78643,-86.25475,,,
"CITGO PETROLEUM CORPORATION","MI00000000000B6258","MI","110001841106","424710",43.081258,-86.219449,,,
"CITIZENS DISPOSAL, INC.","MI00000000000N5991","MI","110028027873","562212",42.914749,-83.722404,,,
"CITY ALUMINUM FOUNDRY","MI00000000000N6212","MI","110012610512","331528",42.67039,-83.3394,,"POF","Privately Owned Facility"
"CITY CONCRETE & ASPHALT CRUSHING LLC","MI00000000000M4807","MI","110031506369","212319",42.36591,-83.04774,,"POF","Privately Owned Facility"
"CITY ENVIRONMENTAL SERVICES INCORPORATED OF WATERS","MI00000000000N5988","MI","110010302332","562212",44.848665,-84.666405,,,
"CITY OF BATTLE CREEK WASTEWATER TREATMENT PLANT","MI00000000000B6307","MI","110000543644","221320",42.351332,-85.28928,,,
"CITY OF CHELSEA","MI00000000000N6603","MI","110012162587","221112",42.31947,-84.0309,,,
"CITY OF MIDLAND - MIDLAND WATER RECLAMATION","0500000026111R5003","MI","110072072124","221320",43.604512,-84.141344,,"POF","Privately Owned Facility"
"CITY OF MIDLAND UTILITIES DIVISION","MI00000000000N6004","MI","110060490856","562212",43.626641,-84.174323,,,
"CITY OF PORTLAND LIGHT AND POWER","MI00000000000N5352","MI","110070520701","221112",42.86857,-84.89596,,,
"CITY OF ST. LOUIS","MI00000000000N5724","MI","110028030477","221112",43.41225,-84.60876,,,
"CITY RECYCLING INC","0500025163R5005","MI","110061057582","423930",42.35466,-83.03977,,,
"CITY SAND & LANDFILL INC","MI00000000000M4510","MI","110001853628","562212",42.110086,-83.494311,,,
"CLARIOS APS PRODUCTION","MI00000000000P0194","MI","110045980275","335911",42.7544,-86.11108,,,
"CLAUSING INDUSTRIAL INC","MI00000000000A2122","MI","110001848341","333512",42.3114,-85.57903,,"POF","Privately Owned Facility"
"CLAWSON CONCRETE CO","MI00000000000B8763","MI","110001841687","327320",42.2822,-83.12718,,"POF","Privately Owned Facility"
"CLAWSON CONCRETE CO","MI00000000000B6281","MI","110064314415","327320",42.63426,-83.28694,,"POF","Privately Owned Facility"
"CLAWSON TANK COMPANY","MI00000000000B8815","MI","110000797665","332420",42.70562,-83.44186,,,
"CLEAN EARTH OF MICHIGAN LLC","0500026163R5011","MI","110020892916","562119",42.395265,-83.155673,,,
"CLEAN HARBORS INDUSTRIAL SERVICES","MI00000000000P1467","MI","110072000313","562211",43.5942,-84.2184,,,
"CLEMENS FOOD GROUP","MI00000000000P0585","MI","110070072189","311611",41.97081,-84.96677,,,
"CLEVELAND-CLIFFS STEEL CORPORATION DEARBORN WORKS","MI00000000000A8640","MI","110060497001","331110",42.301742,-83.162934,8460,,
"CLINTON RIVER WRRF","MI00000000000B1950","MI","110000759956","221320",42.6378,-83.249668,,,
"CLINTON VILLAGE OF","MI00000000000B6508","MI","110001826506","221112",42.069837,-83.975971,,,
"CLOVERLAND ELECTRIC - MANISTIQUE DIESEL PEAKERS","MI00000000000N8304","MI","110003658328","221112",45.958935,-86.257723,,,
"CLOVERLAND ELECTRIC COOPERATIVE - DAFTER","MI00000000000B6107","MI","110044320080","221112",46.37452,-84.4174,,,
"CLOVERLAND ELECTRIC COOPERATIVE - DETOUR","MI00000000000B6106","MI","110044320071","221112",45.970305,-83.948811,,,
"CME CORP","MI00000000000N2165","MI","110000408354","336322",43.572652,-84.777584,,"POF","Privately Owned Facility"
"CMI MCDANIEL TANK MFG CO","MI00000000000M4035","MI","110009598916","335999",42.79995,-83.62755,,"POF","Privately Owned Facility"
"CMS ENERGY CORPORATION","MI00000000000N6768","MI","110038951195","221112",43.48735,-83.91722,,"POF","Privately Owned Facility"
"CMS GAS TRANSMISSION CO. - ST KALKASKA D","MI00000000000N6465","MI","110013837465","211111",44.7379,-85.2312,,"POF","Privately Owned Facility"
"CMS GENERATION KALAMAZOO RIVER GENERATING STATION","MI00000000000N6731","MI","110007393105","221112",42.288374,-85.494669,,,
"CMS GENERATION MICHIGAN POWER LLD - LIVINGSTON GENERATING STATION","MI00000000000N6526","MI","110002356922","221112",45.0305,-84.7308,,,
"CNC PRODUCTS","MI00000000000N5660","MI","110001130311","332322",41.78854,-86.25047,,"POF","Privately Owned Facility"
"CNUDDE ASPHALT PAVING","MI00000000000B1488","MI","110001825106","324121",43.6038047,-83.9554112,,"POF","Privately Owned Facility"
"COASTAL CONTAINER CORP","MI00000000000B5453","MI","110045490820","322211",42.75549,-86.08911,,"POF","Privately Owned Facility"
"COAT IT INC","MI00000000000N5817","MI","110000406953","325520",42.46533,-83.12887,,"POF","Privately Owned Facility"
"COATING REMOVAL TECHNOLOGIES INC","MI00000000000N5722","MI","110001847100","332813",42.66978,-82.8496,,"POF","Privately Owned Facility"
"COATING SPECIALTIES INC","MI00000000000N2124","MI","110000407319","325510",42.64872,-83.26529,,"POF","Privately Owned Facility"
"COBRA OIL & GAS CORPORATION - CLAYTON UNIT CPF","MI00000000000N8162","MI","110054193421","211130",44.154144,-83.980656,,,
"CODING PRODUCTS, A DIVISION OF ILLINOIS TOOL WORKS","MI00000000000B6175","MI","110041036544","323111",44.732985,-85.168213,70303,,
"COLDWATER BAKERY DIVISION","MI00000000000N5429","MI","110001844559","311812",41.9264,-85.0146,,"POF","Privately Owned Facility"
"COLDWATER BOARD OF PUBLIC UTILITIES","MI00000000000B1525","MI","110028026455","221122",41.933995,-84.99553,,,
"COLDWATER VENEER","MI00000000000B6620","MI","110012601292","321211",41.93562,-85.02595,,"POF","Privately Owned Facility"
"COLE SPECIALITY SYSTEMS","MI00000000000N5853","MI","110000407300","325998",42.70533,-83.25428,,"POF","Privately Owned Facility"
"COLLIER ROAD LANDFILL","MI00000000000N6041","MI","110012611888","562212",42.687393,-83.291167,,"POF","Privately Owned Facility"
"COLLINS & AIKMAN CLINTON TWP OPERATIONS","MI00000000000N5441","MI","110013837768","326199",42.62832,-82.86959,,"POF","Privately Owned Facility"
"COLLINS & AIKMAN PLASTICS","MI00000000000N3352","MI","110001845399","325991",42.14791,-84.04554,,"POF","Privately Owned Facility"
"COLLINS & AIKMAN STERLING HEIGHTS OPERAT","MI00000000000B7025","MI","110041214272","336399",42.55084,-83.04064,,"POF","Privately Owned Facility"
"COLLINS AND AIKMAN PLASTICS, INC.","MI00000000000A0358","MI","110001130482","326199",42.07454,-86.49952,,"POF","Privately Owned Facility"
"COLLINS AND AIXMAN","MI00000000000B8703","MI","110009598998","324122",42.26687,-84.97879,,"POF","Privately Owned Facility"
"COLLISION CRAFTSMEN","MI00000000000N5600","MI","110045488478","811121",42.6706,-82.98914,,,
"COLUMBUS ILI PRODUCTION LLC  (SAMSON RES","MI00000000000B7551","MI","110045484025","211112",42.891913,-82.674886,,"POF","Privately Owned Facility"
"COMAU PICO (PROGRESSIVE TOOL INDUSTRIES)","MI00000000000N6267","MI","110010574547","333518",42.44583,-83.27787,,"POF","Privately Owned Facility"
"COMCAST URETHANE","MI00000000000N5601","MI","110000409246","326150",42.2528,-84.96523,0,"POF","Privately Owned Facility"
"COMFORT RESEARCH","MI00000000000N8148","MI","110040756198","326140",42.89735,-85.65307,,,
"COMFORT RESEARCH","MI00000000000N1916","MI","110046466098","326140",42.9941,-85.6827,,,
"COMMERCIAL STEEL TREATING CORPORATION","MI00000000000B5929","MI","110000405008","332811",42.52402,-83.11954,,,
"COMPAZO INC","MI00000000000N1975","MI","110017401373","326191",42.4539,-83.4672,,,
"COMPONENT SERVICES","MI00000000000N2065","MI","110000856921","337214",43.94628,-86.42428,,"POF","Privately Owned Facility"
"COMPOSITECH","MI00000026081P0479","MI","110062703301","326122",42.95259,-85.353,,"POF","Privately Owned Facility"
"COMPOSITECH","MI00000000000P0479","MI","110062703301","326122",42.95259,-85.353,,,
"CON-AGRA FOODS","MI00000000000N7402","MI","110000558879","311612",41.967669,-84.825933,,"POF","Privately Owned Facility"
"CONAGRA FOODS PACKAGED FOODS, LLC","MI00000000000B2359","MI","110021149014","311421",42.5943,-86.10204,,,
"CONE DRIVE TEXTRON","MI00000000000B6293","MI","110009596892","333612",44.75468,-85.61942,0,"POF","Privately Owned Facility"
"CONFORMANCE COATING AND PROTOTYPE, INC","MI00000000000N0871","MI","110001841357","326199",42.88835,-82.48961,,,
"CONNOR AGA SPORTS FLOORING, LLC","MI00000000000B7099","MI","110001842882","321918",46.2052,-88.4116,,,
"CONSOLIDATED CRUSHED STONE, INC.","0500000026065R0002","MI","110021101154","212312",42.523822,-84.375758,,"POF","Privately Owned Facility"
"CONSOLIDATED NUTRITION  L C","MI00000000000A1693","MI","110000408470","311119",42.86967,-84.8995,,"POF","Privately Owned Facility"
"CONSTRUCTION RECYCLING SYSTEMS, INC.","MI00000000000N6301","MI","110012610905","212399",42.36314,-86.24397,,"POF","Privately Owned Facility"
"CONSUMERS CONCRETE","0500000026777R0002","MI","110003565446","212321",42.45353,-85.67116,,"POF","Privately Owned Facility"
"CONSUMERS ENERGY - FREEDOM COMPRESSOR STATION","MI00000000000N3920","MI","110001845406","221210 486210",42.20834,-83.96861,,,
"CONSUMERS ENERGY - GRAND RAPIDS SERVICE CENTER","MI00000000000P0514","MI","110003604939","221118",42.89134,-85.67777,,,
"CONSUMERS ENERGY - MUSKEGON RIVER COMPRESSOR STATION","MI00000000000N2901","MI","110009599531","221210 486210",44.082163,-85.014231,,,
"CONSUMERS ENERGY - NORTHVILLE COMPRESSOR STATION","MI00000000000N1099","MI","110001853566","221210 486210",42.42764,-83.55152,,,
"CONSUMERS ENERGY - OVERISEL COMPRESSOR STATION","MI00000000000N5792","MI","110042005175","486210",42.695475,-85.950339,,,
"CONSUMERS ENERGY - RAY COMPRESSOR STATION","MI00000000000B6636","MI","110001845246","486210",42.80932,-82.863158,,,
"CONSUMERS ENERGY - ST. CLAIR COMPRESSOR STATION","MI00000000000B6637","MI","110001841393","486210",42.72134,-82.71623,,,
"CONSUMERS ENERGY - WHITE PIGEON COMPRESSOR STATION","MI00000000000N5573","MI","110001847967","486210",41.80285,-85.5862,,,
"CONSUMERS ENERGY CO","MI00000000000N2945","MI","110001301261","221122",43.39007,-84.66679,,"POF","Privately Owned Facility"
"CONSUMERS ENERGY CO. - JACKSON GENERATING STATION","MI00000000000N6626","MI","110015804511","221112",42.24934,-84.37814,,,
"CONSUMERS ENERGY CO. - ZEELAND GENERATING STATION","MI00000000000N6521","MI","110012534551","221112",42.820557,-85.997583,,,
"CONSUMERS ENERGY D.E. KARN FACILITY","MI00000000000B2840","MI","110000593171","221112",43.644298,-83.840854,0,,
"CONSUMERS ENERGY GAYLORD COMBUSTION TURBINE PLANT","MI00000000000B2942","MI","110001844247","221112",45.03019,-84.70426,,,
"CONSUMERS ENERGY MORROW COMBUSTION TURBINE PLANT","MI00000000000N6252","MI","110008446388","221112",42.288374,-85.494669,,,
"CONSUMERS ENERGY STRAITS COMBUSTION TURBINE PLANT","MI00000000000B2919","MI","110003620733","221112",45.767118,-84.756726,,,
"CONSUMERS ENERGY THETFORD COMBUSTION TURBINE PLANT","MI00000000000B2918","MI","110001847093","221112",43.1562,-83.6284,,,
"CONSUMERS ENERGY-LUDINGTON PUMPED STORAGE FACILITY","MI00000000000P0068","MI","110002305390","221111",43.892582,-86.442362,,,
"CONSUMERS RECYCLING, INC. EAST","0500000026163R0010","MI","110001848975","325188",42.420392,-83.038373,,"POF","Privately Owned Facility"
"CONTECH DIV ALMA PLANT","MI00000000000B2864","MI","110000408041","331524",43.37592,-84.646348,,"POF","Privately Owned Facility"
"CONTECH U.S. LLC","MI00000000000B3640","MI","110008447608","331521",42.053588,-86.107128,0,"POF","Privately Owned Facility"
"CONTINENTAL ALUMINUM","MI00000000000N6013","MI","110000405981","331314",42.50255,-83.61513,,,
"CONTINENTAL COATINGS","MI00000000000A6330","MI","110000405151","336399",42.787897,-82.496513,,"POF","Privately Owned Facility"
"CONTINENTAL DAIRY FACILITIES, LLC","MI00000000000B7038","MI","110045482768","311514",43.05984,-85.95174,,,
"CONTINENTAL DISTRIBUTING CORP.","03000MI00001","MI","110069328338","423810",42.876536,-85.677748,,,
"CONTINENTAL IDENTIFICATION PRODUCTS","MI00000000000M3549","MI","110001294803","323113",43.1562,-85.70676,,,
"CONTINENTAL LIGHTING","MI00000000000N2004","MI","110001845273","336399",42.60572,-83.04618,,"POF","Privately Owned Facility"
"CONTROL ENGINEERING CO","MI00000000000N5820","MI","110001680011","335312",45.463889,-84.91,,"POF","Privately Owned Facility"
"CONTROL ENGINEERING CO","MI00000000000N2161","MI","110001852433","333922",45.563998,-84.784144,,"POF","Privately Owned Facility"
"CONTROLLED PLATING TECHNOLOGIES  INC","MI00000000000B1725","MI","110000411304","332813",42.94278,-85.68486,,"POF","Privately Owned Facility"
"CONTROLLED POWER CO","MI00000000000N1927","MI","110001679951","335311",42.55337,-83.125664,,,
"CONVERTERS PAPERBOARD CO","MI00000000000B1264","MI","110001840599","322130",43.102402,-85.57939,,"POF","Privately Owned Facility"
"CONVEYOR SYSTEMS INC.","MI00000000000N7236","MI","110015829166","333922",45.103977,-83.458851,,,
"CONWAY PRODUCTS CORPORATION D/B/A EMERALD SPA CORP","MI00000000000M3333","MI","110001826472","326191",42.88968,-85.56731,,,
"COOKS AUTO PARTS","0500026035R5001","MI","110070924529","441310",44.029969,-84.879144,,,
"COONEY INDUSTRIES INC","MI00000000000A3807","MI","110008444362","333922",42.479797,-82.943713,,"POF","Privately Owned Facility"
"COOPER MAT LLC N6693)","MI00000000000N6693","MI","110000407122","332811",42.445833,-83.035,24000,,
"COOPER STANDARD AUTOMOTIVE","MI00000000000A5797","MI","110041212345","326291",44.97252,-84.67861,,,
"COOPERATIVE ELEVATOR CO","MI00000000000M1921","MI","110001826908","424510",43.81922,-83.14782,,"POF","Privately Owned Facility"
"COOPERATIVE ELEVATOR CO","MI00000000000B1635","MI","110007275466","424510",43.83005,-83.267024,,"POF","Privately Owned Facility"
"COPCO DOOR COMPANY","MI00000000000N6649","MI","110001849037","332321",42.45669,-83.115282,,"POF","Privately Owned Facility"
"COPELAND GIBSON PRODUCTS CO","MI00000000000A5593","MI","110001441789","336211",42.45505,-83.17487,,"POF","Privately Owned Facility"
"COPPER COUNTRY VET CLINIC","MI00000000000N6575","MI","110001849108","541940",47.112355,-88.561856,,"POF","Privately Owned Facility"
"CORE ANTRIM COMPANY LLC BOTT CPF","MI00000000000N6907","MI","110045492819","211130",45.02736,-84.67717,,,
"CORE ANTRIM COMPANY LLC CHARLTON 32","MI00000000000N6947","MI","110038047413","211130",44.9513,-84.4611,,,
"CORE ENERGY - BEAVER CREEK C3-11","MI00000000000P0435","MI","110056285666","211130",44.5753,-84.7547,,,
"CORE ENERGY LLC - BAGLEY 11","MI00000000000N6119","MI","110024524709","211130",45.0048,-84.6272,,,
"CORE ENERGY LLC - CHARLTON 28","MI00000000000N6086","MI","110012611067","211120",45.043,-84.4322,,,
"CORE ENERGY LLC - CHARLTON 7","MI00000000000N6089","MI","110010568732","211120",45.0855,-84.4872,,,
"CORE ENERGY LLC - DOVER 36 CPF","MI00000000000P0446","MI","110056285719","211120",45.0358,-84.5103,,,
"CORE ENERGY, INC. - CHESTER 16","MI00000000000P1100","MI","110070916444","211120",44.9723,-84.539519,,,
"COREWELL HEALTH BLODGETT CAMPUS","MI00000000000E6807","MI","110003604877","622110",42.95508,-85.62377,,,
"COREWELL HEALTH-BUTTERWORTH CAMPUS","MI00000000000M2032","MI","110054249513","622110",42.9695,-85.6657,,,
"CORO TECH CO.","MI00000000000N7567","MI","110024441264","326122",42.90905,-85.73885,,,
"CORSAIR ENGINEERING INC","MI00000000000N1366","MI","110001840063","332312",43.039404,-83.655312,,"POF","Privately Owned Facility"
"CORT FURNITURE RENTAL","MI00000000000N5920","MI","110001679443","337122",42.47842,-83.46477,,"POF","Privately Owned Facility"
"CORTEVA AGRISCIENCE LLC","MI00000000000P1028","MI","110070525251","325320",43.606948,-84.217473,51363,,
"CORTEVA LLC","MI00000000000B4942","MI","110000758298","325320",43.846111,-82.649722,8518,,
"COSMA CASTING MICHIGAN","MI00000000000N8223","MI","110066967580","331523",42.34573,-85.28152,0,,
"COSTCO WHOLESALE - AUBURN HILLS","MI0000002612505924","MI","110003715551","812922",42.70736,-83.2961,,"POF","Privately Owned Facility"
"COSTCO WHOLESALE - BLOOMFIELD","MI0000002612505925","MI","110003697278","812922",42.60515,-83.29438,,"POF","Privately Owned Facility"
"COSTCO WHOLESALE - COMMERCE TOWNSHIP","MI0000002612505926","MI","110015906037","812922",42.53497,-83.44465,,"POF","Privately Owned Facility"
"COSTCO WHOLESALE - GRAND RAPIDS EAST","MI0000002608105927","MI","110020485875","812922",42.91274,-85.54138,,"POF","Privately Owned Facility"
"COSTCO WHOLESALE - GREEN OAK TOWNSHIP","MI0000002609305928","MI","110020477312","812922",42.50448,-83.75938,,"POF","Privately Owned Facility"
"COSTCO WHOLESALE - LIVONIA I","MI0000002616305929","MI","110003697241","812922",42.382344,-83.333637,,"POF","Privately Owned Facility"
"COSTCO WHOLESALE - LIVONIA II","MI0000002616305930","MI","110003691602","812922",42.43392,-83.43347,,"POF","Privately Owned Facility"
"COSTCO WHOLESALE - MADISON HEIGHTS","MI0000002612505931","MI","110009394832","812922",42.515627,-83.117457,,"POF","Privately Owned Facility"
"COSTCO WHOLESALE - ROSEVILLE","MI0000002609905932","MI","110003697232","812922",42.49609,-82.93714,,"POF","Privately Owned Facility"
"COSTCO WHOLESALE - SHELBY TOWNSHIP","MI0000002609905933","MI","110003717693","812922",42.630319,-82.980793,,"POF","Privately Owned Facility"
"COSTCO WHOLESALE - WYOMING","MI0000002608105934","MI","110021010984","812922",42.87594,-85.76264,,"POF","Privately Owned Facility"
"COUNTRY FRESH, LLC.","MI00000000000E4981","MI","110000411867","311511",42.91703,-85.67111,10,"POF","Privately Owned Facility"
"COUNTRY MAID STOVES","0500000026073R0001","MI","110045945046","212321",43.71527,-84.76777,,"POF","Privately Owned Facility"
"COURVILLE CARLAND INC","MI00000000000N5695","MI","110001300164","321999",44.63894,-86.22232,,"POF","Privately Owned Facility"
"COUSINS PETROLEUM","MI00000000000B9215","MI","110001954476","424710",42.24717,-83.29652,,,
"COVERT GENERATING STATION","MI00000000000N6767","MI","110015846076","221112",42.32125,-86.2919,,,
"CPI ENGINEERING SERVICES INC","MI00000000000N1951","MI","110001441556","325998",43.61101,-84.19961,,"POF","Privately Owned Facility"
"CRAMTON GIFT MFG INC","MI00000000000N2753","MI","110001680244","326299",43.4498,-83.93837,,"POF","Privately Owned Facility"
"CRANBROOK ACADEMY OF ART","MI00000000000N2281","MI","110003612528","611110",42.56744,-83.23893,,,
"CRANE RESISTOFLEX, PLASTIC LINED PIPING","MI00000000000B5187","MI","110009597757","326122",43.623317,-83.866002,,"POF","Privately Owned Facility"
"CREATIVE FOAM CORP","MI00000000000A1206","MI","110001680477","326299",42.80157,-83.71361,,"POF","Privately Owned Facility"
"CREATIVE FOAM CORPORATION","MI00000000000N2115","MI","110000767439","336390",42.80031,-83.72791,,,
"CREATIVE FOAM CORPORATION","MI00000000000N6574","MI","110003705982","326150",42.79487,-83.72611,,,
"CREATIVE FOAM CORPORATION","MI00000000000B7107","MI","110003608613","326199",41.996358,-86.094181,,"POF","Privately Owned Facility"
"CREECH CONCRETE AND EXCAVATION","MI00000000000B6468","MI","110038961200","327320",41.97269,-83.63101,,"POF","Privately Owned Facility"
"CRESCENT ELECTRIC SUPPLY COMPANY","0500026081R5003","MI","110070236493","423610",42.884127,-85.678607,,,
"CRESCENT METAL PRODUCTS","MI00000000000N1727","MI","110045489468","332913",42.513298,-85.829795,,"POF","Privately Owned Facility"
"CREST INDUSTRIES","MI00000000000M4852","MI","110013287362","325520",42.15593,-83.1844,,,
"CRETENS BROS WATERBEDS INC","MI00000000000N5116","MI","110001293957","337122",45.977937,-87.063191,,"POF","Privately Owned Facility"
"CROP PRODUCTION SERVICES","MI00000000000B7364","MI","110000552223","325314",42.761739,-85.073029,,"POF","Privately Owned Facility"
"CROSS & PETERS CO","MI00000000000B4793","MI","110031508241","311919",42.39647,-83.00296,,"POF","Privately Owned Facility"
"CROSS CHEMICAL","0500000026163R0001","MI","110001829718","336111",42.29388,-83.12964,,"POF","Privately Owned Facility"
"CROSS HUELLER DBA MAG POWERTRAIN","MI00000000000N7636","MI","110003660431","333518",42.9708,-82.425,,"POF","Privately Owned Facility"
"CROSWELL LIGHT AND POWER DEPARTMENT","MI00000000000N5545","MI","110038458077","221112",43.273,-82.6143,,,
"CROWN GROUP THE DETROIT","MI00000000000B3280","MI","110038956902","332812",42.43368,-83.03844,,"POF","Privately Owned Facility"
"CROWN GROUP THE ECORSE","MI00000000000N0748","MI","110000407079","332812",42.23767,-83.15301,,"POF","Privately Owned Facility"
"CROWN GROUP THE LIVONIA","MI00000000000N0745","MI","110000405829","332812",42.36973,-83.35609,,"POF","Privately Owned Facility"
"CROWN GROUP, LYNCH ROAD PLANT","MI00000000000M4623","MI","110011585301","332812",42.40477,-83.03651,,,
"CROWN PLATING","0500000026163R9061","MI","110001301323","332813",42.29477,-83.10791,,"POF","Privately Owned Facility"
"CROWN VANTAGE","MI00000000000B1679","MI","110012696001","322121",42.32678,-85.57037,,"POF","Privately Owned Facility"
"CRYSTAL FLASH LTD PRTNRSHP OF MICHIGAN","MI00000000000N5873","MI","110009392326","454311",44.276682,-85.406598,,"POF","Privately Owned Facility"
"CRYSTAL REFINING CO.","MI00000000000F6726","MI","110001679719","324110",43.183611,-84.850833,,"POF","Privately Owned Facility"
"CUL-MAC INDUSTRIES INC","MI00000000000N5861","MI","110000406301","325998",42.28085,-83.36314,,"POF","Privately Owned Facility"
"CUMMINGS MOORE GRAPHITE CO","MI00000000000M2369","MI","110001827694","335991",42.309432,-83.118071,,"POF","Privately Owned Facility"
"CURTIS BURNS FOODS","MI00000000000N6410","MI","110001848476","311421",42.152234,-85.851922,,"POF","Privately Owned Facility"
"CUSHMAN FAB & MACHINE INC","MI00000000000N3746","MI","110002027459","332999",46.253385,-84.462231,,"POF","Privately Owned Facility"
"CUSTOM ASPHALT PRODUCERS, LLC","MI00000000000B4166","MI","110041245364","324121",42.748658,-85.663086,,"POF","Privately Owned Facility"
"CUSTOM CRUSHING RECYCLE","MI00000000000N6664","MI","110021299414","212321",42.84836,-85.68815,,"POF","Privately Owned Facility"
"CUSTOMETAL PRODUCTS","MI00000000000N2632","MI","110003684264","332322",42.07453,-86.501635,,"POF","Privately Owned Facility"
"CUTTING EDGE ABRASIVE","MI00000000000N6647","MI","110071665364","425120",42.882673,-85.571231,,,
"CWC TEXTRON","MI00000000000B1909","MI","110000410760","331511",43.20541,-86.27037,468,,
"CYGNET AUTOMATED CLEANING, L.L.C.","MI00000000000N7422","MI","110000406007","325510",42.38957,-83.49593,,,
"CYGNET AUTOMATED CLEANING, LLC","MI00000000000P0997","MI","110003599393","325510",42.355342,-83.454648,16853,,
"CYTEC IND INC","0500026091R5001","MI","110057677679","325199",42.26683,-85.54118,2251,,
"D & B METAL FINISHINGS, LLC","MI00000000000N6760","MI","110012705340","332813",42.625274,-82.878606,,,
"D & S PLASTICS, INC.","MI00000000000N3301","MI","110001844684","541990",42.69973,-83.2774,,"POF","Privately Owned Facility"
"D N R INC","MI00000000000M4403","MI","110001845576","325998",42.32732,-83.41986,,,
"D'ELEGANT INC","MI00000000000N6315","MI","110001826454","532120",42.14679,-85.63699,,,
"DAFTER SANITARY LANDFILL INC","MI00000000000N6033","MI","110007271781","562212",46.3358,-84.444,,,
"DAG TECHNOLOGY, INC.","MI00000000000P1191","MI","110071155306","326199",42.88273,-83.63053,,,
"DAIMLER TRUCKS NORTH AMERICA","03000MI00003","MI","110070029310","333618",42.37642,-83.26104,,,
"DAIMLERCHRYSLER - WARREN OFFICE AND WARE","MI00000000000B6546","MI","110015655593","441110",42.44826,-83.03573,,"POF","Privately Owned Facility"
"DAIMLERCHRYSLER MCGRAW GLASS","MI00000000000B2913","MI","110000407220","327215",42.32993,-83.15617,,"POF","Privately Owned Facility"
"DAISEY PARTS, INC. PLANT","MI00000000000N3607","MI","110003578290","332999",41.922218,-84.627099,,"POF","Privately Owned Facility"
"DAKE CORPORATION","MI00000000000A5905","MI","110001442109","333512",43.04445,-86.2243,,"POF","Privately Owned Facility"
"DALE HOFFMAN & SONS","MI00000000000M3644","MI","110013321299","424510",42.27495,-84.8753,,"POF","Privately Owned Facility"
"DAN HOE","MI00000000000N6531","MI","110001825749","212319",42.804788,-86.077938,,"POF","Privately Owned Facility"
"DAN THE JUNK GUY","0500027005R5001","MI","110070824262","423930",42.44987,-85.66454,,,
"DANA CORPORATION","MI00000000000N6763","MI","110021099201","336399",42.49555,-83.39762,,"POF","Privately Owned Facility"
"DANE SYSTEMS, INC.","MI00000000000N3218","MI","110001827417","333249",41.98655,-86.53848,,"POF","Privately Owned Facility"
"DANNY'S FINE FOOD","MI00000000000M3184","MI","110038040866","445110",41.922471,-83.408062,,"POF","Privately Owned Facility"
"DAPCO INDUSTRIES","MI00000000000N3267","MI","110000405632","332911",42.32565,-83.8778,18699,,
"DARCO CORP","MI0000002616309008","MI","110001680841","327124",42.2704476,-83.1315356,,"POF","Privately Owned Facility"
"DARE PRODUCTS INC","MI00000000000A0625","MI","110001830458","326199",42.31785,-85.21891,,"POF","Privately Owned Facility"
"DARLING INGREDIENTS, INC.","MI00000000000B1526","MI","110001825277","311613",41.92397,-85.01491,0,,
"DARLING INGREDIENTS, INC.","MI00000000000A6902","MI","110066858190","311613",42.29028,-83.17214,,,
"DART CONTAINER CORPORATION OF MICHIGAN","MI00000000000D8065","MI","110001826926","326140",42.59535,-84.46718,0,,
"DART OIL & GAS CORP","MI00000000000N6159","MI","110002405610","211111",44.094213,-85.068231,,"POF","Privately Owned Facility"
"DART OIL & GAS CORP","MI00000000000N6161","MI","110001846272","211111",44.262677,-85.094202,,"POF","Privately Owned Facility"
"DAVIDSON PLYFORMS INC","MI00000000000B8606","MI","110001847173","321211",42.90352,-85.5323,,,
"DAY INTERNATIONAL, INC. A FLINT GROUP COMPANY","MI00000000000B2014","MI","110000409512","326299",41.941471,-85.649527,,,
"DCP  WEST BRANCH COMPRESSOR STATION","MI00000000000N6764","MI","110022404165","486210",44.29,-84.19,,,
"DCP ANTRIM GAS LLC","MI00000000000N2940","MI","110001844274","486210",44.9159,-84.5411,,,
"DCP MICHIGAN HOLDING LLC - VIENNA","MI00000000000N5421","MI","110038040955","211130",45.01344,-84.39578,,,
"DCP MICHIGAN HOLDING, LLC- TURTLE LAKE FAC.","MI00000000000N5830","MI","110040970973","211130",44.91811,-84.54538,,,
"DCP MICHIGAN HOLDINGS, LLC","MI00000000000N5309","MI","110041031282","213112",45.0325,-84.8592,,"POF","Privately Owned Facility"
"DCP THUNDER BAY PROCESSING LLC","MI00000000000N6029","MI","110013868305","211130",44.818382,-83.40461,,,
"DDP SPECIALTY ELECTRONIC MATERIALS US, LLC","MI00000000000P1027","MI","110070540611","325199 325211",43.601944,-84.235556,27460,,
"DE SAEGHER ENERGY LLC","MI00000000000P1256","MI","110041950617","221210",43.248524,-84.759067,,,
"DEAN SPECIALTY FOODS GROUP LLC","MI00000000000A0304","MI","110000408960","311999",42.114149,-86.459085,,"POF","Privately Owned Facility"
"DEARBORN INDUSTRIAL GENERATION","MI00000000000N6631","MI","110006650132","221112",42.3041,-83.1521,,,
"DEARBORN MID-WEST COMPANY","MI00000000000M4825","MI","110020049393","333922",42.20908,-83.23093,,,
"DEBOER ASPHALT PAVING CO","MI00000000000B6156","MI","110001841419","324121",41.95408,-85.66749,,"POF","Privately Owned Facility"
"DECC CO INC","MI00000000000N3751","MI","110001847011","339999",42.9396,-85.67465,,,
"DECKER MANUFACTURING","MI00000000000A0631","MI","110011597673","332722",42.250973,-84.736579,,"POF","Privately Owned Facility"
"DECORATIVE PANELS INTERNATIONAL","MI00000000000B1476","MI","110000412170","321219",45.064036,-83.424389,,,
"DECORATIVE VENEER","MI00000000000N2630","MI","110001847716","337127",42.44807,-85.625,,"POF","Privately Owned Facility"
"DEDOES INDUSTRIES","MI00000000000M4067","MI","110001683143","332999",42.5507106,-83.4742179,,"POF","Privately Owned Facility"
"DEERFIELD CO OP ASSOC","MI00000000000B8115","MI","110001847235","424510",41.89023,-83.77926,,"POF","Privately Owned Facility"
"DELFIELD CO","MI00000000000B2499","MI","110000408372","333415",43.626712,-84.75083,40,"POF","Privately Owned Facility"
"DELPHI  FLINT WEST","MI00000000000B5468","MI","110002378748","336399",43.00978,-83.70952,,"POF","Privately Owned Facility"
"DELPHI FLINT EAST","MI00000000000A1177","MI","110041159055","336399",43.022447,-83.635,,"POF","Privately Owned Facility"
"DELPHI SAGINAW STEERING SYSTEMS","MI00000000000B4069","MI","110000407685","336330 336399",43.41465,-83.88064,4482,"POF","Privately Owned Facility"
"DELRAY STEEL CASTING INC","MI00000000000M3754","MI","110031169713","331511",42.27276,-83.17309,,"POF","Privately Owned Facility"
"DELTA AIR LINES, INC.","MI00000000000M4164","MI","110043283997","481111",42.22295,-83.34557,,"POF","Privately Owned Facility"
"DELTA COLLEGE","MI00000000000N5930","MI","110002027850","611310",43.560513,-83.985876,,,
"DELTA OIL COMPANY - AXFORD/NIMBY","MI00000000000N6075","MI","110010568698","211130",45.0785,-84.5483,,,
"DELTA OIL COMPANY - GARDNER","MI00000000000N6073","MI","110010568689","211130",45.00975,-84.698738,,,
"DELTA OIL COMPANY - TOWNLINE","MI00000000000N6066","MI","110002379140","211130",45.1227,-84.337,,,
"DELTA OIL COMPANY - VIENNA WALTZ","MI00000000000N6463","MI","110012610433","211130",45.1079,-84.2892,,,
"DELTA SOLID WASTE MANAGEMENT AUTHORITY","MI00000000000N6035","MI","110000852792","562212",45.764722,-87.131,,,
"DELTA TUBE & FABRICATING CORPORATION","MI00000000000B6488","MI","110001829479","332999",42.831367,-83.504444,,,
"DELUXE CHECK PRINTERS","MI00000000000M4588","MI","110001680155","323115",42.37896,-83.38284,,"POF","Privately Owned Facility"
"DELUXE HARD CHROME SERVICE","0500000026163R9065","MI","110001829692","332813",42.39536,-83.145734,,"POF","Privately Owned Facility"
"DEMATIC CORPORATION","MI00000000000A2533","MI","110000890607","333922",42.97235,-85.62514,,"POF","Privately Owned Facility"
"DENSO AIR SYSTEMS MI, INC.","MI00000000000N2037","MI","110000408871","336390",42.33416,-85.29097,,,
"DENSO INTERNATIONAL AMERICA INC","MI00000000000N1127","MI","110046087934","541330",42.47762,-83.289,,,
"DENSO MANUFACTURING MICHIGAN, INC.","MI00000000000N1192","MI","110000408899","336390",42.32981,-85.28384,8020,,
"DENSO MANUFACTURING NORTH CAROLINA MICHIGAN PLANT","MI00000000000N1413","MI","110031334250","336320",42.33183,-85.29054,,,
"DEPENDABLE DIESEL PERFORMANCE","0500026087R5001","MI","110070815058","811111",42.95999,-83.05707,,,
"DEPOR INDUSTRIES","MI00000000000N7599","MI","110003634684","332812",42.55216,-83.16389,1252,,
"DEPOR INDUSTRIES","MI00000000000N6611","MI","110041170318","332812",42.671251,-82.97842,,,
"DESIGNWARE","MI00000000000N5379","MI","110013837189","323111",42.25436,-85.54982,,,
"DETREX CORPORATION","MI00000000000B2273","MI","110000614452","325191",42.39679,-83.17265,,"POF","Privately Owned Facility"
"DETREX CORPORATION","0500000026163R0006","MI","110001300707","325188",42.3754,-83.30027,,"POF","Privately Owned Facility"
"DETROIT CHROME ELECTRO FORMING COMPANY","MI0000002616300207","MI","110012705082","332813",42.39536,-83.14578,0,"POF","Privately Owned Facility"
"DETROIT COATINGS, LLC","MI00000000000B2363","MI","110000497123","332813",42.53172,-83.08673,10380,,
"DETROIT DIESEL CORPORATION","MI00000000000A8638","MI","110000407202","333618",42.37642,-83.26104,10,,
"DETROIT EDISON","MI00000000000N7363","MI","110062731619","221112",42.32311,-83.48797,,,
"DETROIT ELECTRO-COATINGS CO","MI00000000000B6511","MI","110002379532","332812",42.33083,-83.09001,,"POF","Privately Owned Facility"
"DETROIT IRON AND METAL CO","0500026163R5040","MI","110011886110","423930",42.31648,-83.13463,,,
"DETROIT METROPOLITAN WAYNE COUNTY AIRPORT","MI00000000000M4174","MI","110007315967","488119",42.2217,-83.3522,,,
"DETROIT NAME PLATE INC","MI00000000000B8901","MI","110001827738","332999",42.45503,-83.17575,,"POF","Privately Owned Facility"
"DETROIT PUBLIC LIGHTING DEPARTMENT","MI00000000000B2185","MI","110002379426","221112",42.304428,-83.090875,,,
"DETROIT RECYCLED CONCRETE","MI00000000000B6563","MI","110001301118","212319",42.39318,-83.16894,,"POF","Privately Owned Facility"
"DETROIT RENEWABLE POWER, LLC","MI00000000000M4148","MI","110028027926","562213",42.368645,-83.051749,,,
"DETROIT STEEL TREATING CO","MI00000000000N5551","MI","110001679434","332811",42.68371,-83.28753,,"POF","Privately Owned Facility"
"DETROIT STOKER CO","MI00000000000A4109","MI","110001840946","333414",41.906754,-83.37974,,"POF","Privately Owned Facility"
"DETROIT STREET MAINT & CONST","MI00000000000B3656","MI","110038957411","324121",42.331397,-83.082507,,"POF","Privately Owned Facility"
"DETROIT THERMAL BEACON HEATING PLANT","MI00000000000B2814","MI","110040970946","221330",42.33811,-83.04382,,,
