"AIRName","SourceID","AIRState","RegistryID","AIRNAICS","FacLat","FacLong","FacTRIAIRReleases","AIRFacilityTypeCode","AIRFacilityTypeDesc"
"ABSALOKA MINE","MT0000003000300002","MT","110011605263","212111 212114",45.813533,-107.081049,,"POF","Privately Owned Facility"
"ABSAROKEE #054-1","MT0000003009500003","MT","110001474501","486210",45.537217,-109.430862,,"POF","Privately Owned Facility"
"ACE AUTO REPAIR","080000003004990001","MT","110001474333","999999",46.61648,-112.03698,,"POF","Privately Owned Facility"
"ADF INDUSTRIAL COATINGS","MT0000003001300043","MT","110064433251","332312",47.631766,-111.3288702,,"POF","Privately Owned Facility"
"AIR CONTROLS CO.","0800000030111X0909","MT","110039624243","238220",45.78716,-108.49789,,"POF","Privately Owned Facility"
"AIR LIQUIDE","080000003004900904","MT","110004001776","325120",46.5807,-111.91443,,"POF","Privately Owned Facility"
"ALBIN 24X-28","MT0000003008300040","MT","110071642698","211111",47.80551,-104.41469,,"COR","Corporation"
"ALBIN FARMS 31X-31","MT0000003008300039","MT","110071642621","211111",47.80331,-104.45153,,"COR","Corporation"
"ALBIN FARMS 34X-32","MT0000003008300041","MT","110071642702","211111",47.76221,-104.43015,,"COR","Corporation"
"ALLIED WASTE SYSTEMS","MT0000003006300015","MT","110001474351","562212",46.898312,-114.013149,,"POF","Privately Owned Facility"
"ALOE VENTURES FACILITY","MT0000003010100018","MT","110040966602","486210",48.67754,-111.94888,,"POF","Privately Owned Facility"
"ANACONDA SLAG PROCESSING PLANT","MT0000003002300005","MT","110070666894","327992",46.099089,-112.889074,,"POF","Privately Owned Facility"
"ANDERSON STEEL SUPPLY INC.","0800000030013X0002","MT","110011048552","332312",47.52091,-111.24064,,"POF","Privately Owned Facility"
"ASH GROVE CEMENT","MT0000003004300001","MT","110000595197","327310",46.54448,-111.92062,53,"POF","Privately Owned Facility"
"ASSOCIATED FOOD STORES, INC.","080000003004900907","MT","110001474967","493120",46.60209,-111.9922,,"POF","Privately Owned Facility"
"AUGUSTA MAIN LINE #3 (STA 051)","MT0000003004900013","MT","110020374726","486210",47.498263,-112.140795,,"POF","Privately Owned Facility"
"AUTOMOTIVE SPECIALTIES","080000003008500902","MT","110007112855","999999",48.09464,-105.64029,,"POF","Privately Owned Facility"
"AXMEN RECYCLING","0800000030063X0001","MT","110043210922","423930",46.943168,-114.135406,,"POF","Privately Owned Facility"
"BAINVILLE STATION","MT0000003008500003","MT","110001474066","486210",48.16895,-104.24769,,"POF","Privately Owned Facility"
"BAKER PLANT","MT0000003002500001","MT","110002405013","211111 211112 486210",46.38395,-104.2564,,"POF","Privately Owned Facility"
"BAKKEN GATHERING PLANT","MT0000003008300038","MT","110021036635","486210",47.78953,-104.26187,,"POF","Privately Owned Facility"
"BARRETTS MILL","MT0000003000100002","MT","110007654172","327992",45.136111,-112.731944,,"POF","Privately Owned Facility"
"BARRICK GOLDEN SUNLIGHT MINE","MT0000003004300002","MT","110000428564","212220 212221",45.898056,-112.010556,42,"POF","Privately Owned Facility"
"BASIN CREEK POWER SERVICES","MT0000003009300018","MT","110038100435","221112",45.929741,-112.525104,,"POF","Privately Owned Facility"
"BASIN ELECTRIC POWER COOPERATIVE","MT0000003008500061","MT","110040484641","221112",48.210353,-104.391886,,"POF","Privately Owned Facility"
"BATTLE CREEK COMPRESSOR STATION - BLAINE COUNTY","MT0000003000500009","MT","110001977834","486210",48.5260033,-109.198574,,"POF","Privately Owned Facility"
"BELL CREEK CENTRAL FACILITY","MT0000003007500005","MT","110046594146","211111 211120",45.113056,-105.085693,,"POF","Privately Owned Facility"
"BIG SKY INSULATION INC","MT0000003003100015","MT","110001474994","326140",45.78043,-111.19111,,"POF","Privately Owned Facility"
"BIG SKY TRUCK & EQUIPMENT","0800000030063X0002","MT","110046462314","423930",46.8693223,-114.0103464,,"POF","Privately Owned Facility"
"BILLINGS BAKERY","MT0000003011100028","MT","110020333003","311812",45.74989,-108.54519,,"POF","Privately Owned Facility"
"BILLINGS CITY LANDFILL","080000003011100904","MT","110071325804","562212",45.72433,-108.54514,,"CTG","Municipality"
"BILLINGS REFINERY","MT0000003011100011","MT","110043806085","324110",45.776389,-108.484444,70843,"POF","Privately Owned Facility"
"BILLINGS TRANSPORTATION OPERATIONS","MT0000003011100039","MT","110037609442","424710",45.783734,-108.494885,,"POF","Privately Owned Facility"
"BLACK BUTTE COPPER PROJECT","MT0000003005900005","MT","110070882115","212230",46.77165,-110.9151,,"POF","Privately Owned Facility"
"BLACKFEET TRIBAL HEADQUARTERS","080000003003500902","MT","110022883227","541990",48.5521486,-113.0019267,,"TRB","Tribal Government"
"BLAINE COUNTY #1","MT0000003000500001","MT","110001474173","486210",48.4226,-109.4213,,"POF","Privately Owned Facility"
"BOZEMAN PRODUCT TERMINAL","MT0000003003100012","MT","110020298701","424710",45.700003,-111.041649,,"POF","Privately Owned Facility"
"BREAKS 17-20 1H","080000003008300001","MT","080000003008300001","211111",48.011452,-104.38801,,"COR","Corporation"
"BROOKMAN 1","080000003008500006","MT","110071294254","211111",48.412847,-105.43315,,"COR","Corporation"
"BROWN'S AUTO SERVICE","080000003011100906","MT","110001474592","811111",45.77706,-108.54486,,"POF","Privately Owned Facility"
"BROWNING LANDFILL","080000003003500901","MT","110010345858","999999",48.5521486,-113.0019267,,"CTG","Municipality"
"BSB DEER LODGE SITE","MT0000003007700003","MT","110072142058","221117",46.38735,-112.74445,,"POF","Privately Owned Facility"
"BULLWINKLE YAHOO 4-1-HSU","080000003008300002","MT","110071876410","211111",47.790186,-104.40324,,"COR","Corporation"
"BUREAU INDIAN AFFAIRS (BIA) ASPHALT PLNT","080000003011100901","MT","110001474510","324121",45.78547,-108.50546,,"FDF","Federal Facility (U.S. Government)"
"BURLINGTON-NORTHERN RAILROAD","080000003004980001","MT","110064749474","482111",46.5954652,-112.0187458,,"POF","Privately Owned Facility"
"BUTCH'S APPLIANCE CENTER","080000003006300912","MT","110007112908","999999",46.85779,-114.01744,,"POF","Privately Owned Facility"
"BUTTE HIGHLANDS PROJECT","MT0000003009300020","MT","110044797547","212220 212221",45.791177,-112.516156,,"POF","Privately Owned Facility"
"C&L TRUCK REPAIR","080000003011180001","MT","110010345590","999999",45.7895184,-108.5498909,,"POF","Privately Owned Facility"
"C.K. MAY EXCAVATING, INC.","0800000030031X0021","MT","110039598575","238910",45.7941,-111.20873,,"POF","Privately Owned Facility"
"CALUMET MONTANA REFINING","MT0000003001300004","MT","110000428500","324110 325199",47.523611,-111.294167,84597,"POF","Privately Owned Facility"
"CARL WEISSMAN & SONS","080000003011100907","MT","110001474609","999999",45.77561,-108.51145,,"POF","Privately Owned Facility"
"CHARLIE CREEK COMPRESSOR STATION","MT0000003008300037","MT","110018861070","486210",47.83393,-104.62508,,"POF","Privately Owned Facility"
"CHRISTIANSEN 14X 9","080000003008300003","MT","110071876302","211111",47.762172,-104.28838,,"COR","Corporation"
"CHS BIG SKY- KERSHAW","MT0000003001500005","MT","110069216921","325314",47.809156,-110.739943,,"POF","Privately Owned Facility"
"CHS FARMERS ELEVATOR - MACON","080000003008500008","MT","110071293566","211111",48.10972,-105.51833,,"COR","Corporation"
"CHS INC REFINERY LAUREL","MT0000003011100012","MT","110000595124","324110",45.655694,-108.766306,144472,"POF","Privately Owned Facility"
"CHS INC.","MT0000003002100003","MT","110001092923","424710",47.09973,-104.75903,,"POF","Privately Owned Facility"
"CHS MOUNTAIN WEST CO-OP - KALISPELL","MT0000003002900036","MT","110070083320","325314 493130",48.20952,-114.3066,,"POF","Privately Owned Facility"
"CITY OF BILLINGS REGIONAL LANDFILL","MT0000003011100047","MT","110071325804","562212",45.72433,-108.54514,,"POF","Privately Owned Facility"
"CITY OF HELENA TRANSFER STATION","080000003004900902","MT","110001474930","999999",46.604292,-112.041352,,"CTG","Municipality"
"CITY OF WOLF POINT ASPHALT PLANT","080000003008500903","MT","110001474832","324121",48.094146,-105.640022,,"CTG","Municipality"
"CIY/COUNTY SANITATION SERVICES","080000003004300901","MT","110012372770","999999",46.548264,-111.921693,,"POF","Privately Owned Facility"
"CLEAR LAKE STATION","MT0000003009100001","MT","110002456388","486210",48.699001,-104.311401,,"POF","Privately Owned Facility"
"COBB STORAGE FIELD STATION 017","MT0000003003500009","MT","110001474217","486210",48.797514,-112.242249,,"POF","Privately Owned Facility"
"COLSTRIP ENERGY LTD PARTNERSHIP","MT0000003008700007","MT","110041886144","221112",45.97549,-106.65532,,"POF","Privately Owned Facility"
"COLSTRIP STEAM ELECTRIC STATION","MT0000003008700008","MT","110041982520","221112",45.8829,-106.61297,229573,"POF","Privately Owned Facility"
"COLSTRIP UNITS 3 AND 4","080000003008700001","MT","110071293985","333611",46.4206746,-106.3658533,,"COR","Corporation"
"COLUMBIA FALLS ALUMINUM","MT0000003002900012","MT","110011868354","331313",48.395833,-114.136111,,"POF","Privately Owned Facility"
"COMMTECH SERVICES, INC.","0800000030049X0001","MT","110041352979","425120",46.58945,-111.92488,,"POF","Privately Owned Facility"
"COMPRESSOR STATION #2","080000003008500901","MT","110043792802","486210",48.41684,-105.537225,,"COR","Corporation"
"CONRAD COOLING & HEATING","080000003007380001","MT","110062724066","999999",48.16914,-111.95523,,"POF","Privately Owned Facility"
"CUT BANK FIELD STATION 025","MT0000003003500008","MT","110007111696","486210",48.695,-112.956001,,"POF","Privately Owned Facility"
"DAVE GATES GENERATING STATION AT MILL CREEK","MT0000003002300002","MT","110043693964","221112",46.103004,-112.873336,23529,"POF","Privately Owned Facility"
"DEPARTMENT OF CORRECTIONS - STATE PRISON","080000003007700901","MT","110001474823","922140",46.396977,-112.754421,,"STF","State Government"
"DIAMOND HILL MINE","MT0000003000700006","MT","110064589253","212220 212221",46.320318,-111.679014,,"POF","Privately Owned Facility"
"DILLON LANDFILL","080000003000100901","MT","110013331064","221320",45.232292,-112.710469,,"CNG","County Government"
"DRY CREEK FIELD STATION 056","MT0000003000900002","MT","110007375599","486210",45.252998,-109.195999,,"POF","Privately Owned Facility"
"EAGLE CTB","080000003008300004","MT","110072081532","211111",47.953881,-104.10275,,"COR","Corporation"
"ENCORE - ELK BASIN NORTHWEST BATTERY NO. 12","MT0000003000900005","MT","110020581299","211111 211130",45.024965,-108.92384,,"POF","Privately Owned Facility"
"EUREKA PELLET MILLS","MT0000003005300010","MT","110010427644","321999",48.9116,-115.068,,"POF","Privately Owned Facility"
"FIBERGLASS STRUCTURES","MT0000003011100034","MT","110020581315","326199",45.66781,-108.76309,,"POF","Privately Owned Facility"
"FIBERGLASS STRUCTURES - TANK DIVISION","MT0000003011100036","MT","110027374632","326199",45.667556,-108.754892,,"POF","Privately Owned Facility"
"FLANAGAN'S AUTO FITNESS CENTER","080000003006300906","MT","110001474798","441110",46.85424,-114.01181,,"POF","Privately Owned Facility"
"FLAT IRON 1-8-32-12","080000003003500002","MT","110071294112","211111",48.543751,-113.18598,,"COR","Corporation"
"FLATHEAD COUNTY SOLID WASTE DISTRICT","MT0000003002900029","MT","110013889140","562212",48.3105,-114.3453,,"CNG","County Government"
"FLATHEAD ELECTRIC LFGE FACILITY","MT0000003002900033","MT","110039598557","221118",48.31307,-114.34213,,"POF","Privately Owned Facility"
"FLETCH CTB","080000003008300005","MT","110072081554","211111",47.955853,-104.12901,,"COR","Corporation"
"FOGHORN ERVINE 20-3","080000003008300006","MT","110072081555","211111",47.7462,-104.30734,,"COR","Corporation"
"FORT BELKNAP KWIK STOP","080000003000500002","MT","110071293830","447190",48.0416597,-108.7915662,,"COR","Corporation"
"FORT PECK TRIBAL BEAR 14-5 WELLHEAD FACILITY","080000003008500004","MT","110071293836","213111",48.28966,-105.38366,,"COR","Corporation"
"FORT PECK TRIBAL BEAR 2 WELLHEAD FACILITY","080000003008500003","MT","110071294257","213111",48.29034,-105.36748,,"COR","Corporation"
"FORT PECK TRIBAL BEAR 41-7 WELLHEAD FACILITY","080000003008500005","MT","110071294113","213111",48.28671,-105.38967,,"COR","Corporation"
"FORT PECK TRIBAL BIRD 1 WELLHEAD FACILITY","080000003008500002","MT","110071294737","213111",48.28332,-105.39383,,"COR","Corporation"
"FOUR CORNERS RECYCLING","0800000030031X0003","MT","110040655449","423930",45.708619,-111.185298,,"POF","Privately Owned Facility"
"FROSTBITE EDITH 6-15- H","080000003008300007","MT","080000003008300007","211111",47.777154,-104.45226,,"COR","Corporation"
"GAVILON GRAIN, LLC","080000003008500001","MT","110071293834","424510",48.09226,-105.63803,,"COR","Corporation"
"GENSCO, INC.","0800000030111X0910","MT","110039624252","423730",45.76003,-108.56129,,"POF","Privately Owned Facility"
"GIBSON BRANDS. INC - BOZEMAN DIVISION","MT0000003003100046","MT","110070331409","339992",45.70625,-111.0636,,"POF","Privately Owned Facility"
"GOLDEN RECYCLING","080000003011100903","MT","110002319820","999999",45.7965,-108.48886,,"POF","Privately Owned Facility"
"GRAYMONT WESTERN US INC","MT0000003000700002","MT","110008058822","327410",46.32847,-111.61741,47,"POF","Privately Owned Facility"
"GREAT FALLS RENEWABLE DIESEL PLANT","MT0000003001300048","MT","110000428500","324110 325199",47.523611,-111.294167,84597,"POF","Privately Owned Facility"
"GREAT FALLS TERMINAL","MT0000003001300022","MT","110001474477","424710",47.52017,-111.2216,,"POF","Privately Owned Facility"
"GROSKINSKY 44X6","080000003008300008","MT","110072081537","211111",47.689342,-104.18589,,"COR","Corporation"
"HARDIN & COMPANY LTD","0800000030031X0001","MT","110046462118","531210",45.67767,-111.0627,,"POF","Privately Owned Facility"
"HARDIN AUTO COMPANY","080000003000380001","MT","110010671978","999999",45.73306,-107.60602,,"POF","Privately Owned Facility"
"HARDIN COMPRESSOR STATION","080000003000300005","MT","110010345714","486210",45.738919,-107.545509,,"COR","Corporation"
"HELENA PRODUCT TERMINAL","MT0000003004900011","MT","110000595188","424710",46.591686,-111.980597,,"POF","Privately Owned Facility"
"HEXION INC","MT0000003006300021","MT","110000428573","325199 325211",46.90237,-114.03424,16459,"POF","Privately Owned Facility"
"HIGHWOOD GENERATING STATION","MT0000003001300040","MT","110037276195","221112",47.55203,-111.04687,,"POF","Privately Owned Facility"
"HOLIDAY INN","080000003006300903","MT","110001474627","999999",46.86927,-113.99409,,"POF","Privately Owned Facility"
"HOLJE 1","080000003009100001","MT","110071293567","211111",48.629492,-104.46445,,"COR","Corporation"
"IFG-KAMP, LLC","MT0000003006100004","MT","110007375544","321999",47.31175,-115.0797,,"POF","Privately Owned Facility"
"JB AUTO PARTS & RECYCLING","0800000030031X0004","MT","110015755084","423930",47.51778,-111.35586,,"POF","Privately Owned Facility"
"JERRY'S RADIATOR & AIR CONDITIONING","0800000030013X0001","MT","110004009242","811118",47.49759,-111.29702,,"POF","Privately Owned Facility"
"JIM'S QUALITY APPLIANCE","080000003011100908","MT","110001474789","999999",45.7666,-108.54224,,"POF","Privately Owned Facility"
"JOHN'S APPLIANCE","080000003006300911","MT","110007112891","999999",46.85242,-113.99789,,"POF","Privately Owned Facility"
"JUDITH BASIN CNTY - HOBSON LANDFILL","080000003004580001","MT","110010345581","999999",47.032558,-110.30532,,"CNG","County Government"
"KRAKEN CENTRAL SITE","MT0000003008301115","MT","110072155808","213112",47.934,-104.137,,"POF","Privately Owned Facility"
"L & R TIRE","080000003006300909","MT","110001474814","999999",46.85333,-114.01605,,"POF","Privately Owned Facility"
"LAKE COUNTY LANDFILL","080000003004700905","MT","110001474912","562212",47.663745,-114.208817,,"CNG","County Government"
"LARSON 1 19H ","080000003008300009","MT","080000003008300009","211111",47.745977,-104.31865,,"COR","Corporation"
"LARSON 3 19H","080000003008300010","MT","080000003008300010","211111",47.744704,-104.32579,,"COR","Corporation"
"LARSON 44X 18","080000003008300011","MT","080000003008300011","211111",47.748731,-104.3164,,"COR","Corporation"
"LARSON 8 28","080000003008300012","MT","110072081529","211111",47.727366,-104.2723,,"COR","Corporation"
"LAUREL GENERATING STATION (LGS)","MT0000003011100051","MT","110072141936","221112",45.65973,-108.7462,,"POF","Privately Owned Facility"
"LEE'S REFRIGERATION","080000003004900905","MT","110001474949","999999",46.60763,-112.06747,,"POF","Privately Owned Facility"
"LEVIATHAN NORTH","080000003008300013","MT","080000003008300013","211111",47.997062,-104.11652,,"COR","Corporation"
"LEVIATHAN SOUTH PAD ","080000003008300014","MT","080000003008300014","211111",47.955405,-104.11629,,"COR","Corporation"
"LEVIATHAN SW","080000003008300015","MT","080000003008300015","211111",47.926257,-104.13995,,"COR","Corporation"
"LEWIS & CLARK COUNTY LANDFILL","080000003004900903","MT","110040679940","999999",46.67572,-111.88037,,"CNG","County Government"
"LEWIS AND CLARK COUNTY LANDFILL","MT0000003004900020","MT","110020238526","562212",46.621702,-112.037104,,"POF","Privately Owned Facility"
"LONE TREE JOHNSON 36-4","080000003008300016","MT","080000003008300016","211111",47.803781,-104.48425,,"COR","Corporation"
"LONE TREE MCMILLAN 12-15","080000003008300017","MT","080000003008300017","211111",47.763672,-104.47377,,"COR","Corporation"
"LOWELL LARSON","080000003008300018","MT","080000003008300018","211111",47.737691,-104.26868,,"COR","Corporation"
"LUBRIZOL LIFE SCIENCES, INC","MT0000003008100007","MT","110013763702","339112",46.32723,-114.15279,16748,"POF","Privately Owned Facility"
"MADISON CNTY - ALDER LANDFILL","080000003005780002","MT","110010345572","999999",45.2709671,-111.9436192,,"CNG","County Government"
"MADISON CNTY - TWIN BRIDGES LANDFILL","080000003005780001","MT","110010345563","999999",45.2709671,-111.9436192,,"CNG","County Government"
"MADISON CO. LANDFILL","080000003005700901","MT","110062724002","999999",45.294489,-111.944223,,"CNG","County Government"
"MALMSTROM AFB","MT0000003001300016","MT","110001977594","928110",47.512236,-111.19028,,"FDF","Federal Facility (U.S. Government)"
"MANN 1","080000003008500007","MT","110071294199","211111",48.41285,-105.42878,,"COR","Corporation"
"MARTINS STORE","080000003000500001","MT","110071293564","447190",48.0416597,-108.7915662,,"COR","Corporation"
"MDU - GLENDIVE","MT0000003002100005","MT","110041017468","221112",47.0539,-104.74,,"POF","Privately Owned Facility"
"MDU - LEWIS & CLARK STATION","MT0000003008300003","MT","110020377019","221112",47.67608,-104.16082,,"POF","Privately Owned Facility"
"MDU - MILES CITY","MT0000003001700002","MT","110007375571","221112",46.411252,-105.79499,,"POF","Privately Owned Facility"
"MEADOW GOLD DAIRY","080000003006300904","MT","110001474636","999999",46.87745,-114.00491,,"POF","Privately Owned Facility"
"MERIWETHER COMPRESSOR STATION","080000003003500903","MT","110069993408","211111",48.8179,-112.7567,,"COR","Corporation"
"MISSOULA RNG","MT0000003006300055","MT","110043808065","221210",46.9032,-114.0137,,"POF","Privately Owned Facility"
"MONTANA  AIR NATIONAL GUARD","MT0000003001300023","MT","110001474556","928110",47.474874,-111.362151,,"FDF","Federal Facility (U.S. Government)"
"MONTANA ADVANCED BIOFUELS LLC","MT0000003001300041","MT","110046594066","325193",47.52201,-111.21381,,"POF","Privately Owned Facility"
"MONTANA DEPARTMENT OF TRANSPORTATION","080000003006300907","MT","110020453613","237310",46.88398,-114.02436,,"STF","State Government"
"MONTANA FIBERGLASS INC","MT0000003002700008","MT","110017616677","326199",47.04465,-109.43585,,"POF","Privately Owned Facility"
"MONTANA SILVERSMITHS INC","MT0000003009500005","MT","110011675106","339910",45.63116,-109.26356,6203,"POF","Privately Owned Facility"
"MONTANA SULPHUR & CHEMICAL","MT0000003011100014","MT","110000428476","325120",45.814444,-108.425,17741,"POF","Privately Owned Facility"
"MOUNTAIN STATES COLLISION REPAIR, INC.","080000003006300908","MT","110009416587","811121",46.880654,-114.0201,,"POF","Privately Owned Facility"
"MPC - MISSOULA DIVISION","080000003006300910","MT","110004004229","221122",46.85423,-114.01828,,"POF","Privately Owned Facility"
"MRL GREAT FALLS RENEWABLE FUELS PLANT","MT0000003001300050","MT","110072142057","325199",47.52258,-111.2904,,"POF","Privately Owned Facility"
"MSU - CENTRAL HEATING PLANT","MT0000003003100010","MT","110007111838","611310",45.91,-111.205002,,"STF","State Government"
"MT  WASTE SYSTEMS - HIGH PLAINS LANDFILL","MT0000003001300030","MT","110011049123","562212",47.62676,-111.18909,,"POF","Privately Owned Facility"
"N COMPRESSOR STATION","MT0000003002500011","MT","110031530644","486210",46.56425,-104.4207,,"POF","Privately Owned Facility"
"N. BORDER PIPELINE CO STA. 3","MT0000003008500006","MT","110041624187","221210",48.215615,-104.396623,,"POF","Privately Owned Facility"
"NATASHA DAVE 35-15","080000003008300019","MT","110072081530","211111",47.791251,-104.36451,,"COR","Corporation"
"NORTH MOULTON FIELD","MT0000003010100010","MT","110064590241","486210",48.5294766,-111.6907378,,"POF","Privately Owned Facility"
"NORTHERN BORDER PIPELINE CO  STA 1","MT0000003010500003","MT","110001474672","221210",48.175923,-106.59291,,"POF","Privately Owned Facility"
"NORTHWEST AUTOMOTIVE INC.","0800000030029X0001","MT","110041627647","811111",48.19856,-114.31053,,"POF","Privately Owned Facility"
"NORTHWESTERN ENERGY MAINLINE #1","MT0000003003500004","MT","110007375526","211111 211120",48.60072,-112.24851,,"POF","Privately Owned Facility"
"O'DELL'S APPLIANCE","080000003003100901","MT","110013331046","999999",45.70058,-111.03143,,"POF","Privately Owned Facility"
"OBERGFELL TRUST AND NANCY LEE","080000003008300020","MT","110072081512","211111",47.752896,-104.3559,,"COR","Corporation"
"OLD IRON RECYCLING","0800000030089X0001","MT","110045338611","423930",47.86285,-115.61113,,"POF","Privately Owned Facility"
"PABLO SAW MILL FACILITY","080000003004700901","MT","110020324889","321113",47.6023,-114.1231,,"COR","Corporation"
"PACIFIC RECYCLING","080000003006300901","MT","110002319795","999999",46.887027,-114.031401,,"POF","Privately Owned Facility"
"PACIFIC RECYCLING","0800000030111X0902","MT","110011048758","999999",45.79649,-108.48378,,"POF","Privately Owned Facility"
"PACIFIC RECYCLING","080000003001300901","MT","110011048721","999999",47.52082,-111.30847,,"POF","Privately Owned Facility"
"PACIFIC STEEL & RECYCLING","0800000030093X0019","MT","110011048749","423930",45.99907,-112.52017,,"POF","Privately Owned Facility"
"PACIFIC STEEL/HIDES RECYCLING","080000003002900901","MT","110020280293","999999",48.20493,-114.2977,,"POF","Privately Owned Facility"
"PACIFIC STEEL/HIDES/FURS RECYCLING","080000003004900901","MT","110009417014","999999",46.600326,-112.0235,,"POF","Privately Owned Facility"
"PAR MONTANA BILLINGS REFINERY","MT0000003011100013","MT","110000428421","324110",45.81265,-108.43356,139798,"POF","Privately Owned Facility"
"PAR MONTANA BULK TERMINAL","MT0000003011100024","MT","110009416676","424710",45.807077,-108.433518,,"POF","Privately Owned Facility"
"PEABODY MINIFIE          ","080000003008300021","MT","080000003008300021","211111",47.805127,-104.50052,,"COR","Corporation"
"PEABODY ODENBACH 2-14","080000003008300022","MT","080000003008300022","211111",47.775785,-104.501,,"COR","Corporation"
"PEANUT FRANZ  22-4          ","080000003008300023","MT","110071876411","211111",47.83314,-104.39808,,"COR","Corporation"
"PHILLIPS 66 COMPANY - MISSOULA","MT0000003006300022","MT","110020291922","424710",46.89603,-114.03065,3952,"POF","Privately Owned Facility"
"PINE RIDGE 2-26H-36-13","080000003003500001","MT","110071294669","211112",48.850357,-113.26386,,"COR","Corporation"
"PLATINUM CHEVROLET","080000003009500901","MT","110020406158","999999",45.63644,-109.25057,,"FDF","Federal Facility (U.S. Government)"
"POLY CONOCO AUTO REPAIR","080000003011100905","MT","110001474583","811111",45.795,-108.5594,,"POF","Privately Owned Facility"
"POPLAR OIL FIELD SUBSTATION (WITHEMERGENCY BACKUP GENERATOR)","080000003008500009","MT","110071293838","221112",48.23023,-105.12682,,"COR","Corporation"
"PPL MONTANA - JE CORETTE PLANT","MT0000003011100015","MT","110010427635","221112",45.77623,-108.48085,,"POF","Privately Owned Facility"
"PRAIRIE DELL CASCADE GAS PLANT","MT0000003010100017","MT","110001474707","486210",48.606998,-111.735001,,"POF","Privately Owned Facility"
"PRO TECH MECHANICAL INC.","0800000030111X0911","MT","110039624261","238220",45.7698,-108.54387,,"POF","Privately Owned Facility"
"QUALA SERVICES","MT0000003001700005","MT","110020342093","488210",46.326,-105.537003,,"POF","Privately Owned Facility"
"QUEEN CITY ICE PALACE","080000003004900906","MT","110001474958","999999",46.58879,-111.97149,,"POF","Privately Owned Facility"
"RASSLER HEATING & AIR CONDITIONING INC","0800000030031X0002","MT","110046462323","333415",45.65493,-111.0256,,"POF","Privately Owned Facility"
"RATHERT FOX FORD MERCURY, INC.","080000003008500904","MT","110001474850","441110",48.09031,-105.63742,,"POF","Privately Owned Facility"
"RESERVE EAST TRUCK STATION","MT0000003009100095","MT","110043576895","211111",48.591314,-104.447371,,"POF","Privately Owned Facility"
"ROCKY 42X 13","080000003008300024","MT","080000003008300024","211111",47.75524,-104.33821,,"COR","Corporation"
"ROCKY MOUNTAIN LABORATORIES FACILITY","MT0000003008100005","MT","110001474770","621511",46.23805,-114.15897,,"FDF","Federal Facility (U.S. Government)"
"ROCKY MOUNTAIN POWER","MT0000003000300018","MT","110038363623","221112",45.764338,-107.599558,32245,"POF","Privately Owned Facility"
"ROSEBURG FOREST PRODUCTS","MT0000003006300002","MT","110000428582","321219",46.8982,-114.02779,11580,"POF","Privately Owned Facility"
"SIDNEY SUGAR FACILITY","MT0000003008300002","MT","110020342627","311313",47.713611,-104.143611,,"POF","Privately Owned Facility"
"SILENT KNIGHT","080000003004700903","MT","110007112668","811111",47.679081,-114.11526,,"POF","Privately Owned Facility"
"SIMONSEN 44X 5","080000003008300025","MT","080000003008300025","211111",47.689532,-104.16421,,"COR","Corporation"
"SMURFIT-STONE CONTAINER","MT0000003006300006","MT","110000428591","322130",46.964883,-114.197828,,"POF","Privately Owned Facility"
"SOUTHGATE MALL","080000003006300905","MT","110040686406","999999",46.84396,-114.02509,,"POF","Privately Owned Facility"
"STEEL ETC","0800000030013X0003","MT","110040441288","423930",47.52131,-111.22166,,"POF","Privately Owned Facility"
"STEINBEISSER 44 32 H","080000003008300026","MT","080000003008300026","211111",47.706124,-104.42559,,"COR","Corporation"
"STILLWATER MINE","MT0000003009500001","MT","110000595133","212290 212299",45.386111,-109.873333,1732,"POF","Privately Owned Facility"
"STILLWATER MINING CO SMELTER","MT0000003009500002","MT","110010345457","331410",45.685001,-109.235001,,"POF","Privately Owned Facility"
"STOLTZE F H","080000003000100001","MT","110038966982","999999",45.1367,-112.7333,,"POF","Privately Owned Facility"
"SUN MOUNTAIN LUMBER","MT0000003007700002","MT","110059012278","321113",46.38735,-112.74445,,"POF","Privately Owned Facility"
"SUNDHEIM 26-35","080000003008300027","MT","080000003008300027","211111",47.895187,-104.05717,,"COR","Corporation"
"SW BROWNING 1-8H","080000003003500004","MT","110071294198","213112",48.552622,-113.06283,,"COR","Corporation"
"TELSTAD FIELD STATION 033","MT0000003010100008","MT","110007375606","486210",48.606998,-111.735001,,"POF","Privately Owned Facility"
"THREE FORKS MILL","MT0000003003100006","MT","110001473833","212321",45.880556,-111.550278,,"POF","Privately Owned Facility"
"TRANSCO RAILWAY PRODUCTS","MT0000003001700004","MT","110000836089","488210",46.41551,-105.83828,,"POF","Privately Owned Facility"
"TREASURE STATE CONCRETE, INC.","080000003002900902","MT","110001977781","324121",47.63109,-114.12216,,"POF","Privately Owned Facility"
"TRIDENT","MT0000003003100005","MT","110001473815","327310",45.949611,-111.474139,28389,"POF","Privately Owned Facility"
"TRUENORTH STEEL - BILLINGS","MT0000003011100049","MT","110040441313","332312",45.74209,-108.59103,,"POF","Privately Owned Facility"
"TWO MEDICINE 1-2","080000003003500003","MT","110071294111","211111",48.471605,-113.13458,,"COR","Corporation"
"UNIFIED DISPOSAL DISTRICT CLASS II LANDFILL","MT0000003004100014","MT","110070029341","562212",48.55036,-109.67802,,"POF","Privately Owned Facility"
"US ANTIMONY MINE & MILL","MT0000003008900006","MT","110000497472","331410",47.541521,-115.566098,,"POF","Privately Owned Facility"
"V.W. ICE, INC.","080000003006300902","MT","110001474618","312113",46.85187,-114.02431,,"POF","Privately Owned Facility"
"VERRENE 15 22 1TFH","080000003008300028","MT","080000003008300028","211111",47.925261,-104.21039,,"COR","Corporation"
"WARREN 15-22","080000003008300029","MT","110072081533","211111",47.926783,-104.08063,,"COR","Corporation"
"WBI SANDSTONE CREEK COMPRESSOR STATION","MT0000003002500013","MT","110043686384","211111 486210",46.39436,-104.28496,,"POF","Privately Owned Facility"
"WESTERN SUGAR COOPERATIVE","MT0000003011100007","MT","110000428485","311313",45.76981,-108.49823,56928,"POF","Privately Owned Facility"
"WEYERHAEUSER-CFALLS","MT0000003002900008","MT","110000428644","321219",48.37646,-114.20462,148954,"POF","Privately Owned Facility"
"WEYERHAEUSER-EVERGREEN","MT0000003002900005","MT","110000428626","321113 321212",48.23014,-114.28748,,"POF","Privately Owned Facility"
"WILLIAMS 11-12 #2H WILLIAMS 11-12 #3H","MT0000003008500062","MT","110071642701","211111",48.10648,-104.3293,,"COR","Corporation"
"WILLISTON BASIN - BAKER COMPRESSOR STA","MT0000003002500010","MT","110010427706","221210",46.277,-104.466003,,"POF","Privately Owned Facility"
"WILLISTON BASIN - CABIN CREEK","MT0000003002500003","MT","110001474100","486210",46.6136,-104.4189,,"POF","Privately Owned Facility"
"WILLISTON BASIN - FORT PECK STATION","MT0000003010500001","MT","110020372103","486210",48.0629,-106.427836,,"POF","Privately Owned Facility"
"WILLISTON BASIN - HATHAWAY STATION","MT0000003001700001","MT","110020345401","486210",46.2771459,-106.1946362,,"POF","Privately Owned Facility"
"WILLISTON BASIN - LITTLE BEAVER","MT0000003002500002","MT","110001474093","486210",46.09801,-104.06315,,"POF","Privately Owned Facility"
"WILLISTON BASIN - MONARCH STATION","MT0000003002500008","MT","110001474315","486210",46.49228,-104.35742,,"POF","Privately Owned Facility"
"WILLISTON BASIN - SACO","MT0000003010500002","MT","110007375615","211111 486210",48.5291427,-107.4220668,,"POF","Privately Owned Facility"
"WILLISTON BASIN - VIDA STATION","MT0000003005500001","MT","110001977692","486210",47.8969,-105.360298,,"POF","Privately Owned Facility"
"YELLOWSTONE POWER PLANT","MT0000003011100023","MT","110001474164","221118",45.811201,-108.428833,,"POF","Privately Owned Facility"
