"AIRName","SourceID","AIRState","RegistryID","AIRNAICS","FacLat","FacLong","FacTRIAIRReleases","AIRFacilityTypeCode","AIRFacilityTypeDesc"
"A CLEANER WORLD","VT0000005000509000","VT","110001915884","812320",44.41975,-72.013356,,"POF","Privately Owned Facility"
"A JOHNSON CO LLC","VT0000005000100014","VT","110006137073","321912",44.1395479,-73.0398222,,,
"ADDISON COUNTY ASPHALT PRODUCTS","VT0000005000100012","VT","110007330067","324121",44.035831,-73.175034,,,
"AGRI-MARK INC (CABOT)","VT0000005002300012","VT","110000314892","311513",44.400984,-72.313681,10,,
"AGRI-MARK INC (MIDDLEBURY)","VT0000005000100001","VT","110040608205","311513",44.03193,-73.17226,10,,
"AGRI-MARK INC (TROY)","VT0000005001900005","VT","110008205307","311513",44.90338,-72.40651,,,
"ALL METAL RECYCLING","VT0000005000500018","VT","110056135935","423930",44.5033729,-72.3415929,,"POF","Privately Owned Facility"
"ALLARD LUMBER COMPANY","VT0000005002500023","VT","110001915946","321113",42.89548,-72.5389,,,
"AMOSKEAG WOODWORKING","VT0000005001100014","VT","110009509754","321999",44.670589,-72.986311,,,
"AMPERSAND GILMAN BIOMASS LLC","VT0000005000900002","VT","110000581601","322121",44.4119,-71.72155,,"POF","Privately Owned Facility"
"ASTENJOHNSON INC","VT0000005000700066","VT","110005294118","326199",44.46016,-73.12697,,,
"BARRY CALLEBAUT USA LLC","VT0000005001100025","VT","110001916142","311352",44.79956,-73.09801,,,
"BASKETVILLE INC","VT0000005002500007","VT","110012626630","321920",42.97656,-72.52076,,,
"BELDEN WIRE & CABLE","VT0000005000700034","VT","110000314838","331422",44.49868,-73.03811,,,
"BELL-GATES LUMBER CORP","VT0000005001500009","VT","110007330030","321912",44.6204992,-72.8873476,,,
"BELLOWS FALLS UNION HIGH SCHOOL","VT0005002500032","VT","110070386294","611110",43.11853,-72.44283,,,
"BEN & JERRYS HOMEMADE INC (ST ALBANS)","VT0000005001100019","VT","110000758350","311520",44.7959,-73.0997,0,,
"BENNINGTON (TOWN OF) COMPOST FACILITY","VT0000005000300016","VT","110016709757","924110",42.914957,-73.256879,,,
"BENNINGTON COLLEGE","VT0000005000300014","VT","110007329863","611310",42.91224,-73.22564,,,
"BENNINGTON IRON WORKS","VT0000005000300021","VT","110007330165","332312",42.89798,-73.21451,,,
"BERTEK INCORPORATED (LABELS)","VT0000005001100022","VT","110005262287","323111",44.9233638,-73.1442864,,"POF","Privately Owned Facility"
"BFI WASTE SYSTEMS OF NORTH AMERICA LLC","VT0000005002500022","VT","110007330094","562212",43.22425,-72.44143,,,
"BHS COMPOSITES CORP","VT0005000500020","VT","110070132723","326199",44.49449,-72.01733,,,
"BIJUR LUBRICATING CORPORATION","VT0000005000300004","VT","110000826875","333999",42.89416,-73.199073,,,
"BLACK BEAR BIODIESEL","VT0000005002300020","VT","110069468766","454310",44.27794,-72.43073,,,
"BODYCOTE SURFACE TECHNOLOGY  (RUTLAND)","VT0000005002100043","VT","110056381008","336412",43.586903,-72.960649,,,
"BODYCOTE SURFACE TECHNOLOGY INC (CLARENDON)","VT0000005002100048","VT","110071091905","336412",43.5321102,-72.9648,,,
"BOLTON VALLEY RESORT","VT0005000700059","VT","110015926872","713920",44.408508,-72.870878,,,
"BOMBARDIER CORP","VT0000005002300002","VT","110038782788","336510",44.1573141,-72.4776419,,,
"BOURBEAU AGGREGATE LLC","VT0005001100031","VT","110070160254","212319",44.857305,-73.02374,,,
"BOUYEA FASSETTS BAKERY INC","VT0000005000700030","VT","110001915802","311812",44.422713,-73.211983,,,
"BRADFORD VENEER & PANEL CO INC","VT0000005001700003","VT","110007329729","321211",43.98905,-72.13055,,,
"BRANCHWOOD INC","VT0000005001700006","VT","110001915544","321211",43.92149,-72.662041,,,
"BRATTLEBORO DEVELOPMENT CREDIT CORPORATION","VT0000005002500011","VT","110038782804","333414",42.87557,-72.56028,,,
"BRATTLEBORO MEMORIAL HOSPITAL INC","VT0000005002500017","VT","110001915786","622110",42.843231,-72.566093,,,
"BRATTLEBORO ORGANIC ENERGY LLC","VT0000005002500003","VT","110034152011","562111",42.89489,-72.53926,,,
"BRATTLEBORO RETREAT (THE)","VT0000005002500012","VT","110033182320","623220",42.857129,-72.562028,,,
"BRITTON LUMBER COMPANY LLC","VT0000005001700004","VT","110008211620","321113",43.87497,-72.17668,,,
"BROMLEY MOUNTAIN SKI RESORT INC","VT0000005000300017","VT","110007329907","721110",43.212778,-72.931667,,,
"BROWN NOVELTY CO INC","VT0000005000100003","VT","110007329550","321999",43.971944,-73.103889,,,
"BRYANT GRINDER CORPORATION","VT0000005002700005","VT","110000826820","333512",43.2866,-72.4716,,,
"BUILT BY NEWPORT CORPORATION","VT0000005001900006","VT","110001915848","337122",44.93276,-72.21863,,,
"BURKE 2000 LLC","VT0005000500021","VT","110070361950","713920 721110",44.5941457,-71.8986947,,,
"BURKE LUMBER CO","VT0000005000500008","VT","110062745702","321113",44.6823324,-71.9527388,,,
"BURLINGTON (CITY OF) BED JOSEPH C MCNEIL ELECTRIC GENERATING STATION","VT0000005000700037","VT","110005293592","221112",44.49209,-73.20519,,,
"BURLINGTON (CITY OF) BED PENNY LANE GAS TURBINE FACILITY","VT0000005000700041","VT","110012144624","221121",44.4757,-73.21917,,,
"BURLINGTON (CITY OF) BURLINGTON HIGH SCHOOL","VT0005000700060","VT","110070360688","611110",44.49623,-73.23391,,,
"BURLINGTON ENERGY LLC","VT0000005000700028","VT","110001915991","562212",44.490782,-73.212476,,,
"BURTON CANADA CO (30 COMMUNITY CIRCLE SOUTH BURLINGTON)","VT0000005000700039","VT","110039146867","339920",44.452474,-73.141338,,,
"BURTON CANADA CO (80 INDUSTRIAL PARKWAY BURLINGTON)","VT0000005000700010","VT","110001915615","339920",44.4492,-73.22005,,,
"C E BRADLEY LABORATORIES INC","VT0000005002500008","VT","110039145092","325510",42.89601,-72.54927,626,,
"CAMEO CRAFTS","VT0000005000700031","VT","110062745711","323111",44.605988,-73.161953,,,
"CAPITAL CITY PRESS INC","VT0000005002300005","VT","110042017803","323117",44.20264,-72.56234,,,
"CARGILL INCORPORATED","VT0000005001100010","VT","110005293486","311119",44.929501,-73.129891,,,
"CARRIS REELS INC","VT0000005002100021","VT","110008204576","326199",43.60363,-73.01563,,,
"CARROLL CONCRETE CO (BERLIN)","VT0005002300022","VT","110012206237","327320",44.21288,-72.56457,,,
"CARROLL CONCRETE CO (JOHNSON)","VT0005001500012","VT","110070380225","327320",44.6481239,-72.6888397,,,
"CENTRAL VERMONT HOSPITAL","VT0000005002300004","VT","110044797137","622110",44.21833,-72.55976,,,
"CERSOSIMO LUMBER COMPANY INC (BRATTLEBORO KILN DRY)","VT0000005002500006","VT","110005296321","321912",42.849647,-72.562605,,,
"CERSOSIMO LUMBER COMPANY INC (MAIN MILL)","VT0000005002500015","VT","110005296312","321912",42.82547,-72.54855,,,
"CERSOSIMO LUMBER COMPANY INC (NORTH HARTLAND)","VT0000005002700015","VT","110007330192","321912",43.5969861,-72.3597216,,,
"CERSOSIMO LUMBER COMPANY INC (NORTH SAWMILL)","VT0000005002500020","VT","110005296312","321912",42.82547,-72.54855,,,
"CHAMPLAIN CABLE CORPORATION","VT0000005000700004","VT","110007329587","335929",44.51133,-73.174522,,,
"CHEMICAL FABRICS CORP","VT0000005000300001","VT","110062745677","313320",42.92747,-73.243482,,,
"CHITTENDEN SOLID WASTE DISTRICT (SLUDGE FACILITY)","VT0000005000700024","VT","110001915759","562998",44.48155,-73.17031,,,
"CHURCHILL COATINGS CORPORATION","VT0000005002700004","VT","110008212282","321992",43.334073,-72.537945,,,
"CLAIRE LATHROP BAND MILL INC","VT0000005000100009","VT","110007329701","321113",44.1395479,-73.0398222,,,
"COLUMBIA FOREST PRODUCTS INC","VT0000005001900003","VT","110005293878","321211",44.95234,-72.19772,,,
"CONCEPTS NREC","VT0000005002700016","VT","110001916124","333611",43.68561,-72.31799,,,
"CONNECTICUT RIVER DEVELOPMENT CORPORATION","VT0000005002700011","VT","110001915722","333414",43.479011,-72.384682,,,
"CONNECTICUT RIVER DEVELOPMENT CORPORATION (OBSOLETE RECORD SEE OTHER ID#)","VT0000005002500016","VT","110038782813","333414",43.47885,-72.38349,,"POF","Privately Owned Facility"
"COPELAND FURNITURE INC","VT0000005001700005","VT","110001136173","337121 337122",43.97816,-72.11475,,,
"COPLEY HOSPITAL INC","VT0000005001500005","VT","110007328828","622110",44.5542,-72.59138,,,
"COVENTRY CLEAN ENERGY CORPORATION","VT0005001900014","VT","110069223708","221117",44.90871,-72.22104,,,
"COYNE TEXTILE SERVICES","VT00000050007E0001","VT","110014364730","812332",44.603553,-73.166149,,"POF","Privately Owned Facility"
"DENOIAS DRY CLEANERS","VT0000005001509000","VT","110005294564","812320",44.563516,-72.598714,,"POF","Privately Owned Facility"
"DESABRAIS LAUNDARY & DRY CL","VT0000005000109000","VT","110008204503","812320",43.984764,-73.315605,,"POF","Privately Owned Facility"
"EDLUND COMPANY LLC","VT0000005000700018","VT","110041948122","333294",44.44711,-73.220649,,,
"ENERGIZER MANUFACTURING INC (BENNINGTON)","VT0000005000300015","VT","110000314758","335912",42.88153,-73.19139,,,
"ENERGIZER MANUFACTURING INC (ST ALBANS)","VT0000005001100001","VT","110000314874","335912",44.83018,-73.07972,,,
"ENTERGY NUCLEAR VERMONT YANKEE LLC","VT0000005002500010","VT","110000867955","221113",42.779167,-72.513333,,,
"ETERNAL FLAME CREMATORY (BRATTLEBORO)","VT0000005002500028","VT","110017624052","812220",42.89458,-72.5416,,,
"ETHAN ALLEN OPERATIONS INC (BEECHER FALLS)","VT0000005000900004","VT","110000871156","337122",45.010961,-71.506543,6,,
"ETHAN ALLEN OPERATIONS INC (ISLAND POND)","VT0000005000900001","VT","110038782706","337122",44.81156,-71.88401,,,
"ETHAN ALLEN OPERATIONS INC (ORLEANS)","VT0000005001900004","VT","110012499787","337122",44.8083,-72.20305,3,,
"ETHAN ALLEN OPERATIONS INC (RANDOLPH)","VT0000005001709002","VT","110000498220","321999",43.91869,-72.65523,,,
"EUROFINS NDSC ENVIRONMENT TESTING AMERICAS INC","VT0000005000700048","VT","110054233842","541380",44.44818,-73.1445,,,
"FAB-TECH INC","VT0000005000700046","VT","110005261965","333411",44.50722,-73.17466,,,
"FAIR HAVEN TERMINAL","VT0000005002100040","VT","110056135926","424710",43.584746,-73.265655,,"POF","Privately Owned Facility"
"FAIRBANKS SCALES INC","VT0000005000500017","VT","110000826811","333997",44.43178,-72.01071,,,
"FELLOWS CORP","VT0000005002700006","VT","110001136164","333512",43.32657,-72.53793,,,
"FOLEY SERVICES INC","VT0000005002100030","VT","110001915562","812331",43.60895,-72.98551,,,
"FONDA GROUP (THE)","VT0000005001100008","VT","110002088525","322219",44.81948,-73.08383,,,
"FORTIETH BURLINGTON LLC","VT0000005000700042","VT","110012626319","333414 531120",44.46125,-73.21765,,,
"FRANK W WHITCOMB CONSTRUCTION CORPORATION (COLCHESTER)","VT0000005000709001","VT","110010408353","212311 324121",44.505556,-73.182222,,,
"FRANKLIN COUNTY CHEESE CORP","VT0000005001100016","VT","110007330021","311513",44.90992,-72.8002,,,
"FRESH N CLEAN","VT0000005002309000","VT","110009509433","812320",44.20304,-72.50684,,"POF","Privately Owned Facility"
"FULLER SAND & GRAVEL INC (DANBY PORTABLE HMA PLANT)","VT0000005002100038","VT","110040513637","324121",43.34535,-72.99555,,,
"G S BLODGETT CORPORATION (BURLINGTON)","VT0000005000700013","VT","110000314794","333319",44.46113,-73.21987,,,
"G S PRECISION INC","VT0000005002500014","VT","110000314776","336413",42.83134,-72.56549,,,
"G W PLASTICS INC","VT0000005002700012","VT","110064213783","326199",43.801549,-72.6577473,,,
"G&K SERVICES","VT00000050007E0002","VT","110037236372","812332",44.45826,-73.13897,,"POF","Privately Owned Facility"
"GADUES DRY CLEANERS","VT0000005000709000","VT","110001915893","812320",44.5067,-73.24454,,"POF","Privately Owned Facility"
"GALVION LTD","VT0005001900016","VT","110015814680","326199",44.945069,-72.181485,,,
"GARWARE FULFLEX USA INC","VT0000005002500013","VT","110000581567","326299",42.88522,-72.55472,21,,
"GENERAL DYNAMICS ARMAMENT AND TECHNICAL PRODUCTS (BLDG 41)","VT0000005000700005","VT","110007329596","332994",44.44654,-73.22045,,,
"GENERAL DYNAMICS ARMAMENT AND TECHNICAL PRODUCTS (LAKESIDE)","VT0000005000700011","VT","110000880011","332994",44.46126,-73.21751,,,
"GENERAL ELECTRIC COMPANY (COLUMBIAN AVENUE)","VT0000005002100015","VT","110000314909","336412",43.606542,-72.993231,6,,
"GENERAL ELECTRIC COMPANY (WINDCREST ROAD)","VT0000005002100002","VT","110000314936","336412",43.576873,-72.959048,232,,
"GEORGE F ADAMS & CO","VT0000005001500003","VT","110007329612","321999",44.43992,-72.71864,,,
"GEORGE LITTLE PRESS","VT0000005000700033","VT","110001915866","323111",44.45877,-73.21439,,,
"GLOBAL COMPANIES LLC","VT0000005000700027","VT","110000826802","424710",44.45582,-73.22187,,,
"GLOBALFOUNDRIES US 2 LLC","VT0000005000700012","VT","110070828160","334413",44.484119,-73.111709,31170,,
"GRANVILLE MANUFACTURING CO","VT0000005000100013","VT","110007330085","321999",44.008359,-72.848181,,,
"GRAY TELEVISION GROUP INC","VT0005001500011","VT","110070262570","515120",44.4918064,-72.7126105,,,
"GRAYS PAVING & ASPHALT PLANT INC","VT0000005001900013","VT","110041889800","324121",44.86112,-72.26859,,,
"GREAT BAY HYDRO CORPORATION","VT0000005001900010","VT","110007330263","221111",44.93868,-72.18148,,,
"GREEN MOUNTAIN CUSTOM FINISHING INC","VT0000005001900008","VT","110005297614","321999",44.94933,-72.1996,,,
"GREEN MOUNTAIN PANEL CORPORATION","VT0000005002500024","VT","110000314785","326150",42.89258,-72.54402,,,
"GREEN MOUNTAIN POWER CORPORATION (UNIT #19 ESSEX)","VT0000005000700047","VT","110008208983","221112",44.48313,-73.11541,,,
"GREEN MOUNTAIN POWER CORPORATION (UNIT #5 BERLIN)","VT0000005002300016","VT","110007330290","221112",44.250671,-72.603214,,,
"GREEN MOUNTAIN POWER CORPORATION (UNIT #9 VERGENNES)","VT0000005000100017","VT","110040632508","221112",44.16626,-73.25879,,,
"GREEN MOUNTAIN PRESTAIN INC (BENNINGTON)","VT0000005000300020","VT","110014434264","321992",42.89164,-73.19062,,,
"GREENER FUTURES LLC","VT0000005002100006","VT","110007328515","332212",43.771091,-72.808311,,,
"GREERS DRY CLEANING","VT0000005000709002","VT","110001915919","812320",44.46842,-73.18146,,"POF","Privately Owned Facility"
"GSM PROPERTY LLC","VT0000005002100032","VT","110062745775","321211",43.59451,-72.97916,,,
"GULF OIL CO","VT0000005000700023","VT","110038781690","424710",44.47979,-73.22121,,"POF","Privately Owned Facility"
"HADEKA STONE CORP","VT0000005002100019","VT","110008204656","212319",43.598988,-73.169452,,,
"HALE CO.","VT0000005000300005","VT","110062698246","337122",43.0819464,-73.0667733,,"POF","Privately Owned Facility"
"HARBOUR INDUSTRIES LLC","VT0000005000700006","VT","110010409110","335929",44.388073,-73.22447,,,
"HARRISON REDI-MIX CORP (GEORGIA IND PARK ROAD)","VT0000005001100003","VT","110038782715","327320",44.69484,-73.09737,,,
"HAZELETT STRIP-CASTING CORP","VT0005000700057","VT","110000314829","332999",44.54566,-73.21831,0,,
"HBH HOLDINGS LLC - GREEN MOUNTAIN PRESTAIN","VT0000005000300022","VT","110038774449","321992",43.05697,-73.16074,,,
"HBH HOLDINGS LLC - HBH PRESTAIN","VT0000005000300018","VT","110008206244","321992",43.062669,-73.143669,,,
"HEARTH & HOME TECHNOLOGIES LLC (BETHEL)","VT0000005002700007","VT","110012499714","333414",43.824696,-72.616364,,,
"HEARTH & HOME TECHNOLOGIES LLC (RANDOLPH)","VT0000005001700007","VT","110001124060","331511",43.9014,-72.6523,,,
"HEFFERNAN BROTHERS AGGREGATE, LLC","VT0005000100019","VT","110070132751","212319",44.15846,-73.10551,,,
"HERMITAGE MEMBERS CLUB INC","VT0000005002500019","VT","110007329961","721110",42.903056,-72.893056,,,
"HIGH POND WOODWORK LLC","VT0000005002100001","VT","110010409156","337122",43.689522,-72.973831,,,
"HINESBURG SAND & GRAVEL COMPANY INC","VT0000005000700045","VT","110023156626","212319",44.3223324,-73.0945105,,,
"HODGDON BROTHERS INC","VT00000050027CFC01","VT","110007330174","928110",43.3991404,-72.4080073,,"POF","Privately Owned Facility"
"HUNTER WOOD PRODUCTS LLC ","VT0000005002100034","VT","110006536757","321912",43.554311,-72.970876,,,
"HUSKY INJECTION MOLDING SYSTEMS INC","VT0005000700061","VT","110008212166","333249",44.65333,-73.09284,,,
"ILH LLC (SOUTH BURLINGTON-GREEN ACRES BROWNEL QUARRY)","VT0000005000700043","VT","110014338813","212312",44.45838,-73.13545,,,
"ILH LLC (WILLISTON)","VT0000005000700022","VT","110005294993","327331",44.45986,-73.12778,,"POF","Privately Owned Facility"
"ISLAND POND WOOD PRODUCTS","VT0000005000900003","VT","110014364632","337122",44.81346,-71.89006,,,
"ISOVOLTA INC","VT0000005002100009","VT","110000603053","322299",43.584888,-72.963722,1433,,
"J P CARRARA & SONS INC (EAST MIDDLEBURY)","VT0000005000100011","VT","110007329989","212319",43.9977846,-73.1782944,,,
"JAY PEAK PACIFIC LLC","VT0005001900015","VT","110071722405","713920",44.928555,-72.501377,,,
"JBM SHERMAN CARMEL INC","VT0005000300025","VT","110070379936","332812",42.869216,-73.1285317,,,
"JELD-WEN INC (LUDLOW)","VT0000005002700017","VT","110005294207","321911",43.391,-72.681,,,
"JKA ACQUISITION CO LLC","VT0000005000300003","VT","110007329569","321999",43.23128,-73.07838,,,
"JOHNSON CONTROLS INC","VT0000005000300012","VT","110007329300","335911",42.904258,-73.216906,,,
"JONES & LAMSON VERMONT CORP","VT0000005002700009","VT","110009509335","333414",43.28843,-72.47218,,,
"K & B CRUSHING EQUIPMENT LLC (PORTABLE CRUSHER)","VT0000005077700003","VT","110046597189","212319",44.0605475,-72.673354,,,
"KAMAN COMPOSITES - VERMONT INC","VT0005000300026","VT","110058315942","335991",42.894369,-73.19624,,,
"KAYTEC INC","VT0000005001100002","VT","110005293413","326199",45.001705,-72.577157,,,
"KENNAMETAL INC","VT0000005000500007","VT","110024927631","332212",44.534991,-72.005188,,,
"KENT NUTRITION GROUP INC (RICHFORD)","VT0000005001100004","VT","110000581576","311119",45.00148,-72.66306,,,
"KER PHANEUF FUNERAL HOME INC","VT0000005002500027","VT","110014338822","812210",42.85346,-72.56053,,,
"KEURIG GREEN MOUNTAIN INC","VT0000005000700052","VT","110005299747","311920",44.51504,-73.13503,,,
"KEURIG GREEN MOUNTAIN INC (WATERBURY)","VT0000005002300008","VT","110001915731","311920",44.337051,-72.754898,,,
"KILLINGTON WOOD PRODUCTS","VT0000005002100013","VT","110010409227","321920",43.59774,-73.04814,,,
"KILLINGTON-PICO SKI RESORT PARTNERS LLC","VT0000005002100025","VT","110044797235","721110",43.617222,-72.806389,,,
"KIOSKO USA","VT0000005002700010","VT","110008208938","337122",43.332998,-72.538001,,,
"KOFFEE KUP BAKERY INC","VT0005000700062","VT","110070379937","311812",44.4885,-73.200762,,,
"LAKE CHAMPLAIN TRANSPORTATION COMPANY (BURLINGTON)","VT0000005000700050","VT","110008211684","336611",44.474777,-73.21022,,,
"LAKE CHAMPLAIN TRANSPORTATION COMPANY (SHELBURNE)","VT0000005000700051","VT","110055111052","336611",44.43499,-73.24941,,,
"LAMELL LUMBER CORPORATION","VT0000005000700032","VT","110001915875","321912",44.503396,-73.034147,,,
"LAMOILLE NORTH MODIFIED UNIFIED UNION SCHOOL DISTRICT #58","VT0000005001500010","VT","110036863784","611110",44.5999,-72.6308,,,
"LANE CONSTRUCTION (THE)","VT0000005002500069","VT","110038782840","324121",42.8386847,-72.6599846,,,
"LANE PRESS INC (THE)","VT0000005000700003","VT","110000826937","511120",44.442871,-73.158116,,,
"LEPAGE BAKERIES BRATTLEBORO LLC","VT0005002500029","VT","110015587248","311812",42.82898,-72.56561,,,
"LONG FALLS PAPERBOARD LLC","VT0000005002500004","VT","110000763148","322130",42.888826,-72.546158,,,
"LUZENAC AMERICA (CHESTER)","VT0000005002700001","VT","110062726858","212399",43.2526936,-72.6431023,,,
"LUZENAC AMERICA (JOHNSON)","VT0000005001500002","VT","110007329364","212399",44.62954,-72.6986,,,
"LUZENAC AMERICA (WEST WINDSOR)","VT0000005002700002","VT","110007328533","212399",43.46908,-72.52883,,,
"LYNDON WOODWORKING INC (LYNDON)","VT0000005000500011","VT","110008210088","337122",44.496405,-72.018149,,,
"LYNDON WOODWORKING INC (NORTH CONCORD)","VT0005000900006","VT","110070379962","337122",44.46678,-71.85497,,,
"LYNDON WOODWORKING INC (ST JOHNSBURY)","VT0000005000500015","VT","110007330236","337122",44.404723,-71.983074,,,
"MACK MOLDING COMPANY INC (ARLINGTON)","VT0000005000300006","VT","110001136155","326199",43.07181,-73.15339,,,
"MACK MOLDING COMPANY INC (CAVENDISH)","VT0000005002700003","VT","110008205405","326199",43.38215,-72.60921,,,
"MAGRIS TALC USA INC","VT0000005002700301","VT","110010911843","212399",43.38555,-72.668277,,,
"MATT WAITE EXCAVATION INC (DBA KELCO CONCRETE)","VT0005002100045","VT","110070379963","327320",43.37588,-73.14019,,,
"MCLELLAN TRUCKING LLC","VT0000005000300029","VT","110071084244","212319",43.37486,-73.12715,,,
"MELSUR CORP","VT0000005002500026","VT","110013396538","326199",43.08953,-72.45734,,,
"MIDDLEBURY COLLEGE","VT0000005000100004","VT","110007329266","611110",44.0075,-73.1775,,,
"MONAHAN-SFI LLC","VT0000005000100016","VT","110008205147","325222",44.01448,-73.10128,,,
"MOORE DOCUMENT SOLUTIONS","VT0000005002100016","VT","110038782760","323111",43.58546,-72.96808,,,
"MORAN GENERATING STATION","VT0000005000700036","VT","110038781716","221112",44.48096,-73.22187,,"POF","Privately Owned Facility"
"MORETOWN LANDFILL INC","VT0005002300023","VT","110070145025","562212",44.31215,-72.70877,,,
"MORRISONS CUSTOM FEEDS INC (ST J)","VT0005000500019","VT","110070132741","311224",44.493,-72.00504,,,
"MOUNT ANTHONY UNION HIGH SCHOOL","VT0005000300027","VT","110070380199","611110",42.88496,-73.19293,,,
"MOUNT PLEASANT CREMATORY","VT0000005000500016","VT","110027235141","812220",44.426598,-72.021947,,,
"MOUNT SNOW SKI RESORT","VT0000005002500018","VT","110007329952","721110",42.967778,-72.894722,,,
"MOUNTAIN PAPER PRODUCTS CORPORATION","VT0000005002500001","VT","110062725840","322121",43.13044,-72.44325,,"POF","Privately Owned Facility"
"MYLAN TECHNOLOGIES INC (BUILDINGS B, BE, AND E SWANTON)","VT0000005001100020","VT","110005262287","323111",44.9233638,-73.1442864,,,
"MYLAN TECHNOLOGIES INC (ST ALBANS)","VT0000005001100006","VT","110000496124","325412",44.81097,-73.08772,811,,
"NATIONAL LIFE INSURANCE COMPANY","VT0000005002300003","VT","110001915624","524113",44.25764,-72.58513,,,
"NEO EMS","VT0000005002100004","VT","110001122936","335999",43.80565,-73.0915,,,
"NEW ENGLAND COMPOSITES INC","VT0000005000500013","VT","110007330138","336399",44.383651,-71.970304,,,
"NEW ENGLAND WASTE SERVICES OF VERMONT INC","VT0000005001900012","VT","110006537051","562212",44.90871,-72.22104,,,
"NEW ENGLAND WOODCRAFT INC (FOREST DALE)","VT0000005002100003","VT","110007400883","337122",43.7902,-73.098029,,,
"NEW SPECIALTY FILAMENTS (BURLINGTON)","VT0000005000700002","VT","110001915713","325222",44.46713,-73.21498,,,
"NEXTERA RENEWABLE FUELS INVESTMENT COMPANY LLC","VT0000005002300018","VT","110038454936","562212",44.2616434,-72.7653993,,,
"NORTH COUNTRY HOSPITAL & HEALTH CENTER INC","VT0000005001900009","VT","110007330272","622110",44.9547,-72.20186,,,
"NORTH EAST MATERIALS GROUP LLC (HOT MIX ASPHALT PLANT)","VT0000005002300019","VT","110046597198","212319 324121",44.14716,-72.48175,,,
"NORTHEAST TOOLS DIVISION","VT0000005000500005","VT","110008204861","332212",44.5739,-72.02127,,,
"NORTHEAST WOOD PRODUCTS INC","VT0000005000300002","VT","110007329541","321912",42.76518,-73.23823,,,
"NORTHEASTERN VERMONT REGIONAL HOSPITAL","VT0000005000500014","VT","110043088459","622110",44.44526,-72.00891,,,
"NORTHWESTERN MEDICAL CENTER INC","VT0000005001100013","VT","110007329881","622110",44.808227,-73.077003,,,
"NORWICH UNIVERSITY","VT0000005002300006","VT","110024930805","611310",44.13827,-72.65857,,,
"NSK STEERING SYSTEMS AMERICA, INC","VT0005000300028","VT","110039409351","336330",42.8968,-73.19061,,,
"NUTRA-BLEND (OLD MILL TROY)","VT0005001100030","VT","110069429853","311119",44.816796,-73.097341,,"POF","Privately Owned Facility"
"OFFSET HOUSE INC (THE)","VT0000005000700020","VT","110005294635","323111",44.49122,-73.05005,,,
"OKEMO MOUNTAIN RESORT (SKI RESORT)","VT0000005002700013","VT","110005294706","721110",43.40192,-72.71613,,,
"OMYA EAST PLANT (FORMERLY WHITE PIGMENT)","VT0000005002100005","VT","110038782751","212312",43.6940131,-73.0804567,,"POF","Privately Owned Facility"
"OMYA INC (BRANDON SMOKERISE QUARRY)","VT0000005002100022","VT","110038782779","212312",43.810474,-73.09028,,,
"OMYA INC (FLORENCE HOGBACK QUARRY)","VT0000005002100028","VT","110009766805","212312",43.604507,-73.064519,,,
"OMYA INC (FLORENCE VERPOL AND EAST PLANT)","VT0000005002190001","VT","110009766805","212312",43.604507,-73.064519,,,
"OMYA INC (MIDDLEBURY)","VT0000005000100002","VT","110012292330","212312",43.985892,-73.132035,,,
"OMYA INC (NEW HAVEN)","VT0000005000100018","VT","110062725555","212312",44.1129766,-73.1583623,,,
"OMYA INC (PROCTOR)","VT0000005002100011","VT","110005299596","221111",43.662499,-73.035934,,,
"PALMER BROS DRY CLEANING","VT0000005000509001","VT","110010409316","812320",44.4751807,-73.2178567,,"POF","Privately Owned Facility"
"PALMER BROTHERS INC","VT0000005000500010","VT","110001915857","812320",44.418109,-72.017288,,,
"PBM NUTRITIONALS LLC","VT0000005001100017","VT","110017405618","311514",44.69723,-73.09765,0,,
"PBM NUTRITIONALS LLC (VT WHEY)","VT0000005001100018","VT","110062704097","311514",44.6459082,-73.1592206,,,
"PECKHAM MATERIALS","VT0000005000700040","VT","110012144606","324121",44.50515,-73.182259,,,
"PHOENIX FEEDS AND NUTRITION INC (BRANDON)","VT0000005002100035","VT","110007330316","311119 424910",43.778795,-73.09726,,,
"PHOENIX PAPER CO","VT0000005000500001","VT","110038781672","322121",44.2440005,-72.1108032,,,
"PICO SKI RESORT - SEE KILLINGTON-PICO SKI RESORT PARTNERS","VT0000005002100024","VT","110064320685","721110",43.66691,-72.79808,,"POF","Privately Owned Facility"
"PIKE INDUSTRIES INC (BERLIN)","VT0000005002300011","VT","110008208073","324121",44.21001,-72.56543,4,,
"PIKE INDUSTRIES INC (COVENTRY)","VT0000005001900001","VT","110007329373","324121",44.865551,-72.25325,,,
"PIKE INDUSTRIES INC (DANBY)","VT0000005002100026","VT","110008211363","324121",43.325795,-72.991311,,,
"PIKE INDUSTRIES INC (JOHNSON)","VT0000005001500001","VT","110007329355","324121",44.62476,-72.679359,,,
"PIKE INDUSTRIES INC (NEW HAVEN)","VT0000005000100005","VT","110007329275","324121",44.08574,-73.18221,0,,
"PIKE INDUSTRIES INC (NORTH CLARENDON)","VT0000005002100010","VT","110007329391","324121",43.567363,-72.959692,,,
"PIKE INDUSTRIES INC (PORTABLE HMA #P733)","VT0000005077700002","VT","110033142329","324121",44.0605475,-72.673354,,,
"PIKE INDUSTRIES INC (PORTABLE HMA #P736) (OBSOLETE RECORD: SEE PIKE NEW HAVEN)","VT0000005077700001","VT","110020498451","324121",44.0605475,-72.673354,,,
"PIKE INDUSTRIES INC (SWANTON)","VT0000005001100012","VT","110007329337","324121",44.91252,-73.11947,,,
"PIKE INDUSTRIES INC (WALLINGFORD)","VT0000005002100020","VT","110062725582","324121",43.427094,-72.9499415,,,
"PIKE INDUSTRIES INC (WATERFORD)","VT0000005000500003","VT","110010911834","324121",44.37492,-71.95161,1,,
"PIKE INDUSTRIES INC (WEBSTERVILLE)","VT0000005002300009","VT","110007329774","212313",44.1573141,-72.4776419,,,
"PIKE INDUSTRIES INC (WILLISTON)","VT0000005000700035","VT","110007329328","324121 327331",44.4291659,-73.0963101,,,
"PK WOOD PELLET LLC","VT0000005001700010","VT","110071356620","321999",44.15855,-72.08599,,,
"POMPANOOSUC MILLS CORPORATION","VT0000005001700001","VT","110007329621","337122",43.81546,-72.18827,,,
"PORTER MEDICAL CENTER INC","VT0000005000100010","VT","110007329747","622110",43.99948,-73.16847,,,
"POULIN GRAIN INC (NEWPORT)","VT0000005001900011","VT","110007330281","424910",44.9364,-72.20561,,,
"POULIN GRAIN INC (SWANTON)","VT0000005001100026","VT","110007330307","424910",44.9233638,-73.1442864,,,
"POWNAL TANNING CO","VT0000005000300007","VT","110062725564","316110",42.8116158,-73.2626499,,"POF","Privately Owned Facility"
"PRECI-MANUFACTURING INCORPORATED","VT0005000700058","VT","110005294216","333512",44.50198,-73.18398,,,
"PRECISION COMPOSITES OF VERMONT LLC (GILMAN ROAD)","VT0000005000500012","VT","110008209349","333319",44.54722,-72.01956,,,
"PRECISION VALLEY FINISHING INC","VT0000005002700020","VT","110001915928","332813",43.29582,-72.48075,,,
"QUEEN CITY PRINTERS","VT0000005000700029","VT","110001915795","323111",44.46008,-73.21448,,,
"QUESTECH CORPORATION (MIDDLEBURY)","VT0000005000100008","VT","110005299088","326199",44.03454,-73.16888,,,
"QUESTECH CORPORATION (RUTLAND)","VT0000005002100036","VT","110020572860","321211",43.59451,-72.97916,298,,
"REGENERATIVE LAND HOLDINGS LLC","VT0000005002100012","VT","110001915651","611310",43.51714,-73.23957,,,
"RENEWABLE FUELS OF VERMONT LLC","VT0005002700024","VT","110070050212","321999",43.469571,-72.529722,,,
"RJF VERMONT BRICK LLC","VT0000005001100024","VT","110007330254","327331",44.9565292,-73.0171998,,,
"ROCK OF AGES CORP (BARRE HQ) - SEE ROCK OF AGES CORPORATION (BARRE)","VT0000005002300014","VT","110010844783","327991",44.14638,-72.48094,,"POF","Privately Owned Facility"
"ROCK OF AGES CORPORATION (BARRE)","VT0000005002300017","VT","110009509255","212311",44.15495,-72.49326,,,
"ROCK OF AGES CORPORATION (BETHEL)","VT0000005002700022","VT","110024420731","327991",43.86501,-72.61274,,,
"RUTLAND PLYWOOD CORP (RIPLEY MILL)","VT0000005002100017","VT","110000314918","321211",43.6029,-73.00373,,,
"RUTLAND REGIONAL MEDICAL CENTER","VT0000005002100023","VT","110038106821","622110",43.59927,-72.95582,,,
"RYEGATE ASSOCIATES","VT0000005000500004","VT","110028047398","221119",44.216387,-72.057966,,,
"SAFETY MEDICAL SYSTEMS","VT0000005000700001","VT","110000896861","562211",44.511106,-73.178468,,,
"SAINT ALBANS CREAMERY LLC","VT0000005001100009","VT","110000314865","311511",44.81563,-73.08485,0,,
"SAINT MICHAELS COLLEGE","VT0000005000700015","VT","110002057611","611110",44.493168,-73.168688,,,
"SAPUTO CHEESE USA INC","VT0000005000700019","VT","110009509308","311513",44.331104,-73.110639,,,
"SCA TISSUE NORTH AMERICA LLC","VT0000005002500021","VT","110012499876","322121",42.83667,-72.54737,,,
"SCITEST INC","VT0000005001700008","VT","110007330076","541380",43.9670716,-72.7086036,,,
"SEVERN TRENT LABORATORIES (COLCHESTER)","VT0000005000700026","VT","110000826928","541380",44.503712,-73.181156,,,
"SHELBURNE CORP","VT0000005000700009","VT","110000314883","332116",44.36571,-73.23324,,,
"SHELBURNE LIMESTONE CORPORATION (HQ)","VT0000005000700053","VT","110032662900","212311",44.53405,-73.133833,,"POF","Privately Owned Facility"
"SHELBURNE LIMESTONE CORPORATION (SHELBURNE)","VT0000005000700016","VT","110056284104","212311 212312",44.38514,-73.18528,,,
"SHELBURNE LIMESTONE CORPORATION (SWANTON)","VT0000005001100007","VT","110056284097","212312",44.91252,-73.11947,,,
"SHM SHELBURNE LLC","VT0000005000700049","VT","110008206084","336612",44.43499,-73.24941,,,
"SIMMONDS PRECISION PRODUCTS INC","VT0000005000100007","VT","110000826848","334519",44.16298,-73.26335,0,,
"SKI MAGIC LLC","VT0005002500031","VT","110070380077","713920",43.20199,-72.77296,,,
"SKYLINE CORPORATION","VT0000005002100033","VT","110000581594","321991",43.575491,-73.26401,,,
"SMITH INC","VT0000005002500002","VT","110038782797","321211",43.2449269,-72.8105898,,,
"SMUGGLERS NOTCH RESORT","VT0000005001500007","VT","110009509727","721110",44.58872,-72.78519,,,
"SOUNDVIEW VERMONT HOLDINGS LLC","VT0000005002500009","VT","110009316560","322121",42.974631,-72.517117,,,
"SOUTHWESTERN VERMONT MEDICAL CENTER INC","VT0000005000300010","VT","110009509763","622110",42.87352,-73.20757,,,
"SPRINGFIELD HOSPITAL","VT0000005002700014","VT","110038106885","622110",43.29755,-72.49466,,,
"STAMFORD (TOWN OF) INCINERATOR","VT0000005000300019","VT","110062745695","562213",42.8082501,-73.0763307,,,
"STANDARD REGISTER CO","VT0000005000100015","VT","110008205343","323111",43.98747,-73.13429,,,
"STANLEY BLACK & DECKER INC (SHAFTSBURY)","VT0000005000300008","VT","110062745686","332212",42.9737188,-73.0753429,,,
"STATE LINE FARM BIOFUELS, LLP","VT0000005000300023","VT","110070049932","325199",42.95389,-73.27372,,,
"STO CORP","VT0005002100042","VT","110008206342","325510",43.58492,-72.95983,,,
"STRATTON MOUNTAIN RESORT","VT0000005002500033","VT","110070249709","713920",43.11403,-72.90527,,,
"SUGARBUSH MOUNTAIN RESORT INC","VT0000005002300015","VT","110007329943","721110",44.13953,-72.88552,,,
"SUPER-TEMP WIRE & CABLE LLC (SOUTH BURLINGTON)","VT0005000700065","VT","110070380221","335929",44.44112,-73.14648,,,
"SUPERIOR TECHNICAL CERAMICS CORPORATION","VT0000005001100031","VT","110007400927","327110 327122",44.798918,-73.097919,,,
"SWAN VALLEY CHEESE OF VERMONT LLC","VT0000005001100023","VT","110007400865","311513",44.92871,-73.12895,,,
"SWEAT-COMINGS CO","VT0000005001100011","VT","110062745739","337122",44.996442,-72.672134,,,
"SWEET TREE HOLDINGS 1 LLC (BRIGHTON)","VT0005000900005","VT","110070132749","111998",44.8166912,-71.8353182,,,
"SWEET TREE HOLDINGS 1 LLC (FERDINAND)","VT0005000900007","VT","110070380078","111998",44.8166912,-71.8353182,,,
"SWENSON GRANITE CO LLC (WOODBURY QUARRY)","VT0005002300021","VT","110070132752","212311",44.435722,-72.394721,,,
"THE AMES COMPANIES INC","VT0000005002100018","VT","110010911727","321999",43.477721,-72.978742,,,
"THORS ELEGANCE INC","VT0005002100046","VT","110070380120","337122",43.80565,-73.0915,,,
"TIVOLY USA INC","VT0000005001900002","VT","110000314954","325510",45.00411,-72.10736,151,,
"TREW STONE LLC","VT0000005001900020","VT","110070684649","324121",44.80415,-72.26252,,,
"TROY MINERALS INC","VT0000005002100007","VT","110010844774","212393",43.406593,-72.995178,,,
"TWIN STATE SAND & GRAVEL INC","VT0000005002700023","VT","110056135917","212319",43.60437,-72.33686,,,
"UNIFIRST CORPORATION","VT00000050023E0001","VT","110016709533","812331",44.12231,-72.54521,,,
"UNITED STATES (FEDERAL) GOVERNMENT VETERANS AFFAIRS MEDICAL CENTER (THE)","VT0000005002700008","VT","110010409183","622110",43.650173,-72.322319,,"FDF","Federal Facility (U.S. Government)"
"UNIVERSITY OF VERMONT (ENVIRONMENTAL SAFETY FACILITY)","VT0005000700063","VT","110070379996","562112",44.4741574,-73.1963657,,,
"UNIVERSITY OF VERMONT (MAIN CAMPUS)","VT0000005000700008","VT","110001915517","611310",44.474621,-73.194789,,,
"UNIVERSITY OF VERMONT MEDICAL CENTER (1 SOUTH PROSPECT STREET CAMPUS)","VT0000005000700038","VT","110037599131","622110",44.4751807,-73.2178567,,,
"UNIVERSITY OF VERMONT MEDICAL CENTER (FANNY ALLEN CAMPUS)","VT0000005000700014","VT","110009509371","622110",44.497645,-73.157848,,,
"UNIVERSITY OF VERMONT MEDICAL CENTER (MCHV CAMPUS)","VT0000005000700007","VT","110000843080","622110",44.4807,-73.19655,,,
"VELAN VALVE UNITED STATES OPCO INC","VT0000005000700025","VT","110005261000","332911",44.46225,-73.1242,,,
"VERMONT (STATE OF) AIR NATIONAL GUARD","VT00000050007X0039","VT","110005260724","115310",44.475861,-73.144841,,"FDF","Federal Facility (U.S. Government)"
"VERMONT (STATE OF) ARMY NATIONAL GUARD (COLCHESTER)","VT0000005000700044","VT","110037143356","928110",44.50107,-73.16273,,"FDF","Federal Facility (U.S. Government)"
"VERMONT (STATE OF) ARMY NATIONAL GUARD (S. BURLINGTON)","VT0005000700064","VT","110070379919","332812",44.48336,-73.16291,,,
"VERMONT (STATE OF) BENNINGTON VETERANS HOME","VT0000005000300011","VT","110001915679","623110",42.8858,-73.19838,,,
"VERMONT (STATE OF) MONTPELIER CAPITAL COMPLEX HEATING PLANT","VT0000005002300010","VT","110007329783","921190",44.26,-72.581111,,,
"VERMONT (STATE OF) NEWPORT NORTHERN STATE CORRECTIONAL FACILITY","VT0000005001900007","VT","110012144615","337211 922140",44.90564,-72.19379,,,
"VERMONT (STATE OF) SPRINGFIELD SOUTHERN STATE CORRECTIONAL FACILITY","VT0000005002700019","VT","110020582305","922140",43.3106272,-72.4616234,,,
"VERMONT (STATE OF) WATERBURY STATE OFFICE COMPLEX","VT0000005002300007","VT","110001915580","921190",44.331111,-72.756111,,,
"VERMONT ACADEMY","VT0005002500030","VT","110070156264","611110",43.14154,-72.50624,,,
"VERMONT AGGREGATES LLC (MILTON)","VT0000005000700056","VT","110070029107","212319 324121",44.631127,-73.149391,,,
"VERMONT AGGREGATES LLC (PORTABLE CRUSHER)","VT0005000700056","VT","110066981047","212319",44.631127,-73.149391,,,
"VERMONT AOT DISTRICT 4","VT0000005002700018","VT","110014338804","811111",43.4956013,-72.4422541,,"STF","State Government"
"VERMONT ASBESTOS GROUP INC","VT0000005001980000","VT","110062726849","212399",44.7934371,-72.4584514,,,
"VERMONT BREAD","VT00000050025CFC01","VT","110005299961","311812",42.83835,-72.55421,,,
"VERMONT CIRCUITS INC","VT0000005002500005","VT","110001124079","334412",42.87599,-72.56291,,,
"VERMONT DOWEL & SQUARE COMPANY","VT0000005000500009","VT","110001915740","321999",44.419709,-72.013511,,,
"VERMONT FASTENERS MFG (IFC)","VT0000005001100021","VT","110001915973","332722",44.930194,-73.129766,,,
"VERMONT FLEXIBLE TUBING INC","VT0000005000500002","VT","110008205058","332813",44.53295,-71.99324,,,
"VERMONT GAS SYSTEMS INC","VT0005000700055","VT","110023061238","221210",44.5144,-73.17874,,,
"VERMONT HARD CIDER COMPANY LLC","VT0005000100021","VT","110062627732","312130",44.035735,-73.166322,,,
"VERMONT MACHINE TOOL CORPORATION","VT0000005002700021","VT","110005294298","333512",43.30195,-72.48818,,,
"VERMONT NATURAL FOREST PRODUCTS","VT0000005001100029","VT","110043294048","321912",44.98497,-72.67377,,,
"VERMONT PLASTICS INC","VT0000005002300001","VT","110007329514","326199",44.25918,-72.60981,,,
"VERMONT PLATING","VT0000005002100029","VT","110001915955","332813",43.60061,-72.97079,,,
"VERMONT PLYWOOD LLC","VT0000005000100006","VT","110018898638","321211",43.919392,-72.841476,,,
"VERMONT PRECISION TOOLS INC","VT0000005001100027","VT","110005262410","335314",44.9243,-73.12678,,,
"VERMONT PRECISION WOODWORKS","VT0000005001500006","VT","110007328506","321999",44.572222,-72.600833,,,
"VERMONT PUBLIC POWER SUPPLY AUTHORITY (SWANTON COMBUSTION TURBINES)","VT0000005001100028","VT","110042150472","221112",44.91869,-73.10172,,,
"VERMONT QUALITY WOOD PRODUCTS LLC","VT0000005002100031","VT","110007330129","337122",43.81723,-73.11318,,,
"VERMONT QUARRIES CORP (DANBY QUARRY)","VT0005002100047","VT","110070380085","212311",43.32724,-72.996503,,,
"VERMONT STATE UNIVERSITY (CASTLETON)","VT0005002100044","VT","110070380130","611310",43.60942,-73.17769,,,
"VERMONT STATE UNIVERSITY (JOHNSON)","VT0000005001500004","VT","110005298221","611310",44.638903,-72.671474,,,
"VERMONT STATE UNIVERSITY (LYNDON)","VT0005000500022","VT","110070379938","611310",44.5462945,-72.0488694,,,
"VERMONT STATE UNIVERSITY (RANDOLPH)","VT0005001700009","VT","110070132430","611310",43.94073,-72.60472,,,
"VERMONT STORE FIXTURE CORPORATION","VT0000005002100027","VT","110007330101","337215",43.341431,-72.995308,,,
"VERMONT TUBBS (HOWE CENTER)","VT0000005002100014","VT","110062745766","337122",43.6123987,-73.0603041,,,
"VERMONT WIREFORM INC","01000000E000000054","VT","110018899067","999999",43.996402,-72.448241,,,
"VERMONT WOOD PELLET COMPANY LLC","VT0000005002100039","VT","110044318930","321999",43.53089,-72.954834,,,
"VESTSHELL VERMONT INC","VT0000005001100015","VT","110038782724","331511",44.7915668,-73.1177628,,,
"VICON RECOVERY SYSTEMS INC","VT0000005002100008","VT","110062745757","562213",43.60344,-72.9933,,,
"VISHAY TANSITOR","VT0000005000300024","VT","110070380260","334416",42.877547,-73.252354,,,
"VR US HOLDINGS II, LLC D.B.A. STOWE MOUNTAIN RESORT","VT0000005001500008","VT","110001915839","721110",44.510607,-72.764839,,,
"WEIDMANN ELECTRICAL TECHNOLOGY INC","VT0000005000500006","VT","110041148488","322130",44.48371,-72.01543,,,
"WESTMINSTER CRACKER COMPANY INC","VT0005002100041","VT","110067159595","311821",43.60049,-72.97407,,,
"WESTROCK CONVERTING LLC","VT0000005001100005","VT","110007328490","322130",44.909945,-72.976094,0,,
"WHISTLEPIG LLC","VT0005000100020","VT","110070132614","312140",43.91214,-73.27648,,,
"WILK PAVING INC","VT0000005002100037","VT","110038047627","324121",43.60419,-73.0041,,,
"WILLIAM E DAILEY HMA OPERATED BY PIKE/PECKHAM (OBSOLETE RECORD NO LONGER USED)","VT0000005000300013","VT","110007329836","327320",42.988349,-73.197112,,"POF","Privately Owned Facility"
"WILLIAM E DAILEY INC (SHAFTSBURY)","VT0000005000300009","VT","110062726830","324121",42.9737188,-73.0753429,,,
"WILSON BRONZE","VT0000005002300013","VT","110062745784","331529",44.1854797,-72.4535928,,,
"WINDHAM VETERINARY CLINIC","VT0000005002500025","VT","110007330227","541940",42.8386847,-72.6599846,,,
"WORKSPACE INC","VT0000005001700002","VT","110038782733","321999",43.908796,-72.4593064,,,
"YANKEE CORPORATION (THE)","VT0005001100032","VT","110008207332","333515",44.69077,-73.09897,,,
"YORK ELECTRONICS CORPORATION","VT0000005000700021","VT","110005260984","334414",44.50247,-73.18371,,,
